areatype,index,name,address,phone_number,average_rating,latitude,longitude,business_hours,image_url
32,1,Bono,"240-29 Seonsayujeok-ro, Sonyang-myeon, Yangyang-gun, Gangwon-do",0336735209,4.2,38.0534795,128.6863165,"checkin_time:3:00 PM,checkout_time:11:00 AM",https://lh3.googleusercontent.com/gps-proxy/ALd4DhHpQtmDVP6Wwa1Lb04ikY75lW_Ni78aA1qFDnCTLyjEoL0dxP6SQkWILmYd3ooKVg-WTCIJ09jaqTqUnmrDB2V4bsWZl5X2WbayKHfQo6ATT0DReysM9FRXF444Vf82FmXP_zEzt2nuMLAzEkndG4L90tWrpXv511R1CSzXfCCx9QV-Pft57q7S6w=w408-h254-k-no
32,2,Renebleu by Walkerhill,"산2-22 Oho-ri, Jugwang-myeon, Goseong-gun, Gangwon-do",0336307800,4.5,38.3321246,128.5267427,"checkin_time:3:00 PM,checkout_time:11:00 AM",https://lh5.googleusercontent.com/p/AF1QipMxGR59YCDCmiT150itBTmlrghB9YrPs06_dk4r=w426-h240-k-no
32,3,Seorak Garden Villas,"467-1 Sangbok-ri, Ganghyeon-myeon, Yangyang-gun, Gangwon-do",0336735679,4.0,38.1410497,128.5632702,"checkin_time:3:00 PM,checkout_time:11:00 AM",https://lh3.googleusercontent.com/gps-proxy/ALd4DhFJKE6tIqZtlwohZ7_5oeSVLUa6REOpFrSDJTgZ5M2bjbrR_efNmQCtB-blJJctK4dK0RhdhK0q8U--_KHRSHy2AS1nvFocslE18Ipk75z9t3ElP51If5_RuyUTZXKWGoowKpEWYvoGfLU9vkn1Bx9OxWRNxukqihiFje1Z-G8TTMCPkFn319pi=w408-h250-k-no
32,4,Gyeongpo Emerald,"26 Haean-ro 406beon-gil, Gangmun-dong, Gangneung-si, Gangwon-do",0336444810,4.2,37.798635,128.9146875,"checkin_time:2:00 PM,checkout_time:12:00 PM",https://lh3.googleusercontent.com/gps-proxy/ALd4DhG12vX80n_3THMDUB3gox6f5M7tzdNgRpPuoiLDtjUr0SCRtkxgsRhyBSNcZ5WlC9zTtUerNRfy2g19iE7Ach4fe8pnYac9fC8uc3CyjOvkBriB7vCWOoEAqgepYwct6tV2NfgGFri9xlm3c6YhVRPAtytwiheANooolKEDgjKMnAdRnMQhp6s=w408-h274-k-no
32,5,Green Castle Pension,"8-12 Baegundong-gil, Bongpyeong-myeon, Pyeongchang-gun, Gangwon-do",01036615858,3.6,37.6173159,128.3470455,"checkin_time:3:00 PM,checkout_time:11:00 AM",https://lh3.googleusercontent.com/gps-proxy/ALd4DhGX83lkW5HKwn-qxaC-ZBHZYfYTNIrxkxnyL1MsP6NX4cO2G-RMoWvf1jkAxYrrwQyrU4xnXtMCSNS9TsSvZERO-LfQ5aC17a_IeRMy4HqJz5osTRxtMXFDGbWsh--VtrpcpqO7gp7tI0GG0Dtuunhcg-7DzSnKZaExsBpaSbzVFy7LDzT0iY0=w408-h272-k-no
32,6,Sea Spa Pension,"66 Toseong-ro, Toseong-myeon, Goseong-gun, Gangwon-do",01065862502,4.6,38.2528507,128.5651596,"checkin_time:3:00 PM,checkout_time:11:00 AM",https://lh5.googleusercontent.com/p/AF1QipPSOD-9MR_e_gcXmBt4N6TNoYhXfDdZBzBnZvit=w426-h240-k-no
32,7,Hanwha Resort Pheonix Park,"228-33 Taegi-ro, Bongpyeong-myeon, Pyeongchang-gun, Gangwon-do",0333346100,4.0,37.5788354,128.3316633,"checkin_time:3:00 PM,checkout_time:11:00 AM",https://lh3.googleusercontent.com/gps-proxy/ALd4DhGf_aIFAq-BPkGfHynom9gyGT8xTGDaj-kl1Rh_uMCyfQeGA5_KxCs2eOSUV43DqKlJGoIlGBuEZT-omL6CLSMOSE__zfQCjXovihaKE3lbve7lMNjHFRClq1YwiWIUw7abCwNsi0bdazpXCjPJWR6hgiyqCBYLUrtgGgwcF-ZPGkmViONAPPrI=w408-h300-k-no
32,8,Gangneung Gyeongpodae WYNN,"Gangneung-si, 창해로 485",01037816600,3.8,37.8034391,128.9092324,"checkin_time:,checkout_time:",https://lh5.googleusercontent.com/p/AF1QipOjjegpwMPWh5GFhvdU3l4KqglhQ1BLAIuEwChf=w408-h306-k-no
32,9,Hotel Cube,"Gangmun-dong, Gangneung-si, Gangwon-do",0336441541,3.7,37.7997436,128.9132198,"checkin_time:4:00 PM,checkout_time:11:00 AM",https://lh3.googleusercontent.com/gps-proxy/ALd4DhGt0unPZniAfNpFa0A9N-4h03jTM3G4B2ar26sHKo7NO-nN5dUJ9QogrftLvKWn4vEnptga2mLqGpAinO84WAiEk-ja02ZdD_8Ft4mvPs3IL75JJbnfiD_m8mIQB42T3QBydN2fGiR1tJleia4A4HG4dUSp8cbzu5GJG2l_4IU6KBhDnTr_90zZ=w408-h271-k-no
32,10,Pyeongchang Swiss Village Pension,"365-12 Daegwallyeongmaru-gil, Pyeongchang-gun, Gangwon-do",0333352016,4.3,37.685486,128.74251,"checkin_time:3:00 PM,checkout_time:11:00 AM",https://lh3.googleusercontent.com/gps-proxy/ALd4DhHP8Fhq6pRmSOgJ6hYAPsPJWTFDTvlFJbBfw44TRpg5841JF2gRuz86TAhVwGSOhBv6r0au6K7KeMxS2ufs81gg_958CCtxqxajn8jU0y5A1bCXfI203vcMcAEn4jj-nWaBJp2skbwP7Ip6lPbBb3vauwMfgFw4MePrsMCnlYWDHapi0C873GQS=w408-h306-k-no
32,11,Benikea Hotel Mountain & Ocean Daepohang,"3691 Donghae-daero, Sokcho-si, KW",0336356644,3.5,38.165663,128.6079706,"checkin_time:2:00 PM,checkout_time:12:00 PM",https://lh3.googleusercontent.com/gps-proxy/ALd4DhH0DSkBSc1Jzflg4II3WWdQASrR9tLTgnyz1PgWyGaXT03oGNRFSa_99ZAqYuLu-V3866-gKhgB8tzBwtq-WLZsIunXtp0mGeF2NBMTdvBKe_OUPUJ9UZq9psP8w-xra7IFgt_0LBUUE2__mInPA3leo2aTIXqYz99YkGixITT90bI8YndJ4AL4=w453-h240-k-no
32,12,Hongcheon White House Pension,"512 Hongcheongangbyeon-gil, Namsan-myeon, Chuncheon-si, Gangwon-do",0332631837,4.8,37.68149,127.64276,"checkin_time:2:00 PM,checkout_time:12:00 PM",https://lh3.googleusercontent.com/gps-proxy/ALd4DhEVXOeGsZtKNs9uwoFY3FzuqliZJR_Y13OCOuUfHUyb3r-aytPhZ3FSun0YVH7LrnhQlDBRyyjz-xa4h49FH2kBrH4MaeCMSIRj3xjnQy1S1kwTnS-szei4TYDCqr2zuMXaHU6yE5YwL7tn6M1phsUwMhXPDmLA5M4hW4cQ3UOImTmt2gNuUhXA=w408-h272-k-no
32,13,Wonju Central Hotel,"Gangwon-do, Do, 원주 강원 원주시 시청로 29-3",0261057115,4.2,37.340506,127.9240884,"checkin_time:3:00 PM,checkout_time:12:00 PM",https://lh5.googleusercontent.com/p/AF1QipMaE13FZ3PiUp-nFXw1RHrLdqmFwqQTLhBdtDmd=w408-h544-k-no
32,14,Seoul Taereung and Gangneung Royal Tombs,"산 223-19 Gongneung-dong, Nowon-gu, Seoul",029720370,4.7,37.6361397,127.0976792,"checkin_time:,checkout_time:",https://lh5.googleusercontent.com/p/AF1QipMPAUXBfNsocTk8hUj0ToOszLMxBc-eN59vnEC0=w408-h306-k-no
32,15,Chuncheon Morning Sky,"Gangwon-do, Chuncheon-si, Hyoseok-ro 9beon-gil, 15 모닝스카이",050350503276,3.9,37.865023,127.734715,"checkin_time:,checkout_time:",https://lh3.googleusercontent.com/gps-proxy/ALd4DhHW6jAPxtKczaXdD_82s4qC8-hE2X5OwJilgQmGo_eVpFy61FB34Iq4mAPqvAMYDhUjmqxyHX_bVMUKfIuXLyDKC8abkovOGwXxtQhT0zaUarFkpcZ12nYGeKC7YzGmcfjEoYnraCHsDy0k_4b3OTCdzVir6zzgzXMGqAAZeHmZohhYJ9nn85g=w408-h254-k-no
32,16,Jungfrau Pension,"192-75 Chahang-gil, Daegwallyeong-myeon, Pyeongchang-gun, Gangwon-do",01098511973,4.1,37.709435,128.69398,"checkin_time:3:00 PM,checkout_time:11:00 AM",https://lh3.googleusercontent.com/gps-proxy/ALd4DhFTfVujA3XmWG0MT4oAbC3xrazW08Py8-gN9vmVMQ-TrZ8a6XGufpTj-DPY3FH6MGy4qut40nimyezQ-lfkYKpWPcnTj4WcQ5XYS03c94P6fSx0B4EHjzDiCrTRS_zHESuNf9iGOVuSvgAfBmds9un-FGJGETLzx0S2SRTbwEGQn8sC8p0cvYOf=w426-h240-k-no
32,17,heavenmark in sokcho,"Yeongnanghaean 8-gil, Sokcho-si, Gangwon-do",01073860664,4.5,38.2168182,128.5939572,"checkin_time:3:00 PM,checkout_time:11:00 AM",https://lh3.googleusercontent.com/gps-proxy/ALd4DhHxxCRr3HCBVMUtlyEjmudwtf-_0R-oyokUdGlXnjIVepgJIamB1taMY07VAZWQAamMcJJphMMqTi_IC9YULmPQwY7ReCeK48cM0JmaWc6gvPcN1wsfk391C6EUFY7ywTRjhdD-_Nd2roUuhsFCFU5M098-NBQ08VAGjKFzQbPyXGhnW0S1AU-5=w408-h272-k-no
32,18,Soolim Motel,"4209 Donghae-daero, 교동 Sokcho-si, Gangwon-do",01076097784,2.2,38.19477,128.577,"checkin_time:,checkout_time:12:00 PM",https://www.google.com/maps/vt/pb=!1m5!1m4!1i14!2i28086!3i12616!4i128!2m2!1e1!3i982!3m9!2sen!3skr!5e1105!12m1!1e4!12m1!1e47!12m1!1e3!4e0!5m1!1e0!23i10205968!23i10208640!23i1368782!23i1368785!23i4861626!23i4897086!23i47054629!23i72310157
32,19,High 1 Palace Hotel & C.C,"Jeongsun-gun, Gohan, Gangwon",0335907111,4.2,37.1737785,128.8431294,"checkin_time:3:00 PM,checkout_time:11:00 AM",https://lh3.googleusercontent.com/gps-proxy/ALd4DhGO4_1d4EMxFlfAVXydc_9mBlyBvJlE-lGstyJaPjH4fJ2wejzZxCvMMiHvALJBUj2cHgfwzdHzuTrT4xx02oQdzdjQIK494Q31fbq-8WlewaPwIrq-mskirN40ff2Dru4dmsLlSD1MA9fmFaxUr7SN-cKkjCS5hbiV0CSDkF4n4eW_hSCK1129=w408-h306-k-no
32,20,Sol Beach Hotel & Resort,"453 Surobuin-gil, Samcheok-si, Gangwon-do",15884888,4.4,37.4713372,129.1638649,"checkin_time:3:00 PM,checkout_time:11:00 AM",https://lh5.googleusercontent.com/p/AF1QipO5epK-veZYDe5bVNr_an3gfTG2PpEcrW4ALq_P=w493-h240-k-no
32,21,Badadam,"5 Daejinhang-gil, Donghae-si, Gangwon-do",01052536357,4.7,37.577897,129.1155817,"checkin_time:3:00 PM,checkout_time:",https://lh5.googleusercontent.com/p/AF1QipMaNXhEvy0s8Yz4X-cD5-5f5sbf994o_fvBTX2T=w408-h269-k-no
32,22,Atti Pension,"174-8 Gangchon-ro, Namsan-myeon, Chuncheon-si, Gangwon-do",01045546478,2.7,37.8040207,127.6363258,"checkin_time:2:00 PM,checkout_time:11:00 AM",https://lh3.googleusercontent.com/gps-proxy/ALd4DhGK6zAAjplYErMaOlV_4B6-4Wey5I6zdKIW0cX8CMoD2WPLdFb3mQLjNAOfct_UHq_ofiQ9aAp3r0bZw_jCF5E2BErdV3z5hF3AEx8tAwOjlEbhY3qfSbVzZWGHXzXuPC--j90PpqbtpGcoG-oKbgXneHOyarYkEHRHohKIZy8_4Aj9cU-dfLLU=w426-h240-k-no
32,23,Sea Cruise Hotel,"Gangwon-do, Sokcho-si, Cheonghak-dong, 482 525",16448810,4.2,38.2011497,128.5869152,"checkin_time:2:30 PM,checkout_time:11:00 AM",https://lh3.googleusercontent.com/gps-proxy/ALd4DhHYY-lpwDyJlLM_YE7qCSBRlqHnKLhMZSZmuyNtOBngw9NR8zdYbRKraa_ljqRn3m-R-n2kk9xhj9ip5c0CklFZI0KRBdT2NXrg6uWOVnK4cirMoR__7LDgJBYM_04THcdQ1pwa3NLTr38pLfGv0sFBGvZ-QeRAqQ1inRnFZaXFO1p5iZ_MZ9rlEw=w408-h300-k-no
32,24,Memories Motel,Sokcho-si,0336369415,3.9,38.2131387,128.6006141,"checkin_time:,checkout_time:11:00 AM",https://lh3.googleusercontent.com/gps-proxy/ALd4DhGSw4K-j9HNuOK5ywp8x711CSWt7NTwSve-RKYP5SnnBi3Xc6zCwJO3hCU8eU9tMPqd5xlEzYK1TM0pV9C6DMVEp8EuSyTijsapEDglMJ8wrA5rQncufPXmLpJWs2Nd9yAH7U38ZtF5CvaUO0RqM7PwpgyCK-it3hkJcXg1B0e0zemZaWs7hcGB=w408-h254-k-no
32,25,Hotel The Blue Terra,"1493-7 Donghae-daero, Joyang-dong, Sokcho-si, Gangwon-do",0338008889,4.1,38.1848787,128.6015165,"checkin_time:3:00 PM,checkout_time:11:00 AM",https://lh3.googleusercontent.com/gps-proxy/ALd4DhEYORrrN43ARutIohgYpCCG8phiyDLxnD4XZRwN4VB__1uJdPUbT0UvFftH4txtt0R0jD2achbglnT1n5p6kVEb-X-DGt7pr1Gm3nA6CZ1yefjOKL6joElxvtNbvUz7mSXdRoAq9s1gsAZpdT4fiSMP5BHhsmvWlgGoOtn6VvufBkg5PLUuMKU=w408-h300-k-no
32,26,Moyen Hotel,"Gangwon-do, Sokcho-si, Cheongchohoban-ro, 52 KR",0338010700,3.9,38.1903673,128.5892612,"checkin_time:3:00 PM,checkout_time:11:00 AM",https://lh3.googleusercontent.com/gps-proxy/ALd4DhHpAoLhUt_UfbfvhyYWR4wYAO7Sw0hLRcs5eYWHhifse9vOwR6Lmcy_EPhIjytSQDYFRsiouOSB_7NNu44Am7-gn4kunJGM5IM0DUakH4z0OUM0FQp2Wj6gT3WJUaYiP7n4HlP1aOSYQuqziA01e0q0pXMODH0FilSLwxZEVxRd6803WvE3o7yC=w408-h272-k-no
32,27,High1 Condominium,"265-1 High1-gil, 사북읍 Jeongseon-gun, Gangwon-do",15887789,4.4,37.2093125,128.8274375,"checkin_time:2:00 PM,checkout_time:11:00 AM",https://lh3.googleusercontent.com/gps-proxy/ALd4DhFJPMZXCKfqt1M5-Jc7iV16VwBwc1cSDv9gIsYBkQ_yFimgMPrrflEpQJQDSa-KGY-1Bn3ZiSOaIfdye8if0jGjL6Ko7q68R3iSA-G9WPorwwMnIEcry7HTlsgyN1zZBWCXqsnX9hVGLDZCm7HJl8DB8tpezyaEhH11AKlrwQ00MPFpMnr34LfQwA=w408-h306-k-no
32,28,CENTUMMARK Hotel Yangyang,"9 Hangogae-gil, Yangyang-eup, Yangyang-gun, Gangwon-do",0336734000,4.3,38.079048,128.615232,"checkin_time:3:00 PM,checkout_time:11:00 AM",https://lh3.googleusercontent.com/gps-proxy/ALd4DhEzTXJE3rC2JwB__WLEH_oMy_JWQn1SkJzcF-L_X-pH0fFqGBw_f27i7xJFXQbhaJOEaEGmTmh69VOYtCb1bRYhro9hF5ClyG_IQEsPqA2R_Ynp283WIaiszQKvqkP2WA6kqHwP0WG84O5CZQgG8pu1TsJV7TFXeVqJhBXgHhCbNkCvgdMGF__8=w408-h272-k-no
32,29,GANGNEUNG CITY HOTEL,"112 Gyodonggwangjang-ro, Gangneung-si, Gangwon-do",0336558700,4.3,37.7643693,128.8767892,"checkin_time:3:00 PM,checkout_time:11:00 AM",https://lh3.googleusercontent.com/gps-proxy/ALd4DhH0UuKUW4XIxbEMkJQiK6qXErZLMa6Sq8842BMgiy80cE4w_qfP3WcsdtYN5V43d9f-DwDCdP0GGPbtmDKExDKDTJBuUOzXbsgikGBuMjC63I-jArst69GUP5uNhrM6dCKWKv2aeHxOmQ43qNQ9y69KuEQ4XwaTvmBrYyZVTGBqKR8SXuwu_Jem=w408-h298-k-no
32,30,Pine Forest Jeongseon Alpine Resort,"23 Jungbong-gil, Bukpyeong-myeon, Jeongseon-gun, Gangwon-do",18000949,3.9,37.4756554,128.6123778,"checkin_time:3:00 PM,checkout_time:11:30 AM",https://lh3.googleusercontent.com/gps-proxy/ALd4DhFnBJ2d2Oy3bvVbh-pu8ah6AlHYDWUEByH1c-sCYp_TXMIWw9VLrC186QHgXlSVi49k9oxLJtghXWhGkIyYNR_w-TRiBduL3SqEWvd_2Kg4HsdTekDnh4H438-Xw_W-4QYuVT8zLdZuYm2V1sJF6bFIjECkFAno67da0TgHsuqogtTMPnEjxiWe=w408-h272-k-no
32,31,Sol Beach Yangyang,"678 Seonsayujeok-ro, Sonyang-myeon, Yangyang-gun, Gangwon-do",15884888,4.3,38.0868678,128.6653435,"checkin_time:3:00 PM,checkout_time:11:00 AM",https://lh3.googleusercontent.com/gps-proxy/ALd4DhHxWm6h5B04RVR9XQ-cR_NpB977j80uxSMlVQm425y17Gmp8R_Tuw4kvsKCS4QOKZK9HBU0w647dIjUUhlbvGGEZjxmS4VcvC9JMvUb2I5P8W5FHt1ox5L46IrBGKfXnSzEpQRx6GQQ8fhXysrvcyiz1bOIbyHgwE7F5msh0WYmwGro7MN-iOFD7w=w408-h272-k-no
32,32,EL Hotel,"Gangwon-do, Yangyang-gun, Ganghyeon-myeon, Donghae-daero, 3347 KR",0336733737,3.8,38.13713,128.6164685,"checkin_time:3:00 PM,checkout_time:11:00 AM",https://lh3.googleusercontent.com/gps-proxy/ALd4DhFu_8LKYAyCPIwLFHu3cXPN7vDVn9k6L3oqrIY61lJYj140NJgwDfxHEkiL7eRVUVk8-qSu5WG0vir_s1N-kKCWPNIUekLZJuyU-GPbCuj4T1mwQb8e-an3SEoZEeJrwpdt6vr1clvQpGahSYjJXlrMwxiK3cmi_pirU6IQKeOvHmCOc7TQWpY=w408-h271-k-no
32,33,Haemilli,"44 Uyong-ro 97beon-gil, Dunnae-myeon, Hoengseong-gun, Gangwon-do",01027353914,5.0,37.4895993,128.2265014,"checkin_time:,checkout_time:",https://lh5.googleusercontent.com/p/AF1QipPaqCyK6L6nrJscjr2TsgDFz-aS89sx7qLwJTXf=w408-h272-k-no
32,34,High1 Grand Hotel,"KR, 265 High1-gil, Sabuk-eup, Jeongseon-gun, Gangwon-do",15887789,4.2,37.2123367,128.8219,"checkin_time:2:00 PM,checkout_time:12:00 PM",https://lh3.googleusercontent.com/gps-proxy/ALd4DhFeWB7zdAbUgUBivkzJhIIyb2irYzNXCNlesdNXlHQc1g411tkJGncGqB7te57lw82bP_8MwRQsPxp8WZMDOxevIJLpwm8LIuOSZAanH4qZutG6JjmNR2jbmmaaEGoUB_U9ZO6hF_4VsNEYTQdC5QglzVJ00rfGBc9LJcIHBs99RBQFar2mlc27=w408-h271-k-no
32,35,RAMADA BY WYNDHAM GANGWON SOKCHO,"106 Daepohanghuimang-gil, Sokcho-si, Gangwon-do",15770130,4.1,38.1742272,128.6100937,"checkin_time:3:00 PM,checkout_time:11:00 AM",https://lh5.googleusercontent.com/p/AF1QipNRI5D2eY8tuIY8y1U2wvzqY2ZMucJeH5Nu9c7F=w408-h286-k-no
32,36,Skybay Hotel Gyeongpo,"476 Haean-ro, Gangneung-si, Gangwon-do",0339232000,4.0,37.8043635,128.9077159,"checkin_time:3:00 PM,checkout_time:11:00 AM",https://lh3.googleusercontent.com/gps-proxy/ALd4DhHw0irxAn0YtWz2LyWtWK_Vkl6WHgAEoPcOMeG2eUm2U8K5fxTheTpWp0fgevyKNXR6JFC1ZJKsoEJyl6Lu3BcIF2faf-Xh3be-7eZfSLlG1bGiaUK-3wK8vIkoT8yVFZDjCRUSWfKWqMlqbF2IMgpzubOyA7r0YEkHu-kWtddk-fZnz1SjQ6P7=w408-h272-k-no
32,37,Moyen Hotel,"Gangwon-do, Sokcho-si, Cheongchohoban-ro, 52 KR",0338010700,3.9,38.1903673,128.5892612,"checkin_time:3:00 PM,checkout_time:11:00 AM",https://lh3.googleusercontent.com/gps-proxy/ALd4DhHpAoLhUt_UfbfvhyYWR4wYAO7Sw0hLRcs5eYWHhifse9vOwR6Lmcy_EPhIjytSQDYFRsiouOSB_7NNu44Am7-gn4kunJGM5IM0DUakH4z0OUM0FQp2Wj6gT3WJUaYiP7n4HlP1aOSYQuqziA01e0q0pXMODH0FilSLwxZEVxRd6803WvE3o7yC=w408-h272-k-no
32,38,Mayhills Resort and Suites,"8 Mulhalli-gil, Gohan-eup, Jeongseon-gun, Gangwon-do",0335901000,3.7,37.2114439,128.835101,"checkin_time:1:00 PM,checkout_time:11:00 AM",https://lh3.googleusercontent.com/gps-proxy/ALd4DhE4vnBQqV4-gLZCPAxQCm7MhPi5ufUed-ZU5wj_mfP1L8oV7JGyh6Wh2KDXSqwCRAJzgFZ_NjHc_WoAUdnHXBeosTpoWBKl1PntwO1cvK81BD2FD8VOHjQCq-JaslWJ61hDLFyQKGN-n0lnTv78jlB-CQZAzEzopZXD7-kTC1PNml653n4m9KCPUg=w408-h272-k-no
32,39,Paradaise Motel,"291 Changhae-ro, Gangmun-dong, Gangneung-si, Gangwon-do",0336530008,4.0,37.7899005,128.9222185,"checkin_time:3:00 PM,checkout_time:11:00 AM",https://lh3.googleusercontent.com/gps-proxy/ALd4DhFfOYXUEWGGI2RLzqQICSvfwUVtJiu3MRJGn3pKzRUQh1qRxVBkB-8lcoMuu3xSSUOtngmEIF6hEJYcpBX4hXdeexRqRGjtJZ6eesWzhyrJ0vjztg-7t32EGbdM-QcKWYa7k0rjg_bVy2K2hg7aB7TLj0I44PvymY-hVrHE1PYOsfSv6xjZ2UjU=w408-h306-k-no
32,40,Homm Marina Sokcho Part of Banyan Group,"4014 Donghae-daero, Sokcho-si, Gangwon-do",0336308600,5.0,38.1902508,128.5957387,"checkin_time:3:00 PM,checkout_time:",https://lh5.googleusercontent.com/p/AF1QipO1dVSoZ44-_ZJnq-eNo_K8EbXlSSYMYMPnp3ed=w408-h272-k-no
32,41,Sokcho Ritz Hotel,"2 Dongmyeong-dong, Sokcho-si, Gangwon-do",01096388233,3.9,38.2126714,128.599664,"checkin_time:3:00 PM,checkout_time:11:00 AM",https://lh3.googleusercontent.com/gps-proxy/ALd4DhG3RGUufRjGiW91YlZZNA47UOo8bZeo87LMb6HPBWdPtA_Pr4oZfEA2OQ6k2KPaPeNXEDJhLTN3FEytwA00IIoLn0j39ISQ7yawMNru-kHOkzyeeM9nOi8CDgA7X3PDQcE9RfQprRlwMvLLIhtNfwgs6_PG-7hXFUuN-BkVfcS4YU78L3nqpCu6ow=w408-h272-k-no
32,42,Samcheok Someday Pension,"16-33, Janghoan 1-gil Geundeok-myeon, Samcheok-si, Gangwon-do",01088397481,4.3,37.281914,129.3128,"checkin_time:3:00 PM,checkout_time:11:00 AM",https://lh5.googleusercontent.com/p/AF1QipPQUFi0pDHi-ww0G9gaPJQclcFhU3WqZP3nPtqF=w408-h544-k-no
32,43,Urbanstay Sokcho Beach AB,"167 Haeoreum-ro, Sokcho-si, Gangwon-do",07086859361,4.7,38.1890905,128.6032457,"checkin_time:4:00 PM,checkout_time:11:00 AM",https://lh3.googleusercontent.com/gps-proxy/ALd4DhH4ve0iBpv2f3vkqr_8Iijz7FwuWPWl8JQHykz7mxwnc82a4H24Q9_d55FNFxWgVgnEqFkpis8pwZw204it6L2INdSCO35Lf1cC-eEcoAOITBpn2tFCKLoQnBvgyVVpcb2le_zWzoRs946YVuBmrVoXd0NWvtpG9jaS15WQVoZv-kez5EErAAMZqw=w408-h272-k-no
32,44,ST320,"320-5 Seocheon-ri, Namsan-myeon, Chuncheon-si, Gangwon-do",01043156069,4.1,37.8443154,127.5439422,"checkin_time:3:00 PM,checkout_time:11:00 AM",https://lh5.googleusercontent.com/p/AF1QipOJ-Bqu9U-PQJE5UeKOBg59jF8O6qJX3bVGe0se=w408-h306-k-no
32,45,Mangsang Beach Hotel & Pension,"7-12 Dojik-gil, Okgye-myeon, Gangneung-si, Gangwon-do",0335340166,4.2,37.6068914,129.0677196,"checkin_time:12:00 PM,checkout_time:11:00 AM",https://lh5.googleusercontent.com/p/AF1QipPmZjlGh5OShNQIkxJIyN2TctYq4oKze68o0Oit=w426-h240-k-no
32,46,High1 Resort Hill Condominium,"424 High1-gil, Gohan-eup, Jeongseon-gun, Gangwon-do",15887789,4.3,37.206423,128.8380544,"checkin_time:2:00 PM,checkout_time:11:00 AM",https://lh3.googleusercontent.com/gps-proxy/ALd4DhFFeNJtg8xI4BUmijNVAgli0FTySAAvrL9eXZbv0-EQKvsWoyhaJClZ5xwMpBNgakty88Qay3f9K5NyqtJ4qhykt5AIuKHq1U5o6NtRzB9qOdHjjIcYILulBXtEYnKpdPC9gDEaaPEDpc5tIilIWXcqFKykQyaX3ycAARR5S2MYMsuS29vSxAc=w408-h272-k-no
32,47,K Guesthouse,"23 Jungangsijang 3-gil, Gangneung-si, Gangwon-do",01091017503,3.5,37.7518253,128.8972708,"checkin_time:3:00 PM,checkout_time:11:00 AM",https://lh5.googleusercontent.com/p/AF1QipNJiAl4E3aYVPXjSV6Rv8izYBJAsgSDT-4FAU2_=w408-h306-k-no
32,48,HOTEL PARANGVUE,"34 Sampominbakchon 2-gil, Goseong-gun, Gangwon-do",0336313030,4.8,38.317613,128.5286922,"checkin_time:3:00 PM,checkout_time:11:00 AM",https://lh3.googleusercontent.com/gps-proxy/ALd4DhFg5ZJi2JacTPjI5qyeDIzC6edoHbpJZxwzoLA8YcPjpykMCc3Ei1b4Z4sRpNDOlIXcvu_58t-Rt2-xlYeebSZiK0klncuiXN4Huxel9RSwUsO2henJOGxZzMsLlqmKWDun6iXAiVKrSKJfoAi5bdjrGUEMhavKAM4J87U6r1m594jhbL9UQ5HrvQ=w408-h271-k-no
32,49,Lahene Poolvilla J,"229 Gajinhaebyeon-gil, Jugwang-myeon, Goseong-gun, Gangwon-do",01086443442,4.2,38.3594506,128.5071121,"checkin_time:3:00 PM,checkout_time:11:00 AM",https://lh3.googleusercontent.com/gps-proxy/ALd4DhH2je36ZNxmeuimXZmWL1BIwS13Fb07QLBPgXgdDYIl-AGqAT81X3gQOK0W8bBRBf4Bmp2j7M-mLaZ-8pPBTha-ftMppfOZ5r46b3TDuaNAsxp5pMQY5NQUhBBD38iX-K8jqjdFbZbbS_IwsEf5kUTGudIvrVupZn5_D_yLEKFnZILHgtkJ7iA=w426-h240-k-no
32,50,RAMADA Hotel & Suites Gangwon PyeongChang,"107 Omok-gil, Daegwallyeong-myeon, Pyeongchang-gun, Gangwon-do",0333331000,4.3,37.6598281,128.7176688,"checkin_time:3:00 PM,checkout_time:12:00 PM",https://lh5.googleusercontent.com/p/AF1QipNdZ42osLNOzTfLrNMOIelzRlOL5glsmhIZ63si=w408-h272-k-no
32,51,Kumkangsan Condominium,"239 Machajin-ri, Hyeonnae-myeon, Goseong-gun, Gangwon-do",0336807800,3.7,38.5101369,128.4205899,"checkin_time:3:00 PM,checkout_time:11:00 AM",https://lh3.googleusercontent.com/gps-proxy/ALd4DhH8rVB92qMtPfYjpQChXY3kHF49TQAj-Tf0T63mfNOuj6oT1Nnavb3Hv1grYYZjGx-3aecTa7DwjBS5OiCdSIa7oGym8UmkG7QvgBxWmUlo-4CrIFktQJzc9PBcVVmOeOXKSZsxPLFeFDzHTlwpHrKb__pHwbARK92mKUvxcYJ8qPGtwmW-Od-H=w408-h272-k-no
32,52,Pyeongchang Edelweiss Pension,"81-8 Songjeon 1-gil, 대관령면 Pyeongchang-gun, Gangwon-do",0333366559,4.4,37.664338,128.711088,"checkin_time:2:00 PM,checkout_time:11:00 AM",https://lh5.googleusercontent.com/p/AF1QipNpXhOboU9jKfpTjQkeSPMmFHcV8YgrG9EriXUZ=w408-h271-k-no
32,53,Maison de Mer,"122-1 In-gu-ri, Hyeonnam-myeon, Yangyang-gun, Gangwon-do",0336713338,4.4,37.9658131,128.7618829,"checkin_time:3:00 PM,checkout_time:11:00 AM",https://lh5.googleusercontent.com/p/AF1QipPbd7Ln0oQ54jBSciW9LohlTCML4tSnb9NONnkI=w408-h272-k-no
32,54,Naksan Beach Hotel,"73 Naksansa-ro, Ganghyeon-myeon, Yangyang-gun, Gangwon-do",027420337,4.2,38.1234651,128.6306945,"checkin_time:3:00 PM,checkout_time:11:00 AM",https://lh3.googleusercontent.com/gps-proxy/ALd4DhHwU4TDz-LytgXGPb4JJU2GUUJdZ64PNI-fbGzM6-BW_Erh_Wmh5dH5VfcH7Fwd4D8Tf_Wx8kRgyA2aEr_1FwrdgoW1Sl6kiWxA25YtyPxBHGXg-SSqFIyTrz2rnXayjBmsk_4p5Tg3WNBp66mzp3pV3Dbkp-8uhisXIvr4XpLLthDeimo0GCG-=w586-h240-k-no
32,55,The Venezia Suite,"136 Hyoja-ro, Chuncheon-si, Gangwon-do",0332559600,3.6,37.8746513,127.7350832,"checkin_time:3:00 PM,checkout_time:11:00 AM",https://lh3.googleusercontent.com/gps-proxy/ALd4DhFL5xO5lLT4eQnQ-Ej8T55xNdEmPJx6XL7Y1IhvYyR3iAGBHidn54RQlgnSkuPPox88N2Q2pOI40amdVHsoNHBpR5lY2RzB9IaXjfHfvtHhWz_GC4wQ1r4panR3UI8FPQ0Dpvdw7i3g6hfU7Nay8kYk3_IG1iyM0qALy0ERxM44SYLlXHs-s4CrrA=w408-h380-k-no
32,56,Hotel Bon Stay,"125-4 Donggul-ro, Cheongok-dong, Donghae-si, Gangwon-do",0335337800,4.2,37.5194554,129.1172755,"checkin_time:3:00 PM,checkout_time:11:00 AM",https://lh3.googleusercontent.com/gps-proxy/ALd4DhFqAsnZu1-hQL_iSPXZtaU_YHIkx263ZD6mUxa-WdXp0PsNnpZlq_-q8PssQQSq6BGgDqn3X2ZfGBIpm0NQMIb2uFIXuq-FPMTyDRAVyX9e1_pMCTJLqJzbVgQSfrkcBK73PddIyzJxVOlaH0dKdiJzw54BIeWzF94Uv4wZx10cXlen1uueAVb_=w408-h271-k-no
32,57,Hotel Tops 10,"455-34 헌화로 Okgye-myeon, Gangneung-si, Gangwon-do",0335304800,4.3,37.6552461,129.0513566,"checkin_time:3:00 PM,checkout_time:11:00 AM",https://lh3.googleusercontent.com/gps-proxy/ALd4DhG22z-vLy3Wq9-gkmJg4__t-QwGJvLBOs1E4IBsruVgr0tLeEUsq9E_olIq2qGA6r5KkUyp6up6gzD32Z_eTwzWLZoVGC2DR1p74RDFhTYUM1Munh4H9XqpfwwIPi93myaB_KXP5SCDTZDAIihDhpFmwqXb4lTxBjcow_j1jVbVKoe28Czt9wJBtw=w408-h287-k-no
32,58,St. John's Hotel,"307 Changhae-ro, Gangneung-si, Gangwon-do",0336609000,3.9,37.7911114,128.9210687,"checkin_time:4:00 PM,checkout_time:11:00 AM",https://lh5.googleusercontent.com/p/AF1QipPnO_-qBfxIT71JDWc5ye6hAmzZWRZ0Z2lJoq1v=w408-h272-k-no
32,59,Maremons Hotel Sokcho,"3705 Donghae-daero, Sokcho-si, Gangwon-do",0336307000,3.9,38.1669438,128.6063873,"checkin_time:2:00 PM,checkout_time:12:00 PM",https://lh3.googleusercontent.com/gps-proxy/ALd4DhElVFKtYp7p7cWOupr-QgSqNNkTLVocw1v6jeZr-vSlRBoxSFGfKmKE_r-FjzR4195sG--iWDpwpwuBf1Ls7bXJO5SwUvEfvJiJUrZ1BUQS9QA5ovi65vpHd11FowGhIW3pWXmgFCac_4xJMrK1DBxOeGvKNx4eNTaWijEJncxF2qbW2CXqzA2CMA=w408-h271-k-no
32,60,Prime Pension,"1182 Namdaecheon-ro, Hyeonbuk-myeon, Yangyang-gun, Gangwon-do",+850 103 329 2422,4.7,37.99975,128.6381399,"checkin_time:,checkout_time:12:00 PM",https://lh5.googleusercontent.com/p/AF1QipPJD9iz4X1m7yY34azPwbw4uoB2CD174DoCtfmI=w532-h240-k-no
32,61,Salangbyeol,"105 Baekgyo-gil, Socho-myeon, Wonju-si, Gangwon-do",0337432100,4.5,37.4257629,128.0682729,"checkin_time:3:00 PM,checkout_time:",https://lh5.googleusercontent.com/p/AF1QipPsoJABXgGH_zlxiGsvlhxoUACPX-LgaIMIFof4=w426-h240-k-no
32,62,Gangchon Ddrak Pension,"252 Banggok-ri, Namsan-myeon, Chuncheon-si, Gangwon-do",0332612498,2.6,37.7971298,127.6421203,"checkin_time:3:00 PM,checkout_time:11:00 AM",https://lh3.googleusercontent.com/gps-proxy/ALd4DhFOmcC7dUnehfBe0Y-y8Yt9Dc9lL67X25MFdwzuMVRbF_GZCxDEFVJn8MS2pV2CtOGWxGDssmOiM4SISCoJKfVtGczx2RSPwKl_IAxIGYk-k9tA5p13njryB5s2Fj42JFsbP2Oz6WQqTevl50pPpCAaKYaq6Gn_XBHE5SISSMsGAUe7UkKoHHh0=w408-h272-k-no
32,63,Hotel New Donghae,"1 Pyeongneung-gil, Donghae-si, Gangwon-do",0335339215,4.3,37.5267095,129.103047,"checkin_time:3:00 PM,checkout_time:12:00 PM",https://lh3.googleusercontent.com/gps-proxy/ALd4DhGxXJawJtkT14_HAM398SUl_CmM7VI2Y-h0-mXXiBIfwhT-jiuLJIqcZKTwjztxeqIeaYdEyesy3DoyWsl3wkxpHMwtB_61yWtYPC6eA-NXSbxKHdeXmAVne4XlpO6gdmNbcYrGAc7EqIaZWMxv-kQ8nBubLnylVKlzpR1u-CwAizeyexk24_Iv=w408-h272-k-no
32,64,Pyeongchang I Want Resort,"Pyeongchang-gun, 대관령면 솔봉로 471",0333341110,4.2,37.657129,128.683687,"checkin_time:3:00 PM,checkout_time:11:00 AM",https://lh3.googleusercontent.com/gps-proxy/ALd4DhGfAUCvPm5eStpYdXIRv34X6xXrvf9X03fvjHklgmn6ggw_6zwG52OSUzkmTWt7X9E6VKPQ-JQSNbQnnoEkI8wltP3a9o5MTJ9ANb-m_MFMZNcph3EuXPnnkEJCEuRUjttnFJROEVop5t8Oz--ZxUmDlOHQdKhUk_jdXpW_VGoBLKCOKXndCIxW=w408-h271-k-no
32,65,Luminous Pool Villa,"380 Seonsayujeok-ro, Yangyang-gun, Gangwon-do",01028807003,5.0,38.0637971,128.6781606,"checkin_time:3:00 PM,checkout_time:11:00 AM",https://lh5.googleusercontent.com/p/AF1QipONkyrysvjwylbjE4GQ8WQDzCkfaaRD_8dxWc6a=w408-h272-k-no
32,66,Pampas Resort,"3964 Donghae-daero, Sokcho-si, Gangwon-do",0336353261,4.1,38.189058,128.60087,"checkin_time:3:00 PM,checkout_time:11:00 AM",https://lh3.googleusercontent.com/gps-proxy/ALd4DhGfG7lAytuaBmxzPme2IBBpUwJLrNvkm5343Gz6p-KpPNBkTRGza3uFMZ9ksHWf-gD_m2qZctACAPVf4Gg9EPevfXQWwlfvm0GLpGBIHcgMd5Y72xEYC3KV-pQsj-SWEe8mxGx9yY0GHkR2QhHw-V3-o2KVxJ7rhb_SqQX5lfxdpxRHmcHV5RxG=w408-h244-k-no
32,67,Hotel Memory,"51-1, Jumun-ro, Gangneung-si, Gangwon-do",0336628778,3.5,37.88848,128.8252,"checkin_time:,checkout_time:11:00 AM",https://lh3.googleusercontent.com/gps-proxy/ALd4DhF25DIDGAXUdO60DuVY_LSU4ypOlukkFlt9ozHmUKGL6BsHTTN-Q7pNzswhkkJbRPWgOfdNVaS72ycJ_Q1wzHIE93izmKz-Bamb7hbJvVwuzxRLh4JFB-dWPiON5C6RpdBsvscUsY5_IDmcRDFL3Q3CnZajWdUP74cXP8rtiqtWorCqnYdtSb0H=w408-h414-k-no
32,68,Orchid Hotel,"Gangwon-do, Wonju-si, Bonghwa-ro, 26 KR",0339013000,4.5,37.346687,127.9289682,"checkin_time:3:00 PM,checkout_time:11:00 AM",https://lh5.googleusercontent.com/p/AF1QipOgJQtYYRx38hr4rNzrB5ildSXLchk1voyE7f1I=w408-h272-k-no
32,69,Risen Ocean Park Sokcho,"167 Haeoreum-ro, Sokcho-si, Gangwon-do",0269526413,4.1,38.1888608,128.6030034,"checkin_time:3:00 PM,checkout_time:11:00 AM",https://lh3.googleusercontent.com/gps-proxy/ALd4DhGLJzm1w_F08C1UZn11ryH-cpM8jUcNA8ndibrSzDHqQq4skT2evdHZfuo9_UK7BUc6P1MChksacoKf1u-7366sbzUDaz66h4ZVXOsuIMUz9E8xv37HWECzAzo8b9o_3PrkhEXfMNwzxKd71-2UH4hKe3kzQ2VX32sYEuGJU8OAQwJWj-dNmN-N7Q=w408-h252-k-no
32,70,AVVIO Hotel,"229 Changhae-ro, Gangneung-si, Gangwon-do",0336406900,4.0,37.7867181,128.927802,"checkin_time:3:00 PM,checkout_time:11:00 AM",https://lh3.googleusercontent.com/gps-proxy/ALd4DhHZhmijNPgP-EswYWq_pocFzY0vfl7EaFdwv-dzrKtg5QB2B7BbhyxF5MPXqLgClCVtO_PRIjclyHAPmJQwhjs0QBWo8g67CrunNVOVGg49dlYJA6sIZX5NM4Ww8e8a2GEiTuzFb8R16u2PhAeY_q-sCrWl-TL-Z8bz7KpK92KYC_Z0DwT45nki=w408-h272-k-no
32,71,Sokcho Esher House Pension,"593-12 Daepo-dong, Sokcho-si, Gangwon-do",0336351065,3.9,38.1822434,128.6072934,"checkin_time:2:30 PM,checkout_time:11:00 AM",https://lh5.googleusercontent.com/p/AF1QipMVMuUnkXQnqgXjMOymNbQMwCQMVmqtgV-H_C7m=w426-h240-k-no
32,72,Seorak Garden Villas,"467-1 Sangbok-ri, Ganghyeon-myeon, Yangyang-gun, Gangwon-do",0336735679,4.0,38.1410497,128.5632702,"checkin_time:3:00 PM,checkout_time:11:00 AM",https://lh3.googleusercontent.com/gps-proxy/ALd4DhGzSs6yfJLD4TFkGOlmNjwydTc7RG0B-sV7PP6ZyDQD1yI-sly3XezU_HXm9fn_7NPu7ULFDi5cLeC5ZdSnHA9yMpN2GIZEAGpuDZZwlDEXuaFnl2nfjR94dOra1yYZyhV4q9dHysSEHo2vC2xQzLyxSzPPPskTbhsZ3B0wZYI9Yg_hwGSnnlqe=w408-h250-k-no
32,73,Koresco Chiaksan Condominum,"539-1 Owon-ri, Ucheon-myeon, Hoengseong-gun, Gangwon-do",0333438073,2.7,37.4374044,128.0954203,"checkin_time:3:00 PM,checkout_time:11:00 AM",https://lh5.googleusercontent.com/p/AF1QipNzhvW_G94p0ZCMS6xKdwWjjsCeHVYFwvSIJJ8q=w408-h306-k-no
32,74,Sinyeong Pension,"75-12 Hanchigol-gil, Seo-myeon, Hongcheon-gun, Gangwon-do",0334358666,3.3,37.62762,127.66715,"checkin_time:3:00 PM,checkout_time:11:00 AM",https://lh5.googleusercontent.com/p/AF1QipPAVAex2HPyrH9C-m9G4ACIvHO6YLfRVeXWeuhH=w408-h306-k-no
32,75,Matmiso Sambap,"Gangwon-do, Hoengseong-gun, Seowon-myeon, Gyeonggang-ro yuhyeon 13-gil, 13-3 KR",0333440566,4.1,37.5282349,127.8902725,"checkin_time:,checkout_time:",https://lh5.googleusercontent.com/p/AF1QipObDwLC-zGXODgt42ZhcXAvKZ5w4uwFKTEP30xM=w408-h408-k-no
32,76,SONO FELICE VILLAGE,"Gangwon-do, Hongcheon-gun, Seo-myeon, Hanchigol-gil, 541-123",15884888,4.6,37.6658353,127.6840273,"checkin_time:3:00 PM,checkout_time:11:00 AM",https://lh3.googleusercontent.com/gps-proxy/ALd4DhGsbUnE5E5dylIP3v_baFwhfhYsvlhtlVgDVmL0A5Mi-EncCCX78q3B2rvNlF7LbjuccY5nPDhW7KilxzaXRSha3SCvbSx2f30de7G2woxWL2rc7gxvAGumhaj_AxBZmWlcOWCTC5xcq8GpXNviqeTROguQIgqCiaC7ktwylhpbIdzvvQjSfot_rg=w408-h305-k-no
32,77,Sokcho Gallery In Stay,"4178 Donghae-daero, Sokcho-si, Gangwon-do",050714392772,3.3,38.192407,128.57897,"checkin_time:3:00 PM,checkout_time:11:00 AM",https://lh3.googleusercontent.com/gps-proxy/ALd4DhFh0D5A-VUnWROpJ4RMZmU-mOysWeeAvowvYg9zUbjGiFdr7yKzIkXNvZq1e_NpGmmrsP4rQI61kqA36WKpSkWYrVRgNRvYL4vgP6kmtGZUaJTrhSn-BuLV4-wq5tlFTwLCQshmp5Ch4DfaDZ5Osahb1mnjwLSgUygmHt-5JFAFLTfBBrodgAE4fQ=w408-h244-k-no
32,78,Lotte Resort Sokcho,"186 Daepohang-gil, Daepo-dong, Sokcho-si, Gangwon-do",0336341000,4.5,38.1804848,128.6121764,"checkin_time:3:00 PM,checkout_time:11:00 AM",https://lh3.googleusercontent.com/gps-proxy/ALd4DhFahPavHOnkKsLjInGfNk3OqfCCT0nVXLG3Qrb-62r76N0dV8u0sZaTZ4rLjTWKmVYGkF0U4IYd8AaXj5HPc_c4XMIGAW5Tpb_Q5bEJbhrkDtl_rq-I6vZB_lH52y3_8s3IIBsOVkQ9fhuB5fvE40RWhMqU6dQ8p-p14zGfVEey9azfKIjyY98P=w408-h272-k-no
32,79,Spa Pension Basso,"40 Hadomun-gil, Sokcho-si, Gangwon-do",01036875029,4.0,38.1644412,128.6003621,"checkin_time:3:00 PM,checkout_time:11:00 AM",https://lh3.googleusercontent.com/gps-proxy/ALd4DhHO0m82HFLvPKrxlk26Qyd0jK31Lm-Q55bGzh7B0YewjHsiNoVp8A-WoE8noHy5MUvV3onoGApWQ1fbosI-ptW6QEDSuunsRhls2iIhY7Y4kukdNBBf8UTxlBdRRg45VZRXF6-6DD-kvrCuoo-G6QY2MRxG7X-Q038Qi46Ef6CM1o5BEOiS0ZYv=w408-h293-k-no
32,80,High1 Grand Hotel,"KR, 265 High1-gil, Sabuk-eup, Jeongseon-gun, Gangwon-do",15887789,4.2,37.2123367,128.8219,"checkin_time:2:00 PM,checkout_time:12:00 PM",https://lh3.googleusercontent.com/gps-proxy/ALd4DhFeWB7zdAbUgUBivkzJhIIyb2irYzNXCNlesdNXlHQc1g411tkJGncGqB7te57lw82bP_8MwRQsPxp8WZMDOxevIJLpwm8LIuOSZAanH4qZutG6JjmNR2jbmmaaEGoUB_U9ZO6hF_4VsNEYTQdC5QglzVJ00rfGBc9LJcIHBs99RBQFar2mlc27=w408-h271-k-no
32,81,World Sky Residence Hotel,"267 Cheongchohoban-ro, Sokcho-si, Gangwon-do",07047251064,4.2,38.2009947,128.5865603,"checkin_time:3:00 PM,checkout_time:11:00 AM",https://lh3.googleusercontent.com/gps-proxy/ALd4DhHE-WBZLVgNmJ9CxFOyCUZCPKd5vRheMA01SDV8PfiF0dAArxgFtdwZfNbTgzLfVwiF_hji1svVp6tbj-OTdb7ehs3-RJuiX6kcxUJQ7GFVqR-K0qST_3472UCu1mxIkw52CmVYqRVMc2c-7WFgjOUV3nyLrJkXaO1grG_Xz8ZVwg2TmzDbiAoP5g=w460-h240-k-no
32,82,Pensyeonbyeol,"561-2 Daepo-dong, Sokcho-si, Gangwon-do",0336361717,3.8,38.185139,128.605218,"checkin_time:3:00 PM,checkout_time:11:00 AM",https://lh3.googleusercontent.com/gps-proxy/ALd4DhHzu2LTlK0QiFXN6LvQYXMakcDshnq27K9Qkt7iPNM37tk9pezRTg7Cam6iSAGwzFwmKNwXyAdEIdFRublPhQuNgx2bMqOv_mtqf5Fwg1czJYzlhgujLHbmVVB04r4G6ZBdtfOlb1d2emfu-vr5Bk3qf-3kxbUM8zjdMwaefUqzQTQquesyThPgaA=w426-h240-k-no
32,83,Urbanstay Sokcho Haebyeon,"Gangwon-do, Sokcho-si, Haeoreum-ro, 195 리센오션파크 C동",07086859361,4.5,38.1901535,128.6013448,"checkin_time:,checkout_time:",https://lh3.googleusercontent.com/gps-proxy/ALd4DhHM1VbgjUlekJ8ukiS2SZuecmVb12o0hQrzRnNCUfamatVpBs0pXyovf2Ydocwx-nEzgnzlfhbWNjAmhgcF_V24G7JE2oRRn4wobTcGYxEhnzwoRL6VRB8lK3Ok0ZxGWMYHTzWElk_xIMc4_9iVgB96nWla8gpiAVq0pyBXW0PPmcixDPwrz1M9EA=w408-h271-k-no
32,84,Lakai Sandpine Resort,"536 Haean-ro, Anhyeon-dong, Gangneung-si, Gangwon-do",16443001,4.5,37.8060474,128.9043789,"checkin_time:3:00 PM,checkout_time:11:00 AM",https://lh5.googleusercontent.com/p/AF1QipNndGoLjj_hZxixL6NXL3gFOrYxdBAJ4ybgBFLk=w80-h92-p-k-no
32,85,Pineart Label Hotel,"32 Haean-ro, Songjeong-dong, Gangneung-si, Gangwon-do",0336517722,4.1,37.7756546,128.9417455,"checkin_time:3:00 PM,checkout_time:11:00 AM",https://lh3.googleusercontent.com/gps-proxy/ALd4DhHh8uuPxMymAtjX_ZyfQ-OkRoDyLkrqTM6teyiIQtCGjKOkROzTEFNaTdy-CD5ypnz9dHlGsNl9zEFI3J1Fqb1rOLHB8i1xg3nTHZMTc2KHatX0xQvzPXEP085Mn0Pu20ZbDuYDmsn80il74nasq9tHDB2CYbelEgybQ1uODlPxS6_2JrQ-R-Q=w408-h306-k-no
32,86,Cassia Sokcho,"120 Daepohanghuimang-gil, Sokcho-si, Gangwon-do",0336808888,4.0,38.1764535,128.6100193,"checkin_time:3:00 PM,checkout_time:11:00 AM",https://lh5.googleusercontent.com/p/AF1QipOqM3GpS71DneHRM_ve7yvYUawie_RIB3z9G5Eo=w426-h240-k-no
32,87,S-Petite Hotel,Chuncheon,0332434422,4.0,37.8694836,127.7245824,"checkin_time:3:00 PM,checkout_time:12:00 PM",https://lh5.googleusercontent.com/p/AF1QipO7Dm53_cEdR20CoKZcUPr2TSvy-LFbJR24_3ce=w408-h306-k-no
32,88,Hiocean Gyeongpo,"30-5 Gyeongpo-ro 463beon-gil, Gangneung-si, Gangwon-do",0336469999,4.4,37.8037337,128.9038901,"checkin_time:3:00 PM,checkout_time:11:00 AM",https://lh3.googleusercontent.com/gps-proxy/ALd4DhHzgxYcDZ_1R9L2QMoX_x6fZhLUiauEdeHK2ryg1kP2ECPkcSYBMspcrs6suU170766_CqPRM3cwi7y2j2CBWmJb3STH1fV77kVxdhpWYDPIee0Y3j1rwKzbLWxahIqfe-rodOUXteRPsHKtOy1JMpzr3TD9C3HYqUR1MCUNofdcTAvL6pXQ1A=w408-h305-k-no
32,89,Sol Beach Hotel & Resort,"453 Surobuin-gil, Samcheok-si, Gangwon-do",15884888,4.4,37.4713372,129.1638649,"checkin_time:3:00 PM,checkout_time:11:00 AM",https://lh5.googleusercontent.com/p/AF1QipO5epK-veZYDe5bVNr_an3gfTG2PpEcrW4ALq_P=w493-h240-k-no
32,90,Nunpensyeon,"448 Angol-ro, Ganghyeon-myeon, Yangyang-gun, Gangwon-do",0336711555,3.4,38.1150451,128.5822557,"checkin_time:3:00 PM,checkout_time:11:00 AM",https://lh5.googleusercontent.com/p/AF1QipOG8ffGq2wIHwuRtGOJ86OwOffq4-SiXTo1A9I=w408-h544-k-no
32,91,Haedlmok Pension,Pyeongchang-gun,0333366776,4.9,37.61339,128.3673,"checkin_time:2:00 PM,checkout_time:11:00 AM",https://lh5.googleusercontent.com/p/AF1QipNofCCXkHMg8RTgubqI08NVAa0p3Jr6CGoaBz0M=w408-h544-k-no
32,92,High1 Resort Valley Condominium,"500 High1-gil, Jeongseon-gun, Gangwon-do",15887789,4.2,37.2058528,128.8398505,"checkin_time:3:00 PM,checkout_time:11:00 AM",https://lh3.googleusercontent.com/gps-proxy/ALd4DhEJ3FvLB41TrGkt-aAA-huF2CFyRxHz0OuXJMf2ramZCmCUgUNyHK5Ejh79KNn8HcelwfsSSQTTdZyrjb8-_aEE7_n-5RorXg0BmMO6sAgMfWiUOUNq_Z7aOdnwLpcXADlULhgbsW05lls1GaPXTFnHazFicnd0KMood60J65ycOzQ8LuxoCE0=w420-h240-k-no
32,93,Sun Cruise Hotel,"950-39 Heonhwa-ro, Gangdong-myeon, Gangneung-si, Gangwon-do",0336107000,4.3,37.6834634,129.0438501,"checkin_time:3:00 PM,checkout_time:11:00 AM",https://lh3.googleusercontent.com/gps-proxy/ALd4DhEal-V-2yYrAulhLnefZfih_fCaZOG4IxYrnYP_VZV8TlhRfymDVQnnugoZ_EqaPz37dc6BwBl8_l22FGLZnbjW1Kxl-CGvcOqqEQkBKu-KOAPWiBF_sbtO7T3bSOzdQYxpM9JEbOOiM3uB4uL5e2LMSKSPV_l-kT4yWXGoiIMhqtTwJfKLrL8=w408-h300-k-no
32,94,Four Seasons Beach Tourist Hotel,"10-5 Anhyeon-dong, Gangneung-si, Gangwon-do",0336559900,3.5,37.8120578,128.8983574,"checkin_time:,checkout_time:11:00 AM",https://lh3.googleusercontent.com/gps-proxy/ALd4DhFTr9XrZ3fBFSUWl95K2WVvCf5G_23ow2wl55104Y98s2DKajl_OLuXm5u0-7oOVbqvzHfSGm5s5APUfb7oVHU7Om2BpRm8YbAgjSSPB4PzvheYl8Aei9yNkwFrgfPIbMzUUWxrnu6BIvAdG49vIn-tAL5XKe7wIYbSjvPPleNRv6_HyfNphiIwwA=w408-h300-k-no
32,95,High Castle Resort,"202 High1-gil, Sabuk-eup, Jeongseon-gun, Gangwon-do",0335607777,3.6,37.2060948,128.8143771,"checkin_time:3:00 PM,checkout_time:11:00 AM",https://lh3.googleusercontent.com/gps-proxy/ALd4DhHKBAXbzAvBJAVPL7UvUSQ5OJBD963Rhhcly57WkwKid2PlOLfIqtCHbgTXhfeV2XSlGX74WALQZ2uXprYyCd0AmWlKlXPyrlmvYiqZwIWI37Q8sl6L22kFFpxvB1Y7BOglaVHdIcRS-GF_CLlgXBWS1PbxONqHP89AvEo_eHBjI1V3k4mGTjj4=w509-h240-k-no
