areatype,index,name,address,phone_number,average_rating,latitude,longitude,business_hours,image_url
39,1,Ramada by Wyndham Jeju City Hall,"304 중앙로 Jeju-si, Jeju-do",0647598831,4.1,33.4934657,126.5343138,"checkin_time:2:00 PM,checkout_time:11:00 AM",https://lh3.googleusercontent.com/gps-proxy/ALd4DhHA8ti0hbbPt-UjBtgEuuIpPWkyUySHNvLw_iomIU72tPZuqdvcixUELfubWJJhgf4qW2bOwpYXggEMjxJ_b0JA2rm4ZXhRDgaFd0EOXnbA5-9Dq2v-ph5ZpqZhYuovfAZR0b2PkyTr6ezTCsrMwKqzi4DMZPR5fzuLLfjOMRGDnIa-rEErE5Y=w408-h273-k-no
39,2,Cordelia S Hotel,"Jeju-do, Seogwipo-si, Seongsan-eup, Ojo-ri, 990-1 대한민국 제주특별자치도",0647830053,3.5,33.4549689,126.9104055,"checkin_time:10:00 PM,checkout_time:11:00 AM",https://lh5.googleusercontent.com/p/AF1QipNJIvu_3c1G0MXn0gJ4makVDHKJhGvlImcZ96ys=w408-h306-k-no
39,3,Westie House,"210-5 Gamsan-ri, Andeok-myeon, CJ",0647922933,4.6,33.2609131,126.3565516,"checkin_time:3:00 PM,checkout_time:11:00 AM",https://lh5.googleusercontent.com/p/AF1QipOd6QFT8KyW7cp4CObextVP_mWG-2DtLNBFj-WA=w408-h272-k-no
39,4,Seongsan Aqua Beach Hotel,"4258 Iljudong-ro, Seongsan-eup, 특별자치도, Seogwipo-si, Jeju-do",0647803000,3.6,33.4483875,126.9119374,"checkin_time:3:00 PM,checkout_time:11:00 AM",https://lh3.googleusercontent.com/gps-proxy/ALd4DhG0OTwhtY1Jwpnp5Hb6L0c_u6qVs98lVm2GS4KPsQjQR8Wy-XHC550yWOKFgGqVkYa5F9g_W0s50ApZ11RSjhJmtti__-z31tSw6DmNqbygjsGxR6gEd6uW4HbX2yfX82m50dtdQjxRzoA2neED0jFRn-kl-uGfOjMqVVFK9LXs0zC0mfzSO5EC=w537-h240-k-no
39,5,Grabel Hotel,"7316 Iljuseo-ro, Jeju-si, Jeju-do",0647408000,4.2,33.492444,126.4286588,"checkin_time:3:00 PM,checkout_time:11:00 AM",https://lh3.googleusercontent.com/gps-proxy/ALd4DhFdqwl_4lTHO-w8_3Rs0t2fEuelWzLCIZpOrsDJXhatG-y-l2iXbZfTzN-9XIRnY3c2rTGOxjrHoeDevCMTQhVGMJq9-Ay6GN3VswSDGQthXsTREPnHZuAC6A7DNnOU6_nWEVX40PDo9erXqvYSXN7xIzucXjNc13x0WxlGHczbvNd-JMYWkTxa=w408-h270-k-no
39,6,Apple Hotel,"45 Donggwang-ro, 이도1동 Jeju-si, Jeju-do",0647251552,2.9,33.5030366,126.5336177,"checkin_time:3:00 PM,checkout_time:12:00 PM",https://lh3.googleusercontent.com/gps-proxy/ALd4DhHX-qTAgbq6MVwHeduY2SUkVp2hWtrsYnFDwd6biJ5NA43UMo7kKHPbQ2mGbKV4nN8FUna1Ml1Fo9XK6pvN6ivcV0PNp1Xl1WSrmINRftHDBEKhcJhO-U6PsYa-1Djw_RYeh8ECEb106kJzSifP9VRWQeX_Axt6xwqjTEzBTmP9Zcx3x03h7Jpk9g=w408-h272-k-no
39,7,Ideum,"497 Woldeok-ro, Gujwa-eup, Jeju-si",01048922172,5.0,33.5146658,126.7722373,"checkin_time:,checkout_time:",https://lh5.googleusercontent.com/p/AF1QipM0a9KP7D6tn5VQUUy2tG3DOi3RzStdoPwn1aYh=w408-h544-k-no
39,8,Sea Stay Hotel,"1105-1 Gonae-ri, Aewol-eup, Jeju-si, Jeju-do",0647997757,3.9,33.4675271,126.339144,"checkin_time:3:00 PM,checkout_time:11:00 AM",https://lh3.googleusercontent.com/gps-proxy/ALd4DhEKJwVpGXzbQU2zXyW8wf_apjvUHk2-a_zlggbRwB48lvnbfw-Oxo1VxfeJ14QuNybUrJSBgDyRAFd3YWwZN4NhCjl1Ufn7_txioEpMMYJ4tRp5fCQn61HU1vnoi3JG2931aSInTZmaSTfv0-4PqkzHIPMWk9W33mUOZXpYhcweRAB4_RebFTw=w408-h271-k-no
39,9,At noon Hotel.Ltd,"Jeju-do, Jeju-si, 제주도 제주시 연동 292-30 제주도 제주시 은남1길 8호",0647492500,4.0,33.489351,126.495122,"checkin_time:4:00 PM,checkout_time:12:00 PM",https://lh5.googleusercontent.com/p/AF1QipMQNQ9xSSPmSf_KhuL0bVp6ePpPlaoq7F5t5I8=w408-h272-k-no
39,10,Hotel Fine Jeju,"87 Chilsimni-ro, 특별자치도, Seogwipo-si, Jeju-do",0648018888,4.1,33.2403247,126.5651122,"checkin_time:3:00 PM,checkout_time:11:00 AM",https://lh3.googleusercontent.com/gps-proxy/ALd4DhFt4BKmTt0BCWYwINwj5KwHBMlI7-akvW6d8I4gP3S7x9Bq8Xs8ByXNbArtQTFzxeAzFTIponV-qDj-6dw_oUVgWOIGI4g9RX2OwsbcvxY6ZTL9_q3MGclWjjsiy4CXrv3w5vGFJHPMX_A8AXYsdvOEeYdtkj6J2QvxmPLxTY5OnloHOrMMe6esaA=w408-h341-k-no
39,11,The Shilla Jeju,"75 Jungmungwangwang-ro 72beon-gil, 특별자치도, Seogwipo-si, Jeju-do",0647355114,4.6,33.2471631,126.4079553,"checkin_time:3:00 PM,checkout_time:11:00 AM",https://lh3.googleusercontent.com/gps-proxy/ALd4DhEvhuPK-p4srgftFDkuY-TzlSB9cUd1lWT9MW2eYL4Qion-pKfm9hmySo_srh5w8mhG2EhAgGjomWrPnRWIxpfAdkXgX4MLotR8v3IMM7u-MRJLvvomIqGyArHE9BLrNrdbxIoQQGmdZvVAuAq-ZGNLV2JskcbZj5b6l7N492c4fvZafaav5cg7jQ=w408-h272-k-no
39,12,Lighthouse and Olle Trail Pension,"50 Gamahaengnam-ro, Pyoseon-myeon, Seogwipo-si, Jeju-do",0647879364,4.5,33.3064005,126.8051249,"checkin_time:3:00 PM,checkout_time:",https://lh5.googleusercontent.com/p/AF1QipMjHsMMnh09ljeSveQt--bDgBh64J_xm1gkkLu-=w408-h544-k-no
39,13,Hotel Rest Seogwipo,"17 Jungang-ro 71beon-gil, Seogwipo-si, Jeju-do",0647305000,4.2,33.2504029,126.5595736,"checkin_time:3:00 PM,checkout_time:11:00 AM",https://lh3.googleusercontent.com/gps-proxy/ALd4DhG-ZyXKrc_Om_45rAsEe5FuOHJJggKR_UtHlQGx3RhdcvZJ3mvhNk-dioRg3CnUz6NiilrQepA4kUJIcE9ALkbIx6kV7MdDNJSrrEXUTBga4JLyasJgz49Q63z7Wd-IHmXtcx2vuWaUvnBBgO79pkwEiFr4YIP5B7PZQqhSmeWIhc_-PMXvoU60DQ=w408-h254-k-no
39,14,Jeju Dam Spavill,"1803-2 Geumneung-ri, Hallim-eup, Jeju-si, Jeju-do",0647992020,4.4,33.3855824,126.225389,"checkin_time:3:00 PM,checkout_time:11:00 AM",https://lh3.googleusercontent.com/gps-proxy/ALd4DhEPsDZrcsc_XQ1POeFpYCBp4R3QKnmFodG-q833DGddQmnc-8Y8dIZ_Dl989mf65Uj3j4NosXDVwlIIw0UViDFw0vv555zzvZkGd6J8dqRTGpQUSzaXfErV1mJhhmQJTNKjH88AsKRc30lyxhOhfQGif5-CNq0k5kRStVsghc5q5uo_UAJty5Lv=w408-h272-k-no
39,15,Villa Sagye,"157-20 Sagyebuk-ro, Andeok-myeon, 특별자치도, Seogwipo-si, Jeju-do",0647926006,4.5,33.2399256,126.3046566,"checkin_time:,checkout_time:11:00 AM",https://lh5.googleusercontent.com/p/AF1QipMyQEx4CGZEq7pqS_pZVM3nK-bWX1Yi4IHXjxKJ=w408-h272-k-no
39,16,Lasania Resort,"Jeju-do, Seogwipo-si, 특별자치도, Seongsan-eup, Iljudong-ro, 5199 KR",0647846027,3.6,33.3738404,126.8727008,"checkin_time:3:00 PM,checkout_time:11:00 AM",https://lh3.googleusercontent.com/gps-proxy/ALd4DhH1c9FmDXnZfCxRnNrXtsPLpsTphB8QJS2DiueNmA4MdRwOT_5Ph0AlJH9dPAA5-gdUAv1WuOlj109QOFp923N4SLFHwjU3_bmypRnzybNRujtFZJBgSi4t2oMwfGI8K8H0RdbiiB538AkZsq32w7lOabA-pFOuREDQPkrP1apnaLd5tM5NCCIF=w427-h240-k-no
39,17,Haemil Resort,"617-1 Yusuam-ri, Aewol-eup, Jeju-si, Jeju-do",0647993033,3.9,33.4435555,126.4040385,"checkin_time:3:00 PM,checkout_time:11:00 AM",https://lh3.googleusercontent.com/gps-proxy/ALd4DhGK4snF0mSe0PCowOXlt3rXyNqnU0ZFd_xj1CZfsKve16wtKvnoNZHbZh5IkC5jAlrBji1b9hmX21bQ_hheOYq3-mncYckWjTXjmvSWkk2ZXDr2fxKH2FudOJlJ1W3zswZVx9MBrlUWTEjZl3ITQyXxiKtXYTmjWNzeTPUMW75GqoTqVUAmcwoZ=w408-h306-k-no
39,18,Jeju Blue Whale Resort,"Jeju-si, 일주서로 6818",0647473555,4.3,33.474852,126.3800401,"checkin_time:3:00 PM,checkout_time:11:00 AM",https://lh3.googleusercontent.com/gps-proxy/ALd4DhFkgd3Bwb_7IV1J-Oj7XSIFwR3NXGSPCg2Mei0uFWq_2QnvcOWdPGZWjeD5r3t1LXUFOPRH6BLDTksBSuYr0t6DTxk9_xgkc_p4UnNKt9hafun2VwokCfvDmkz6mBWX4HjMweBsiXftEL1ycGFBuOTP81hRXLh9UaKnYWtNaODb7DQrerlTtv-k=w408-h272-k-no
39,19,Jeju Gili Resort,"Jeju-do, Jeju-si, 특별자치도, Hallim-eup, Myeongjae-ro, 100-47 길리 리조트",01030162019,5.0,33.3906068,126.2603762,"checkin_time:,checkout_time:11:00 AM",https://lh5.googleusercontent.com/p/AF1QipNo0S1g-GP2dXbj-sy2rYVIN9wCuHdwargMMGmY=w493-h240-k-no
39,20,Gloucester Hotel Jeju,"57 Sammu-ro, 특별자치도, Jeju-si, Jeju-do",0647471100,4.0,33.4898273,126.4926495,"checkin_time:3:00 PM,checkout_time:11:00 AM",https://lh3.googleusercontent.com/gps-proxy/ALd4DhHGiVWyaGkUb6YnKlZ2nSB37_QYKtu7h8D_p3blNN0gpRISDZ87LCXW_OJYrbtZiK7ms810UKhj0k_e7uh9Df8hBhHDzSuf7yq-jDUh67eJ6jOa7Hc6NiJf8JwzJK00bGZZhfQ2ncVnb9W4hpP7OHmXlsdI1o5s8jVJCbzv_X0fbkb-rsQy14Ub=w408-h271-k-no
39,21,HOTEL 52,"Jeju-do, Seogwipo-si, 대정읍 신영로36번길 35",0647941831,4.3,33.219868,126.247028,"checkin_time:3:00 PM,checkout_time:11:00 AM",https://lh3.googleusercontent.com/gps-proxy/ALd4DhEyGA4D3PFjCK-vNhB6EIwUIHSvT9lIJSsTHp_t86Vfz5YFItsadhbSa2oAC-GCo-_WcIs3fhwq0VlG58Zv8ZGmrYGjWNa9cEvxcMlH-hHWPJuP_f6ezcr0OdOQ-AZHFOm2oGBmyPVwOYxOmj7R3-z1URJaJq2SCXRNHECxhA8VfUrkMXSzaFvI=w408-h272-k-no
39,22,With Stay Hotel,"34 Noyeon-ro, 특별자치도, Jeju-si, Jeju-do",0649002055,3.7,33.4857667,126.4837872,"checkin_time:3:00 PM,checkout_time:11:00 AM",https://lh3.googleusercontent.com/gps-proxy/ALd4DhFU_8Wf6qPyFegnHstqx51wHse_zz-i7bPUU_tQMHb4ZB_4SDbYo50bNZ4fBR4lmpB0jjrjBFf9NK2sEWVYEHSy-zjznzxYg7D1KAeaClEyAjwt_vPYQzayWIt6CQKiUwxGnsZf3T7ecFVvHDHHYtkECD9nJGL8s7Q8D-LtHevFI3okbpbLH8U=w408-h272-k-no
39,23,Whistle Lark Hotel,"26 Seobudu 2-gil, Jeju-si, Jeju-do",0647957000,4.0,33.5173509,126.5278,"checkin_time:3:00 PM,checkout_time:11:00 AM",https://lh3.googleusercontent.com/gps-proxy/ALd4DhGZq2pqC6iv1UI_T5Dx3z71w8ut1nfm_RnYsebu0BL-FwZ48qvoJjuYClZOjslOSUxWFzav4KamIFZXTjhU-LyAfocN_HwgXz-4qriITDg3SAWLvNCiTJbbfc2KA7k9ftEHKGsVjp19M9hhZwYWDW65AqfM9i2QJAO15E3q7BnGoZF-Hc5e4oJH3A=w413-h240-k-no
39,24,Sunrise Hotel Jungmun,"2453 Jungmun-dong, Seogwipo-si, Jeju-do",0647632299,4.1,33.2474985,126.4305878,"checkin_time:3:00 PM,checkout_time:11:00 AM",https://lh3.googleusercontent.com/gps-proxy/ALd4DhF8Ib1jQmXxd6kKAqqTVyajXr3qgRqSwuTkACrFJXYUqD0UqwR2zZTYs9eQAfAGLQbFatAuSYcXTxnPGqA9tEbPeJhFm-wPd5guPJRCyfBPYyOufN1XKE5mHWxcs1oc4vx8pccGk0c3pEFZNRte50DJuH-gBR19oPD74ZvssEyf6XJ3yPJJjVOkjQ=w408-h272-k-no
39,25,Grand Millions Hotel Seogwipo,"Jeju-do, Seogwipo-si, 특별자치도, 서호 중앙로 84 KR",0647393500,3.9,33.2545606,126.5200939,"checkin_time:3:00 PM,checkout_time:11:00 AM",https://lh3.googleusercontent.com/gps-proxy/ALd4DhESrDB9T7IxRCU_9c0bhMADWZKVWfJVB3rKINuK40VJ1wD08FgQR-nCUPUUgBjLP1uHgbIp7dTO4jb2UUy6C56y1zryL1X69QeAsdV2FjdsvVc-OETmEU6czBFOd06q38bVOfuXA7bo-zOs2apcphvugSVyajpugxnue6OpUygJDpubDCbdpOfK=w408-h271-k-no
39,26,Jeju Ocean Family Hotel,"7531 Iljuseo-ro, Iho-dong, Jeju-si, Jeju-do",0647123900,3.8,33.4952516,126.4510142,"checkin_time:3:00 PM,checkout_time:11:00 AM",https://lh3.googleusercontent.com/gps-proxy/ALd4DhHZ_o8Ce6Q3L5Z7EcrExo44QJQ9beLzbvCYoipo1oFdhqPggUDzUATwRIKntEzPZ_9QxxYbRqL-4NTW8UbEhjBcUeYzbK0_Zqcd_PsDVs56whkO4ZrqifqEYi9kN2OenxCUM93OLzSVKa1dHa5txFVp3cGMMC4IIGVaqn9Zh7GI61638mbJSjC8MA=w408-h306-k-no
39,27,Jeju Hotel W Tapdong Branch,"24 Imhang-ro, Geonip-dong, Jeju-si, Jeju-do",0647570314,3.8,33.5163159,126.5273156,"checkin_time:2:00 PM,checkout_time:",https://lh3.googleusercontent.com/gps-proxy/ALd4DhEWNyJeyVgKdWJdQj2QVnXkyI-N2B0JFMYDs6Qu5PGOSxWOM7LOTmOwpxE6lGgKjxSpTW5uui30QXwN3_m8K2g-BRoso13Pei8qVtRrzRwyo9Xv8uDk8Bk4Lt20w3cXEodJ1lylyZ2H1abAAQ_bhySd5QqOiLN2t2dIpsPJqaIlxgVaJMS7uZdB=w408-h300-k-no
39,28,Attirance Hotel & Pool Villa,"10 Siheung-ri, Seongsan-eup, 특별자치도, Seogwipo-si, Jeju-do",0649005003,4.3,33.477585,126.909283,"checkin_time:3:00 PM,checkout_time:11:00 AM",https://lh3.googleusercontent.com/gps-proxy/ALd4DhGUyvOeFSBNXds59C_RCgA9aQB0k0HF4gg06ia2c3tq8UBmZldxypSeReE75SXp3YRDyLOFPDgJdEzxpaylQ6lK-0kstbaYHnMBZ0SrqrErBrhiWxgeC-sIeH-s28o1z1uPx2UYvFS2irNmpmgKXfOCDfFwwllcqP2BXpuZRyjDiwKRtDVLSycw=w408-h271-k-no
39,29,Dyneoceano Hotel,"394 Aewolhaean-ro, Aewol-eup, 특별자치도, Jeju-si, Jeju-do",0647992600,4.2,33.4725009,126.3504542,"checkin_time:3:00 PM,checkout_time:11:00 AM",https://lh5.googleusercontent.com/p/AF1QipOTgwVwq3sLNCzazrr2iSlgZEHIKoPOZGwCCNqw=w408-h272-k-no
39,30,Aewol Oceanstay,"412 Aewolhaean-ro, Aewol-eup, Jeju-si, Jeju-do",0647477007,4.2,33.472948,126.352475,"checkin_time:3:00 PM,checkout_time:11:00 AM",https://lh3.googleusercontent.com/gps-proxy/ALd4DhGovHrN9-fp0lBJmydWgWDPx4sq6XP2meVdKFv-sD9yM_i3gTiDOuKG7cKSI2EoVHkI_mGfuACRXeT03xil-jC5ecsiaS4iDf3Y-mgRHS_71H8WDA7alGer7w35xFdCsni6s6tB7gyv_er1DVp4nNQRO-8C7PwPpzeuc5mt-5j7eHjyqOqk7k8=w408-h272-k-no
39,31,Tamara jeju,"10-8 Gimjeongmunhwa-ro 41beon-gil, 특별자치도, Seogwipo-si, Jeju-do",0647380009,3.9,33.2518729,126.510131,"checkin_time:3:00 PM,checkout_time:11:00 AM",https://lh5.googleusercontent.com/p/AF1QipMZPmZaGRPaqB3xHQ2A_2_eNLyBHnheBZvtkQY0=w408-h306-k-no
39,32,Blue Island Guest House,"17 Minsokhaean-ro 119beon-gil, Pyoseon-myeon, Seogwipo-si, Jeju-do",01097282160,4.7,33.3078998,126.8125311,"checkin_time:4:00 PM,checkout_time:11:00 AM",https://lh3.googleusercontent.com/gps-proxy/ALd4DhEuPVA6kq9Xw96CPTMGpfu_EVn86KnhJLKt7RoCXo_cEryXhso5FiatPYKvNnQoKj8DZmyhzxP1VLT0lKx8EZ7KBHQWWIZej9kCC2irxBJFe5H-IjIKGPUZnQ_CXe5i6VwG2LE6RvgUv2hnshN9fHEFZ9fjkA1lG3MJ5XOzCpMV9aoHRzbjYF-S=w420-h240-k-no
39,33,Nine Spavill,"2970 Gwangryeong-ri, Aewol-eup, Jeju-si, Jeju-do",0647271000,3.9,33.445423,126.4303404,"checkin_time:3:00 PM,checkout_time:11:00 AM",https://lh3.googleusercontent.com/gps-proxy/ALd4DhHThqNzyEu_Fi5LaPaLBgDLQgXgZbIuXqeXoBRq5xvT84fmsalAHQYWWe_lP1tmu_FDvvCVa-EP3Fc1sNgs_DPYGa8KzYm9vnjuxg1UI5bxvZpcl24xgpqeba7R-P9p1K3ABHKXD4YHFhwAj0s6kCeiPRY-2X-R7NpP2ZSGyrwZ9vHgu09DiPX3tw=w408-h272-k-no
39,34,Liberty City Bed and Breakfast,Seogwipo,0647388977,3.3,33.2615573,126.4142572,"checkin_time:3:00 PM,checkout_time:",https://lh3.googleusercontent.com/gps-proxy/ALd4DhHDQgLaqooQH3c0AvKbB3-uAprbkfo05oURukHCvRbiozbfNOKoOs5bxjAtUM0PoMac1uQRY0RFKwrZBYNHY8DudzvuaycfTPksJXXNgp56i83m29DCaeXo9Up2yzx7xkANAC8Pkdv7devsZgX-qOU2ASADeq-WXTMQDFAEuB0KZrbdldWmiTo=w408-h254-k-no
39,35,Cclim 365,"83 Gonae-ro 13-gil, Aewol-eup, Jeju-si, Jeju-do",0647992010,3.8,33.4708898,126.3476512,"checkin_time:3:00 PM,checkout_time:11:00 AM",https://lh3.googleusercontent.com/gps-proxy/ALd4DhGpSbqwAHnosEtI0Qxzu2naoxGmTFFExiN5xSfzGxgpoAPxGpAF9j3DWED3r369W2ftH04FHx1AFHBtIF7hoR4YGkptNrVk-M9KfHpWhfi-rmioal4pDuPAayLfVlRqSGH2Qar0gq6Xj_2gJStN9yQg7ib0xo1W3e31FBMtaPv4Sj2OFfz1QFue=w408-h272-k-no
39,36,Shilla Stay Jeju,"100 Noyeon-ro, 특별자치도, Jeju-si, Jeju-do",0647179000,4.1,33.4854889,126.4910047,"checkin_time:3:00 PM,checkout_time:12:00 PM",https://lh3.googleusercontent.com/gps-proxy/ALd4DhEXykmx1vrFG9aFWK4DEve-XsZzrBKqoYAFnnZgIX5BqBdQ9-1QIriQyGyfE5Hry_DC7m0LCIHg9ucLLLlCVahFE4W5zyn989Gd3Mxi247-OYuCA5bO7a4R3-yaH6Nm21vfw_ZdCRZs2vGbYzZP6tGbJvE-1vEo7tZbHW3_A86QjFnOc8mUckRw=w408-h320-k-no
39,37,Haerian Hotel,"2167-16 Jungmun-dong, Seogwipo-si, Jeju-do",0647393030,4.3,33.2529535,126.4216461,"checkin_time:3:00 PM,checkout_time:11:00 AM",https://lh3.googleusercontent.com/gps-proxy/ALd4DhHHpb35SATIWNTU1aO_pwQmI2MzJGvhvnKsIFeZzRIMy9kW3Q_8v2CoAo-I0GQXES9bAHdrzzY8uSc5B3R6lK4-WZp48lrwnEbYjZIm1QETzVxS4UAerbOSRzU9KAOfBnOB3P5lz8G1JFivve8E27J-gsppQoXgbqI1BlnKKuioO9edCte_q0mw=w429-h240-k-no
39,38,Sea Cliff Hotel Jeju,"554-8 Aewolhaean-ro, Aewol-eup, 특별자치도, Jeju-si, Jeju-do",0647993544,4.1,33.4776427,126.3629501,"checkin_time:3:00 PM,checkout_time:11:00 AM",https://lh3.googleusercontent.com/gps-proxy/ALd4DhH05Ag_CsPoHKjc5RCK7Ty3syi4FvEVkam9BEZqoXSNqlwDv9-k6b1HCPfkR4_mVV0VF1vqF7h_4aUk16K532nILD75wgWjKVru2Bwn-5ONRuJONrFLKy5JyLPXBO-8hj-wM2t5eA77b-AzIYnmK_RtCXsnAizUEIj4nnrhGpHykOUnVOGmrmQi=w408-h278-k-no
39,39,Seongsanpo love Pension,"175-4 Seongsan-ri, Seongsan-eup, Seogwipo-si, Jeju-do",01066915537,4.5,33.4622456,126.9329976,"checkin_time:3:00 PM,checkout_time:11:00 AM",https://lh3.googleusercontent.com/gps-proxy/ALd4DhGIg6BMNk04g9csJI5NAFleyifmnVm1o0l4qcFSy2F_UVqBPzPweKcB4pgq5slW-hFMDPSz2AIJkDqA_zNoBp-BAZA02nwjtKrjo1TXW1wqfLsrP8fdxaCEf6w8TgrYwewZnVPSSIPjMChB1PrOgN-r2iD81tQf6yMmvgvttVXluNi1h_fEy9Y=w433-h240-k-no
39,40,Spring and Fall Resort,"2660 Haemajihaean-ro, Seongsan-eup, Seogwipo-si, Jeju-do",0647842211,4.2,33.4741667,126.9111111,"checkin_time:3:00 PM,checkout_time:11:00 AM",https://lh3.googleusercontent.com/gps-proxy/ALd4DhE3HVjRU_7UUKaIpg8q_7RaWN_ZVizuknB2dbiaa8Lg3Vo46OXOX73TRSTZat6hORb7etMhcMbqfwPxfemmT3sDLe-FJxyPty4e-7GnWIbLXueP5aNpg8EvzO5WVG9lVLKenS2I4ZQnuldgNTVGW1WW5NwAS4vR4guR3fZxr8S8XbLi8SuvxeUC4g=w408-h300-k-no
39,41,Blue Mountain Hotel,"196-5 Seongsan-ri, Seongsan-eup, Seogwipo-si, Jeju-do",0647318888,4.3,33.4637856,126.9343976,"checkin_time:3:00 PM,checkout_time:11:00 AM",https://lh3.googleusercontent.com/gps-proxy/ALd4DhGHnL_TsiPHNdFihMrDspxImnmEOIJHZ2TnOs36CcyMmSAwcPpSoAWpo5tP1bzB5M0zPSZn3gq2sVSha6ZCfOVVzJHQrzQGdZ1YemVPH-HsyrXF7m2BqP3aS39uFVN_gG0tLQ7Ct2HnCk6Ir2x8L9HkFtJVbVX8T5cQgzf55z8t3D9_IOKEg0oK=w408-h272-k-no
39,42,Pool Villa Jeju sorang,"Jungsangandong-ro, Jocheon-eup, 특별자치도, Jeju-si, Jeju-do",0647101000,4.3,33.4923973,126.67177,"checkin_time:3:00 PM,checkout_time:11:00 AM",https://lh3.googleusercontent.com/gps-proxy/ALd4DhEYxWPHDqQ0IC9yGS7ZOyEazNLlsIfRFeCowR1E8JXBEvvoAnhqvpUv4NTYJh2a-OpE5i8OBrup1KBscHno8POQyx8XzQEcyfT1WAsafXcb7sHTmIgHYvUbYR_7IKJOtlDHxkdp_9MjZbfPwujYB5PC7FDpUjwLTEqPlEU8Gi8rUMpToHvbKf6gPQ=w408-h272-k-no
39,43,Jeju Masil Guesthouse,"Jeju-si, KR특별자치도 제주시 오라동 서광로2길 11-16",0647530077,4.3,33.4988783,126.5136184,"checkin_time:3:00 PM,checkout_time:11:00 AM",https://lh5.googleusercontent.com/p/AF1QipOsXrCtoNotwYDd_FDw00bmWXSR_DpDmxsVuitF=w408-h306-k-no
39,44,Spa belriseu (gaettongyi zoo),"133 Jonginnae-gil, Jocheon-eup, Jeju-si, Jeju-do",0647580029,4.3,33.4952381,126.6235257,"checkin_time:3:00 PM,checkout_time:11:00 AM",https://lh3.googleusercontent.com/gps-proxy/ALd4DhGg_aKm4xM6W6pzAkM15MWbC9AhX6t8q9Gb_Ik9puJxDx1BbQ5vo2VB2ozMpz84lUlVhYtm8NzCCaDt7gGgJ7Cob-e71H92CqhNAv_lRojxCzuXWJirZWWJ1puHwQjQGiLN3BSkMu65bG1aiA0y-iZTOoIMPp38IVVd38Gcd0a8jFobbVCqbgm-qQ=w408-h271-k-no
39,45,Beach Story Hotel,조천읍 조함해안로 492-5 제주시 제주특별자치도 KR,0647847400,3.7,33.5421806,126.6655314,"checkin_time:3:00 PM,checkout_time:11:00 AM",https://lh3.googleusercontent.com/gps-proxy/ALd4DhHlwAvbot_pwJFT8BN30Gr205nbblUg0Jawp7ICk8Pgk8xs1xQp2fPWYAdWzQHnzacZLtLc3VDmQDi7GTOXKjDwy-vuCHr8RTRD4sgqKaMsAP2Kc2USFpjLtsYeamU5vc0I2OHA2onrECth8cnK0JmwWMxCE76f_Dpk1TGM5U3Cbbv-ZCdUZojT=w427-h240-k-no
39,46,Lareem Boutique,"Jeju-do, Seogwipo-si, 특별자치도, KR 안덕면 안덕면 대평로 39",0647383869,4.1,33.2368317,126.3630593,"checkin_time:3:00 PM,checkout_time:11:00 AM",https://lh3.googleusercontent.com/gps-proxy/ALd4DhFmS2qT5gwgGh8Kk3zIAyco3o1z04iV-O7rpU3D_zyjJA7UDPKkVHoA1FfLtClhZ19PnxB05C2lZBDMmKB_xq1RBp0KjNUZB8z-jR5eRjHVwRJQnT0QXd6_6PgHqNmVS4W57ZEQxx2H_-JhzSSOdAbxpT6uBc5Rj8D7XPshPxbmrfovBArBqpZx=w408-h272-k-no
39,47,EIA HOTEL,Seogwipo,0647326609,3.5,33.2473206,126.5603045,"checkin_time:,checkout_time:",https://lh5.googleusercontent.com/p/AF1QipN5ayEcW9qrXb2gq8x4E0QSul_QN98_AfpPN5T8=w426-h240-k-no
39,48,BRICK 216,"2229-1 Daepo-dong, Seogwipo-si, Jeju-do",0647660216,4.7,33.2407539,126.4434036,"checkin_time:3:00 PM,checkout_time:11:00 AM",https://lh3.googleusercontent.com/gps-proxy/ALd4DhENZLcDXIQRawUHhGK1YcF2B2SCUsQ-5o_Kk9_bD4-tnm71mo4w_4KPH1vT4NPoEQL62V2aA-BsBc-EtG-00aBUjWgoImih_omMyE8lcUlniOUd_j0I7HabfqS5iCLqwHGqwzGczIaHvDnAWqE9EhUUt5BVffQXUNPytoFSvdbzGuUBbzn9pAAv=w408-h271-k-no
39,49,Momento Hotel,"536-2 Seogwi-dong, Seogwipo-si, Jeju-do",0647330293,4.0,33.2465724,126.5650038,"checkin_time:4:00 PM,checkout_time:11:00 AM",https://lh3.googleusercontent.com/gps-proxy/ALd4DhFYpwLHlZHtSJoWyWswxdqcidDGRmchK3STmG6b4WCqoan9ZchtUo6g_banEa1DXe0I2zO12R18rPpxjmPARqfozn6UMJmLLUPZjMjCFvk2jSLLet_8t12Qbf1EME1UXRkGdvVfe7NfaobRqpEM_AKgBXYojY5bTDWD8gvJsUw7MLYcEeZblkcBaw=w408-h272-k-no
39,50,Jeju Olleh Windmill Pension and Guesthouse,"890-4 Changcheon-ri, Andeok-myeon, Seogwipo-si, Jeju-do",0647386310,4.0,33.2379023,126.3660818,"checkin_time:3:00 PM,checkout_time:11:00 AM",https://lh3.googleusercontent.com/gps-proxy/ALd4DhEuu1EOa43ZImD5hFrmeh8fluByrqYZdN96hl0y3GKQtcp3ZJJKcl1LHy8MpcMf076p3B6DOfhFzFiASg31ffmS9oGhmXPu0pPeh1FO7u4-8thnN-WSx1UXOVqtAy55NpMm9CnxhAuX9wzR1vGxWJXBhn7dAe3iJrpTFvC_8GXccd5D9R3l96qq=w408-h272-k-no
39,51,Shangrila Hotel,"14-6 Haeanmaeulbuk-gil, 특별자치도, Jeju-si, Jeju-do",0647438098,3.7,33.4644646,126.4541427,"checkin_time:,checkout_time:",https://lh3.googleusercontent.com/gps-proxy/ALd4DhGJbs2mXSn7b5WG5SksJ1PBFORkgKFuG4pP9PRXhsOQRyVaIAgqvBtUYeEPiRNSr31FuOvh3bIK8l0xJSUXBpdx4FInv_Wgelu08oZOrrsAXiMD7C_VxXlFge3DmZlHZHToc3IcL7nQDh1T248ly8mwQS_sBPnyzo_oT_AFK3U55mxgapGkLfNX=w408-h306-k-no
39,52,Orange Hotel,Seogwipo,0647629393,4.2,33.24721,126.55744,"checkin_time:,checkout_time:11:00 AM",https://lh3.googleusercontent.com/gps-proxy/ALd4DhEDZeVGXlsyd2cNPHLhh_Yd6qFixnf5dbTKMxy07f6cw_SSVAxRLyML06zCRLKU_TUQnNuE5sWGZ53Yof1QyfuVv7BOhmAN_88yHGmZ-2Si6fNbK8KuI_JRyzrkJX0Yfr_EnxSbGSKkrgEt3uu0x2oHbrrihawemWNlJGHo_5u8cLdFYGQP6Dj_uw=w408-h272-k-no
39,53,Jeju Palace Hotel,"9 Tapdong-ro, Samdo 2(i)-dong, Jeju-si, Jeju-do",0647538811,3.8,33.5168631,126.5237566,"checkin_time:1:00 PM,checkout_time:12:00 PM",https://lh3.googleusercontent.com/gps-proxy/ALd4DhHjo0OLeBBmz-RYcY0iKZ873Wh8-b7i5l7eFggIxfjELzZE6lhiQgTm-XS_q0qn4XMJOm4uxnTSJhCOkkZh14sGohbihxNnJTmmYqVg2UCJkGx_VrbqDVOkwXWZt9dps7AFKAcNk4uB5wyrwTY0-hvUanM746bG3xrZArabE_nOg8uaFk1xWlET=w408-h300-k-no
39,54,Pony Jeju,"702-122 Bijarim-ro, Jeju-si, Jeju-do",01047802557,3.7,33.4312961,126.6782643,"checkin_time:3:00 PM,checkout_time:11:00 AM",https://lh5.googleusercontent.com/p/AF1QipPBIUqNWhRXFlMqtsxY07IpE1Ds64pvgszo5GJb=w426-h240-k-no
39,55,Astar Hotel,"129 Seosa-ro, Jeju-si, Jeju-do",0647101100,4.2,33.5007962,126.5200513,"checkin_time:2:00 PM,checkout_time:11:00 AM",https://lh5.googleusercontent.com/p/AF1QipMjTvWlU0SUD_61wko7mU_Ds6jqZFys5N57fj8-=w408-h272-k-no
39,56,Grandmer Hotel Jeju,"460-1 Haye-dong, 특별자치도, Seogwipo-si, Jeju-do",0648017000,3.9,33.2396011,126.385934,"checkin_time:3:00 PM,checkout_time:11:00 AM",https://lh5.googleusercontent.com/p/AF1QipPeR2oDrqv7wd-N004jQjdqyx6mltJQ49VN2i3M=w408-h245-k-no
39,57,Olle Provence Pension,"2807-27 Gwangryeong-ri, Aewol-eup, Jeju-si, Jeju-do",01020433055,4.3,33.4299905,126.4342328,"checkin_time:3:00 PM,checkout_time:11:00 AM",https://lh3.googleusercontent.com/gps-proxy/ALd4DhGU9bgEM4wXGk9xvpDguipmFV5ibiJobFOaAYuh8mwLqoqoWdtRoYn_2NUfRHNM8seQ1gFNQUGVH0Fn-onbBpjLysYFlGqJXzBEgRe6c1RMQf90TrTcQl3Nlhhl0LxKXiLj5qQhArNn_DmBhkSr80TGv-y0tITmltsCF8miSxeK1uwtk1ks-aH-=w427-h240-k-no
39,58,Jeju Dam Spavill,"1803-2 Geumneung-ri, Hallim-eup, Jeju-si, Jeju-do",0647992020,4.4,33.3855824,126.225389,"checkin_time:3:00 PM,checkout_time:11:00 AM",https://lh3.googleusercontent.com/gps-proxy/ALd4DhEPsDZrcsc_XQ1POeFpYCBp4R3QKnmFodG-q833DGddQmnc-8Y8dIZ_Dl989mf65Uj3j4NosXDVwlIIw0UViDFw0vv555zzvZkGd6J8dqRTGpQUSzaXfErV1mJhhmQJTNKjH88AsKRc30lyxhOhfQGif5-CNq0k5kRStVsghc5q5uo_UAJty5Lv=w408-h272-k-no
39,59,Hotel Tong Yeondong Jeju,"28 Sajang 1-gil, Jeju-si, Jeju-do",0647442193,3.5,33.4853789,126.492687,"checkin_time:2:00 PM,checkout_time:11:00 AM",https://lh3.googleusercontent.com/gps-proxy/ALd4DhEkNqFHHSPjrylmVhaasJuqs174IuxIyzzPbK16w2SVs-GyJf-nVpnm_MUh2BB5OZU3aSGgDkLi7DgaVHOqbrUbwyPUDSXELJ7szvAhw_co1rBAAHleYe-tnARfqUcnGYbjjIe_r_OIJwmBomj62nYT_XZgKuKr-UcpX2AKBfLM0DZ4Zu2XQFFLVg=w413-h240-k-no
39,60,Jiniah Pensions,"2044 Napeup-ri, Aewol-eup, Jeju-si, Jeju-do",01096670570,4.3,33.4438725,126.327541,"checkin_time:4:00 PM,checkout_time:11:00 AM",https://lh5.googleusercontent.com/p/AF1QipMIB1hq7HdhFdG27S0PLDhxwQkeVkK2Jp7bgf1S=w408-h306-k-no
39,61,Nice Hotel,"104 Naedo-dong, Jeju-si, Jeju-do",01057559745,3.8,33.4829113,126.4424719,"checkin_time:3:00 PM,checkout_time:11:00 AM",https://lh3.googleusercontent.com/gps-proxy/ALd4DhG_6RmiKkOOQeo5tgMiClUoxpv56R5IwEzyCKbK3tKY7qJ6plpjKp_ab7FKCeOmUwMB6h3RfcHqvahYCDGrf5T3pdE2niwdGyeV_YAgiCMF5pRIlHeLMUA59dGMU1sQjVbzSlzawy06Rx4YF39euBLpmfdKmyXezsy-9K3U7nobGDtlfYAHhqG8nA=w408-h306-k-no
39,62,The Island Blue,"Jeju-do, Seogwipo-si, 특별자치도, Seogwi-dong, 544-2 KR",0647626532,4.0,33.245851,126.5658459,"checkin_time:3:00 PM,checkout_time:11:00 AM",https://lh3.googleusercontent.com/gps-proxy/ALd4DhEsCbeqOext-0pEZNPyXyhIpLW5AZS8XEYnNnkIdzREQu64j5fG4qSTavqKr5j2Vzad4F1gwtB70-DLp72nguIhCku-cN8u9lTGcpyv0_a9CGew4zSymxO5g2UDV32Aty249H5vpEdzd3vXAoDmTLllJdHD5UOzgMyTOyJpI_Ydm9ZMjXrUorIjMw=w408-h306-k-no
39,63,Happy Day,"262-16 연동 Jeju-si, Jeju-do",0647481180,3.8,33.4861787,126.4895276,"checkin_time:3:00 PM,checkout_time:11:00 AM",https://lh3.googleusercontent.com/gps-proxy/ALd4DhEBqN-_ipZ1h0PE0d2Qk3RMX5iAzVRq3tfRXhA6fqwsnR5mIwV07uT6ob10pjThEZXJyenjB0Ibj_X3mjp-s43wWFr4faJbR2Pv7m0hAc-_-Z07PO5GxT3DwVGGZ2oea_8kh54J91VQIUvC_s3nbdKqJM_ls-TM0djmaNmNLM-N6BKZgwJFFLcV8w=w408-h267-k-no
39,64,Ellui Hotel,"1 Seogwang-ro 21-gil, Jeju-si, Jeju-do",0647270037,3.4,33.5001908,126.5218918,"checkin_time:3:00 PM,checkout_time:11:00 AM",https://lh5.googleusercontent.com/p/AF1QipPV-W4_yGMn2CaUr_MlDxiPf2bf7snFeA255n2K=w426-h240-k-no
39,65,Hidden Cliff Hotel & Nature,"542 Yeraehaean-ro, 특별자치도, Seogwipo-si, Jeju-do",0647527777,4.3,33.2548845,126.4023408,"checkin_time:3:00 PM,checkout_time:12:00 PM",https://lh3.googleusercontent.com/gps-proxy/ALd4DhGJChvBQS-yu_SUW2MLfUYr4y1YUNQfIOse_TPoKryJsEf2fkNJkFsvwOPD_juUAUtp6DW02yvKYksmYOtIyykUerly6FXxL50ungTVXIPIk9ap88nkzkS8fc-CfCp9cYHpkoQLfEHv3EbqsXr8wxLGwQI38oqLHjVDTTaknYzMb6zrW3ni7G5H=w467-h240-k-no
39,66,On the Stone Guesthouse 2 - Hostel,"Seogwipo-si, 성산읍 성산등용로 100-4",01093072128,3.6,33.4701436,126.9306337,"checkin_time:4:00 PM,checkout_time:11:00 AM",https://lh3.googleusercontent.com/gps-proxy/ALd4DhGgBB6IRx-A7p2CBWuyVoW4cal5k4g-RB6md9hwn-A_8qXIk-5Qs4-pmJhp5BRE_ww9AfGrA2qJKmmboE3gosYOju_nB5d5cfhmAQhtIiE720Rn2ybCncczgi540DGFcX5spKcIUKviQ4V1aHHkGltxFS5WIYEbpjnNDkKxdbqQrcB3_EeJCZjJ=w408-h272-k-no
39,67,LOTTE City Hotel Jeju,"83 Doryeong-ro, Jeju-si, Jeju-do",0647301000,4.3,33.4905955,126.4864277,"checkin_time:3:00 PM,checkout_time:12:00 PM",https://lh3.googleusercontent.com/gps-proxy/ALd4DhHq9euJi5fWpjXd3hN-EyUyuER0v2vFsWnC4uklXmvVWb3m5g7aArLRehfsYm4cFuVDgiQKYtygY84ee4w3cgvFuFKUBckr6xiXlXtApoFf3wxMx9oY1ZCX03FfpJwYex21gRf_h8PKNGdhzXdLQWY_8_QPue6Hqs-eSotMimLkdjaoQqZWPsCI=w408-h271-k-no
39,68,Hotel Aliba,"Jeju-si, 서광로 251",0648058336,3.5,33.4999619,126.5234041,"checkin_time:1:00 PM,checkout_time:11:00 AM",https://lh3.googleusercontent.com/gps-proxy/ALd4DhFrJJTaiw9d9xizv0WkhmohtRwKh1xq1UBsgF2KbXHXa_ArncY3zOV5292kuFAc7CEvdZKQuBT26e7lIOhp-QKjHXGRebdFMT1t7Cvu9ypAL9JR_0XDJT163gblsb-RYq3sgv_PgsDoslpn10BYNKQ7iHieF7gSJfAmEEVrKaeIdrQxVXcj6DeT=w408-h306-k-no
39,69,Ocean Suites Jeju Hotel,"74 Tapdonghaean-ro, Samdo 2(i)-dong, Jeju-si, Jeju-do",15779766,4.1,33.5182319,126.5231737,"checkin_time:2:00 PM,checkout_time:12:00 PM",https://lh3.googleusercontent.com/gps-proxy/ALd4DhGnWkeJCeFlHs2U92FQitYl7p5V8SKxOD_Bi39BQBIzMoZwDH1ct4i_6OwdaHf6CJVoJyZjqgZgc9cA-TkxKoEVXq5SgGQHsl1epqaoJAq8K4icAfBXzK3tzyYfG1zP0-pfDVDQe6OamMnjI_1SZ7F2WNj6XuqDl12rimkg4pLTJC7WoJb2h4TQBw=w457-h240-k-no
39,70,The First70 Hotel,"Jeju-do, Seogwipo-si, 특별자치도, Myeongdong-ro, 46 KR",0647660000,4.2,33.2475894,126.5668712,"checkin_time:3:00 PM,checkout_time:11:00 AM",https://lh3.googleusercontent.com/gps-proxy/ALd4DhFg4lv3jfR19NPPT74If6138MPYHpAotKiFz24icFsj95lkw-dlnFKkLzyMGhWYmU9130kv3XL8NgyGWb9FRnu1b623lCqkcZNINqAmJn6R6W2zwgniIW7Ret_257r7FgrcVwsch44RmOJsjtkINJfNYHaOG6g4eq0IapwfnS3I3SXbMeKPcty5Rg=w408-h272-k-no
39,71,Hotel Fellisia,"17 Beophwan-dong, Seogwipo-si, Jeju-do",0647390400,4.3,33.2473413,126.5178557,"checkin_time:3:00 PM,checkout_time:11:00 AM",https://lh3.googleusercontent.com/gps-proxy/ALd4DhFAi4Q5yphnDMMC2O-7JcgLjwlmHT7pwo33CIDK6CM1x1JAoVo7oJ-CnAoXxem1Ta9enRu3LZxYpDAAazb8ARZ3rQ4sGX2YgtfA6q9_ieAbv37Sx7t2TWn7Hvuxo1l21my_of510rjOMhh7_Z7GONCrQEv3eB6jNhHyMKNn25SpivkNCmH2Ph-FEA=w408-h272-k-no
39,72,Sunyang Village Pension,"350 Waheul-ro, Jocheon-eup, Jeju-si, Jeju-do",01036946704,3.9,33.4746115,126.6438776,"checkin_time:1:00 PM,checkout_time:12:00 PM",https://lh3.googleusercontent.com/gps-proxy/ALd4DhEBeMHq0eloJjtob4xTO3uskJier-6A6oslxKJrrrRo5JZaMJJ2T-FR9rQDOFr4EJnf6Rgp61aFV7KjSowAZk71k763LZkq5cwcieIskOnE0I_g6zgZd6ScOSMY-xfV0-O614oi2ZuFk3o6B4BFOTSgEIMIv_J211Qt_5whgdILIHpSd4wvwgkbyw=w408-h272-k-no
39,73,Park Sunshine Jeju,"135 Namseongjung-ro, Cheonji-dong, Seogwipo-si, Jeju-do",0647661000,4.5,33.2434345,126.553327,"checkin_time:2:00 PM,checkout_time:11:00 AM",https://lh3.googleusercontent.com/gps-proxy/ALd4DhE7Pl2HbgxW16DLeDZfN9G4LZwSHT7WvKHr3xhMSgvooO_pjV1_L2dkCDEzjCbWgoFPyX_-3NaEWoYjWMGkwloYT7T2p2W_W-B0x-PjSB9AbjhgNP4FXrO6Yavr3AG8dHxhEq66NgZTxSRvBFuEoEOGwSTz1aqktgVq7rsu_9HT3O1N1VYyQ3k44g=w408-h263-k-no
39,74,Hotel The Grang Seogwipo,"Jeju-do, Seogwipo-si, 특별자치도, 16, Jungjeong-ro, Seogwipo-si, Jeju-do, Republic of Korea 제주특별자치도 서귀포시 중정로 16 (서귀동, 호텔더그랑서귀포",0647330888,4.9,33.2473021,126.5581662,"checkin_time:3:00 PM,checkout_time:11:00 AM",https://lh3.googleusercontent.com/gps-proxy/ALd4DhEbM48MFt_Y4cTcU1q0gFIXDdrakLz9kvSqdYtlNxUGBXgdlATjvM6WxtFK_j4dMrFWe1qM2ce4sRhPGaGJze1-Tqgo5I1sETLWVKjT6CZtrC7AfQJUUnNZYEXS9XQDAJDvGZIt_9OpEOhl2IHypViB-hi-AMMaooIP6z-zdtZyT71QRPy_-guB=w408-h272-k-no
39,75,The Best Jeju Seongsan Hotel,"26 Dongnyuam-ro, Seongsan-eup, 특별자치도, Seogwipo-si, Jeju-do",0647840550,3.9,33.4496781,126.9171846,"checkin_time:3:00 PM,checkout_time:11:00 AM",https://lh5.googleusercontent.com/p/AF1QipPlbGQsTyz3gaZkDxlHN1UCz6nUeFtEMNuS25IG=w408-h306-k-no
39,76,Best Western Hotel Jeju,"27 Doryeong-ro, Jeju-si, Jeju-do",0647976000,4.0,33.4877957,126.4818957,"checkin_time:3:00 PM,checkout_time:11:00 AM",https://lh5.googleusercontent.com/p/AF1QipNVaOII6XfDLo13vnvwLq-8GkdEb6Fj-Bqoihuq=w426-h240-k-no
39,77,Hotel Cullinan Jeju,"26 Sajang 1-gil, 특별자치도 Jeju-si, Jeju-do",0647436500,3.5,33.4854123,126.4928464,"checkin_time:3:00 PM,checkout_time:11:00 AM",https://lh3.googleusercontent.com/gps-proxy/ALd4DhHJh1Zgnvj5oa48_MVzjkewbYBauLzuESJ_p0K3G_b4s-q-B4YkQfFKa4hPGUj3xSEgAWNqLrqPC5WiLhTHRuznWUeeYxFHJtBaHt4J7bcG0tcbGE6vbVIRzjOTwTEdlqOfxlEVCWem46FpLJ9LEzMmu9VJEsnThhev8MjBk_m5BPMRgqPkid5UNQ=w408-h272-k-no
39,78,Suandsu Resort & Hotel,"Jeju-do, Jeju-si, Aewol-eup, 신엄리 2946-4",0647997090,3.8,33.4741902,126.3586821,"checkin_time:3:00 PM,checkout_time:11:00 AM",https://lh3.googleusercontent.com/gps-proxy/ALd4DhHOyGrkIMtVOCUxZZ9D2yS_209U4B8LtGAabJ-I6Gxbw_n7mJyLNPmUUz5Geoqa3FvtCph4vqlEwtzvKonYXHIzLvh3QIt0AFSd9tUHEpSs2yleu68QyTvRoY61WGbfBWEbhPAh7obRuI_p9HCUdQEF7V4d-x3ks5Cvuw7fJL4pevBgrUPNRn0=w408-h271-k-no
39,79,Hotel Kenny Seogwipo,"Jeju-do, Seogwipo-si, 특별자치도, Dongmun-ro, 42 KR",0647605000,4.0,33.2502259,126.5651306,"checkin_time:3:00 PM,checkout_time:11:00 AM",https://lh5.googleusercontent.com/p/AF1QipNj-fn3MpGxE_o8WWsfzrpwjjAe7uUAlDIo3fTd=w408-h281-k-no
39,80,Ramada Plaza by Wyndham Jeju Ocean Front,"66 Tapdong-ro, Jeju-si, Jeju-do",0647298224,4.3,33.518851,126.5180058,"checkin_time:3:00 PM,checkout_time:12:00 PM",https://lh5.googleusercontent.com/p/AF1QipM9_3Uly-Zc9jMEurDYVrwFPnDQC9-xjr2pZou9=w408-h272-k-no
39,81,Sedona Jungmun Pool Villa,"Jeju-do, Seogwipo-si, 특별자치도, Saekdaljungang-ro 121beon-gil, 77 KR",01040951382,4.6,33.2647931,126.4082394,"checkin_time:3:00 PM,checkout_time:12:00 AM",https://lh5.googleusercontent.com/p/AF1QipPCk6fGNx5g7yUID9AYkHpswaBOgzgs8ry9Iywt=w408-h306-k-no
39,82,Shinshin Hotel Jeju Ocean,"14 Jungang-ro, 특별자치도 Seogwipo-si, Jeju-do",0647305800,4.3,33.2459813,126.5623574,"checkin_time:3:00 PM,checkout_time:11:00 AM",https://lh5.googleusercontent.com/p/AF1QipOyzAwtn6eq0yF0dUGd4k85YabBTuWUhRs3eovI=w408-h306-k-no
39,83,Evergreen Ocean Bed and Breakfast,"330-1 Wolryeong-ri, Hallim-eup, Jeju-si, Jeju-do",0647725500,4.3,33.3793471,126.2165012,"checkin_time:3:00 PM,checkout_time:11:00 AM",https://lh3.googleusercontent.com/gps-proxy/ALd4DhFhArysghX50Mhv0HVmPBgSJvzV6mtc9PiEVg-pzpfdNNB-_zWfk4uHvciOSNoGf0i97np7I9I_sBRfetK8rvje8WniwgLyADdeEE7yPSinoB8tPS_41G3E7Y8XPXLZ3fOAbiWjNT-haMQ31xH21AaQBycRvkCoHWhZfSLZd8QSschDDOPdgLZCmQ=w408-h272-k-no
39,84,Shalom Hotel Jeju,"1174-1 Ido 2(i)-dong, 특별자치도, Jeju-si, Jeju-do",0647207704,4.0,33.501932,126.532685,"checkin_time:3:00 PM,checkout_time:11:00 AM",https://lh3.googleusercontent.com/gps-proxy/ALd4DhHbnoCTexaxY7uW9CUGb04xueYKqiPGP5jJBF1z0LN_V32E15OtfLicL1ivhmraTPWYmUPEGpoPGkoiLFz17ZBoIycXhoc5MDNeZsHziWN7-yt5tHZHMjPNuXcHYbGxiZ-XyaYsX7gKi09kadoizw0PdRdS_Opxy9mJT4iYbC8VV7ZQDzrAPsY9=w408-h306-k-no
39,85,Pool Villa Jeju sorang,"Jungsangandong-ro, Jocheon-eup, 특별자치도, Jeju-si, Jeju-do",0647101000,4.3,33.4923973,126.67177,"checkin_time:3:00 PM,checkout_time:11:00 AM",https://lh3.googleusercontent.com/gps-proxy/ALd4DhEYxWPHDqQ0IC9yGS7ZOyEazNLlsIfRFeCowR1E8JXBEvvoAnhqvpUv4NTYJh2a-OpE5i8OBrup1KBscHno8POQyx8XzQEcyfT1WAsafXcb7sHTmIgHYvUbYR_7IKJOtlDHxkdp_9MjZbfPwujYB5PC7FDpUjwLTEqPlEU8Gi8rUMpToHvbKf6gPQ=w408-h272-k-no
39,86,S Hotel Jeju,"26 Oiljangjung-gil, Jeju-si",0647499926,3.8,33.495435,126.4715141,"checkin_time:3:00 PM,checkout_time:11:00 AM",https://lh3.googleusercontent.com/gps-proxy/ALd4DhG_Al852sIXSmyevrM9HOoAht-vNczOkIUdP6Rek9lO1NzKAyU19X08wlFfxIg_acdC_WkDUAdJg0YHHCxBBo0DsClIh48fqWj2W2W2crHwihGAqVV5MHmVm61EdB3WAuK-wfFlQ6xvYsVFdqLH12W7Y_NE_UcDgCI75evm3sJW6rlTn95Vd5oz6A=w408-h306-k-no
39,87,Grand Josun Jeju,"60 Jungmungwangwang-ro 72beon-gil, Seogwipo-si, Jeju-do",0647386600,4.5,33.2524795,126.4080501,"checkin_time:3:00 PM,checkout_time:12:00 PM",https://lh5.googleusercontent.com/p/AF1QipOM2h49nrBAHPBHvCRVvfG5E8QjGoQI_HOHJ87E=w408-h283-k-no
39,88,Il Mare Green & Stay,"2711-1 Gosan-ri, Hangyeong-myeon, Jeju-si, Jeju-do",01028053660,5.0,33.3059393,126.1788163,"checkin_time:,checkout_time:",https://lh5.googleusercontent.com/p/AF1QipPuexC3E61E8Z9l8QJKqFNMl0T7moURwY6xP_Jz=w408-h408-k-no
39,89,My Half Time,"61-1 Sinpung-ri, Seongsan-eup, Seogwipo-si, Jeju-do",0647837676,4.7,33.3606914,126.8641986,"checkin_time:3:00 PM,checkout_time:11:00 AM",https://lh3.googleusercontent.com/gps-proxy/ALd4DhFYzWptzdVfV98Xanjm4vJ-ij6L3On_KhNWFoG-ChAhW6C01wH6sPLN76Ayc-B2E3Ym1zSL-DlMspMJ9iDTwdNfnS6g2j2uPbjT1HRtfxN6RF0KC2s2gw0QTvAzECVQM0JAXanPIfyw2d3oS_4cp9fdKYjl-6WFw4q-QU1MfZiSfzQfAZJpEyY=w427-h240-k-no
39,90,Jeju Raon Hotel & Resort,"127 Geumneungnam-ro, Hallim-eup, Jeju-si, Jeju-do",0647967730,4.1,33.378512,126.241215,"checkin_time:3:00 PM,checkout_time:11:00 AM",https://lh5.googleusercontent.com/p/AF1QipMkBN9IawRDSP2sDt3yCqhBhkiCPHU2OXE7cBzJ=w408-h259-k-no
39,91,Stay Samdaloreum,"Jeju-do, Seogwipo-si, 특별자치도, Samdalhadong-ro 17beon-gil, 15-3 KR",01050431054,4.8,33.3693498,126.8705766,"checkin_time:,checkout_time:11:00 AM",https://lh3.googleusercontent.com/gps-proxy/ALd4DhFw2UWjofyA9LWn4MsuWnxZYKcbZjUDSaC20Aiosfhz6bXRmOsW1B8xdKeEfYHBE_6jk6Fq1wjc1wzYqVmX1WV28Z9CtO33sQOJkzUBkbQLizoHtlGOLCpCV3ra2sVqjfvC3HQb5Oyb5fAIZLdM-xVkCYbhkwlin6Id4oEDtNnNfmNCX0sBt0YB=w408-h272-k-no
39,92,Hotel RegentMarine Jeju,"20 Seobudu 2-gil, Geonip-dong, Jeju-si, Jeju-do",0647175000,4.2,33.5176293,126.5267886,"checkin_time:3:00 PM,checkout_time:12:00 PM",https://lh3.googleusercontent.com/gps-proxy/ALd4DhH7UmPqP1dtLQgnX4QELrKYr_A29C05GEcBp21Wgu3KEG3gugrOT8vN1ZTV0RrzLc7POAARFhJkQbzphJrge8vV_2a0cHkh2skLfhTERiE-V9qa05zsvAZBFvrDElAyiSovXDXclByTkEX4p-Edgy62X5Jl94vs8qHX7qp7r6xA85jrtxS1FHU=w408-h271-k-no
