areatype,index,name,address,phone_number,average_rating,latitude,longitude,business_hours,image_url
33,1,원조고추만두국집,"61 Sajik-daero 350beon-gil, Sangdang-gu, Cheongju-si, Chungcheongbuk-do",No Phone Number,4.4,36.6338401,127.4865014,['No Business Hours Available'],https://lh5.googleusercontent.com/p/AF1QipNSPL9gKL3glT6_Ynj44ol5Mj-10kbWRzV8M9d_=w426-h240-k-no
33,2,경주집 버섯찌개,"180-12 Seomun-dong, Sangdang-gu, Cheongju-si, Chungcheongbuk-do",0432216523,4.3,36.6328796,127.4855853,"['Sunday, 9\u202fAM to 7:30\u202fPM', 'Monday, Closed', 'Tuesday, 9\u202fAM to 7:30\u202fPM', 'Wednesday, 9\u202fAM to 7:30\u202fPM', 'Thursday, 9\u202fAM to 7:30\u202fPM', 'Friday, 9\u202fAM to 7:30\u202fPM', 'Saturday, 9\u202fAM to 7:30\u202fPM.']",https://lh5.googleusercontent.com/p/AF1QipPbwq0z98h3K66SZ0q_9IrdDVP8DRuz5g4_sv-A=w408-h724-k-no
33,3,극동반점,"93-3 Yeong-dong, Sangdang-gu, Cheongju-si, Chungcheongbuk-do",0432564074,3.9,36.6391558,127.4865804,"['Sunday, 5 to 9\u202fAM, 11:30\u202fAM to 3\u202fPM', 'Monday, 5 to 9\u202fPM, 11:30\u202fPM to 12\u202fAM', 'Tuesday, 5 to 9\u202fPM, 11:30\u202fPM to 12\u202fAM', 'Wednesday, 5 to 9\u202fPM, 11:30\u202fPM to 12\u202fAM', 'Thursday, 5 to 9\u202fPM, 11:30\u202fPM to 12\u202fAM', 'Friday, 5 to 9\u202fPM, 11:30\u202fPM to 12\u202fAM', 'Saturday, 5 to 9\u202fAM, 11:30\u202fAM to 3\u202fPM.']",https://lh5.googleusercontent.com/p/AF1QipOLK1bhAfFutuJ5WywL7_ieE5K25mEfaquI0Gmf=w408-h306-k-no
33,4,묵방골정원,"515 Chungcheong-daero, Naesu-eup, Cheongwon-gu, Cheongju-si, Chungcheongbuk-do",050713253353,4.1,36.6939706,127.5189447,"['Sunday, 10\u202fAM to 9\u202fPM', 'Monday, 10\u202fAM to 9\u202fPM', 'Tuesday, 10\u202fAM to 9\u202fPM', 'Wednesday, 10\u202fAM to 9\u202fPM', 'Thursday, 10\u202fAM to 9\u202fPM', 'Friday, 10\u202fAM to 9\u202fPM', 'Saturday, 10\u202fAM to 9\u202fPM.']",https://lh5.googleusercontent.com/p/AF1QipNl6mKuc352FU_k9aE4ryVyijXeySYRHeYUeFZW=w513-h240-k-no
33,5,리정식당,"297-12 내덕1동 Sangdang-gu, Cheongju-si, Chungcheongbuk-do",0432548947,4.2,36.6544444,127.4866667,"['Sunday, Closed', 'Monday, 8\u202fAM to 9:30\u202fPM', 'Tuesday, 8\u202fAM to 9:30\u202fPM', 'Wednesday, 8\u202fAM to 9:30\u202fPM', 'Thursday, 8\u202fAM to 9:30\u202fPM', 'Friday, 8\u202fAM to 9:30\u202fPM', 'Saturday, 8\u202fAM to 9:30\u202fPM.']",https://lh5.googleusercontent.com/p/AF1QipMfDAfC2jn0LGw8tVq5qj9Fdf18dDlF6X1d1PH3=w408-h326-k-no
33,6,괴산매운탕,"100-6 Daedeok-ri, Goesan-eup, Goesan-gun, Chungcheongbuk-do",0438322838,4.1,36.8059675,127.8174464,"['Sunday, 9\u202fAM to 9\u202fPM', 'Monday, 9\u202fAM to 9\u202fPM', 'Tuesday, 9\u202fAM to 9\u202fPM', 'Wednesday, 9\u202fAM to 9\u202fPM', 'Thursday, 9\u202fAM to 9\u202fPM', 'Friday, 9\u202fAM to 9\u202fPM', 'Saturday, 9\u202fAM to 9\u202fPM.']",https://lh5.googleusercontent.com/p/AF1QipNL_SsEsZoNHbz9_d1BfXT9oFj2X-ozCAAiPH3t=w426-h240-k-no
33,7,새울목오리탕,"325-3 Sin-gye-ri, Iwol-myeon, Jincheon-gun, Chungcheongbuk-do",0435368419,4.4,36.9416465,127.4096396,"['Sunday, 10:30\u202fAM to 9\u202fPM', 'Monday, 10:30\u202fAM to 9\u202fPM', 'Tuesday, 10:30\u202fAM to 9\u202fPM', 'Wednesday, 10:30\u202fAM to 9\u202fPM', 'Thursday, 10:30\u202fAM to 9\u202fPM', 'Friday, 10:30\u202fAM to 9\u202fPM', 'Saturday, 10:30\u202fAM to 9\u202fPM.']",https://lh5.googleusercontent.com/p/AF1QipPIODei1KZQQSRo2UB-WAfSBdmp7t--vfoI_P-x=w426-h240-k-no
33,8,사또가든,"93 Hwasan-ri, Ochang-eup, Cheongwon-gun, Chungcheongbuk-do",0432125094,4.1,36.7223949,127.3889533,"['Sunday, 10:30\u202fAM to 9:30\u202fPM', 'Monday, 10:30\u202fAM to 9:30\u202fPM', 'Tuesday, 10:30\u202fAM to 9:30\u202fPM', 'Wednesday, 10:30\u202fAM to 9:30\u202fPM', 'Thursday, 10:30\u202fAM to 9:30\u202fPM', 'Friday, 10:30\u202fAM to 9:30\u202fPM', 'Saturday, 10:30\u202fAM to 9:30\u202fPM.']",https://lh5.googleusercontent.com/p/AF1QipMqp5X7nKgaet1OfTysxt7Y696rlVWgrMOfU9Qo=w408-h306-k-no
33,9,Vanuatu Bakery Cafe,"29 Jukcheon-ro 79beon-gil, Heungdeok-gu, Cheongju-si, Chungcheongbuk-do",0432360788,4.3,36.6394465,127.4313732,"['Sunday, 8\u202fAM to 10:30\u202fPM', 'Monday, 8\u202fAM to 10:30\u202fPM', 'Tuesday, 8\u202fAM to 10:30\u202fPM', 'Wednesday, 8\u202fAM to 10:30\u202fPM', 'Thursday, 8\u202fAM to 10:30\u202fPM', 'Friday, 8\u202fAM to 10:30\u202fPM', 'Saturday, 8\u202fAM to 10:30\u202fPM.']",https://lh5.googleusercontent.com/p/AF1QipNb5ZHA93Pgt0YsL4W3-GJ9Mhe4HrSwP8p7l6Mn=w408-h306-k-no
33,10,Sushi Kitai(스시키타이),"Chungcheongbuk-do, Cheongju-si, Heungdeok-gu, Jinjae-ro 109beon-gil, 15 스시키타이 라온빌딩 4층",0432364124,4.3,36.6410747,127.4303162,"['Sunday, Closed', 'Monday, 12\u202fAM to 2:30\u202fPM, 6 to 10\u202fPM', 'Tuesday, 12\u202fAM to 2:30\u202fPM, 6 to 10\u202fPM', 'Wednesday, 12\u202fAM to 2:30\u202fPM, 6 to 10\u202fPM', 'Thursday, 12\u202fAM to 2:30\u202fPM, 6 to 10\u202fPM', 'Friday, 12\u202fAM to 2:30\u202fPM, 6 to 10\u202fPM', 'Saturday, 12\u202fAM to 2:30\u202fPM, 6 to 10\u202fPM.']",https://lh5.googleusercontent.com/p/AF1QipNEj0diLgTK8l0Xh0pDNOeje1xwkb-INUuME9H_=w408-h306-k-no
33,11,진천막국수,"Chungcheongbuk-do, Jincheon-gun, Iwol-myeon, Nowon-ri, 682-1 KR",0435328884,4.2,36.9249581,127.4286257,"['Sunday, 11\u202fAM to 8\u202fPM', 'Monday, Closed', 'Tuesday, 11\u202fAM to 8\u202fPM', 'Wednesday, 11\u202fAM to 8\u202fPM', 'Thursday, 11\u202fAM to 8\u202fPM', 'Friday, 11\u202fAM to 8\u202fPM', 'Saturday, 11\u202fAM to 8\u202fPM.']",https://lh5.googleusercontent.com/p/AF1QipMTaNs7arwjIsZ0iq6vXcfk-av2M2GFInTiioL9=w408-h253-k-no
33,12,반암막국수,"68 Seongsan-ri, Ochang-eup, Cheongwon-gun, Chungcheongbuk-do",0432172863,3.9,36.7415043,127.4246993,"['Sunday, 10:30\u202fAM to 9\u202fPM', 'Monday, Closed', 'Tuesday, 10:30\u202fAM to 9\u202fPM', 'Wednesday, 10:30\u202fAM to 9\u202fPM', 'Thursday, 10:30\u202fAM to 9\u202fPM', 'Friday, 10:30\u202fAM to 9\u202fPM', 'Saturday, 10:30\u202fAM to 9\u202fPM.']",https://lh5.googleusercontent.com/p/AF1QipPYKP4yF9RoZEX-_hRyzW59hzLgSFy1yZh-o1sK=w426-h240-k-no
33,13,새강변가든,"101-1 Gugwon-ri, Gunbuk-myeon, Okcheon-gun, Chungcheongbuk-do",0437333678,4.1,36.3395002,127.5886113,"['Sunday, 11\u202fAM to 9:30\u202fPM', 'Monday, 11\u202fAM to 9:30\u202fPM', 'Tuesday, 11\u202fAM to 9:30\u202fPM', 'Wednesday, 11\u202fAM to 9:30\u202fPM', 'Thursday, 11\u202fAM to 9:30\u202fPM', 'Friday, 11\u202fAM to 9:30\u202fPM', 'Saturday, 11\u202fAM to 9:30\u202fPM.']",https://lh5.googleusercontent.com/p/AF1QipOpcA3Ghw23Ya-nOdTiCNR1YIwV_IOBjsk4NvDd=w408-h306-k-no
33,14,제주조림,"96-3 Jukcheon-ro, Bokdae-dong, Heungdeok-gu, Cheongju-si, Chungcheongbuk-do",0432641180,3.8,36.637537,127.4335984,"['Sunday, 10:30\u202fAM to 9:30\u202fPM', 'Monday, 10:30\u202fAM to 9:30\u202fPM', 'Tuesday, 10:30\u202fAM to 9:30\u202fPM', 'Wednesday, 10:30\u202fAM to 9:30\u202fPM', 'Thursday, 10:30\u202fAM to 9:30\u202fPM', 'Friday, 10:30\u202fAM to 9:30\u202fPM', 'Saturday, 10:30\u202fAM to 9:30\u202fPM.']",https://lh5.googleusercontent.com/p/AF1QipNoc7ri0BE2hYi3nuzQZ29gbCOge52t3B_HgsQK=w408-h544-k-no
33,15,극동반점,"93-3 Yeong-dong, Sangdang-gu, Cheongju-si, Chungcheongbuk-do",0432564074,3.9,36.6391558,127.4865804,"['Sunday, 5 to 9\u202fAM, 11:30\u202fAM to 3\u202fPM', 'Monday, 5 to 9\u202fPM, 11:30\u202fPM to 12\u202fAM', 'Tuesday, 5 to 9\u202fPM, 11:30\u202fPM to 12\u202fAM', 'Wednesday, 5 to 9\u202fPM, 11:30\u202fPM to 12\u202fAM', 'Thursday, 5 to 9\u202fPM, 11:30\u202fPM to 12\u202fAM', 'Friday, 5 to 9\u202fPM, 11:30\u202fPM to 12\u202fAM', 'Saturday, 5 to 9\u202fAM, 11:30\u202fAM to 3\u202fPM.']",https://lh5.googleusercontent.com/p/AF1QipOLK1bhAfFutuJ5WywL7_ieE5K25mEfaquI0Gmf=w408-h306-k-no
33,16,어미생선구이,Jeungpyeong,0438383192,4.2,36.7843099,127.5833353,"['Sunday, 10:30\u202fAM to 9\u202fPM', 'Monday, 10:30\u202fAM to 9\u202fPM', 'Tuesday, 10:30\u202fAM to 9\u202fPM', 'Wednesday, 10:30\u202fAM to 9\u202fPM', 'Thursday, 10:30\u202fAM to 9\u202fPM', 'Friday, 10:30\u202fAM to 9\u202fPM', 'Saturday, 10:30\u202fAM to 9\u202fPM.']",https://lh5.googleusercontent.com/p/AF1QipNxyQqdb_3EHkT4yWM1nZZPR1SkjfIZXoWvhkbE=w408-h544-k-no
33,17,Majung,"845-5 Daecheonghoban-ro, Munui-myeon, Sangdang-gu, Cheongju-si, Chungcheongbuk-do",0432881259,4.1,36.5179911,127.4997232,"['Sunday, 7\u202fAM to 9\u202fPM', 'Monday, 10\u202fAM to 9\u202fPM', 'Tuesday, 10\u202fAM to 9\u202fPM', 'Wednesday, 10\u202fAM to 9\u202fPM', 'Thursday, 10\u202fAM to 9\u202fPM', 'Friday, 10\u202fAM to 9\u202fPM', 'Saturday, 10\u202fAM to 9\u202fPM.']",https://lh5.googleusercontent.com/p/AF1QipPGV3TmM9kYKwyON59qgm1JTPxySSzJ8F_CpJRM=w408-h544-k-no
33,18,엔트라포레,"190-53 Gajwasinsong-ro, Namil-myeon, Sangdang-gu, Cheongju-si, Chungcheongbuk-do",050713537449,4.3,36.5694638,127.4791536,"['Sunday, 11\u202fAM to 10\u202fPM', 'Monday, 11\u202fAM to 10\u202fPM', 'Tuesday, 11\u202fAM to 10\u202fPM', 'Wednesday, 11\u202fAM to 10\u202fPM', 'Thursday, 11\u202fAM to 10\u202fPM', 'Friday, 11\u202fAM to 10\u202fPM', 'Saturday, 11\u202fAM to 10\u202fPM.']",https://lh5.googleusercontent.com/p/AF1QipNOLIbalvxjx9ba_OTJTE9M3w0A8BDugQjDcwC-=w408-h544-k-no
33,19,꽃댕이묵마을,"Chungcheongbuk-do, Jecheon-si, Baegun-myeon, Hwadang-ri, 70-4번지 KR",0436530077,3.8,37.1726385,127.9897695,['No Business Hours Available'],https://lh5.googleusercontent.com/p/AF1QipOrGqdd7vBxQkD3zWgVpahu7Ho6DkMeGd9DIF9B=w408-h306-k-no
33,20,원뜰,Jecheon,0436486788,4.0,37.063979,128.166035,"['Sunday, 11\u202fAM to 8\u202fPM', 'Monday, 11\u202fAM to 8\u202fPM', 'Tuesday, 11\u202fAM to 8\u202fPM', 'Wednesday, 11\u202fAM to 8\u202fPM', 'Thursday, 11\u202fAM to 8\u202fPM', 'Friday, 11\u202fAM to 8\u202fPM', 'Saturday, 11\u202fAM to 8\u202fPM.']",https://lh5.googleusercontent.com/p/AF1QipNwkx5VYe3k1k66dpG3lVl9kl4Cyllmj8QnQtfr=w408-h544-k-no
33,21,쥐꼬리명당식당,"산1 Hwasan-ri, Chopyeong-myeon, Jincheon-gun, Chungcheongbuk-do",0435326647,4.0,36.8247381,127.5094083,"['Sunday, 10\u202fAM to 9\u202fPM', 'Monday, 10\u202fAM to 9\u202fPM', 'Tuesday, 10\u202fAM to 9\u202fPM', 'Wednesday, 10\u202fAM to 9\u202fPM', 'Thursday, 10\u202fAM to 9\u202fPM', 'Friday, 10\u202fAM to 9\u202fPM', 'Saturday, 10\u202fAM to 9\u202fPM.']",https://lh5.googleusercontent.com/p/AF1QipPOVZGMZKB6OQgaNvIRFAvZlb0Ht85Z-dj0IPbE=w408-h306-k-no
33,22,입이즐거운 그 만두,"Chungcheongbuk-do, Cheongju-si, Cheongwon-gu, Sacheon-dong, 31-80 입이즐거운그만두 본점",0432416005,4.0,36.670339,127.4774454,"['Sunday, Closed', 'Monday, 10\u202fAM to 8\u202fPM', 'Tuesday, 10\u202fAM to 8\u202fPM', 'Wednesday, 10\u202fAM to 8\u202fPM', 'Thursday, 10\u202fAM to 8\u202fPM', 'Friday, 10\u202fAM to 8\u202fPM', 'Saturday, 10\u202fAM to 8\u202fPM.']",https://lh5.googleusercontent.com/p/AF1QipMWxqXKyT0fC8GvGNdtz4VoM51OV1TcKpHvFJNh=w408-h306-k-no
33,23,청풍황금떡갈비,"1682 Cheongpungho-ro, Cheongpung-myeon, Jecheon-si, Chungcheongbuk-do",0436476303,4.0,37.0206786,128.1726194,"['Sunday, 8:30\u202fAM to 9\u202fPM', 'Monday, 9\u202fAM to 9\u202fPM', 'Tuesday, 9\u202fAM to 9\u202fPM', 'Wednesday, 9\u202fAM to 9\u202fPM', 'Thursday, 9\u202fAM to 9\u202fPM', 'Friday, 9\u202fAM to 9\u202fPM', 'Saturday, 8:30\u202fAM to 9\u202fPM.']",https://lh5.googleusercontent.com/p/AF1QipNZT5fa1t6ktzLjsVHRznPX2DEPX8VUwPqUhdwL=w426-h240-k-no
33,24,The house mandarin,"97 Subyeon-ro, Danyang-eup, Danyang-gun, Chungcheongbuk-do",0434232111,4.3,36.984096,128.3709768,"['Sunday, 10\u202fAM to 9\u202fPM', 'Monday, 10\u202fAM to 9\u202fPM', 'Tuesday, 10\u202fAM to 9\u202fPM', 'Wednesday, 10\u202fAM to 9\u202fPM', 'Thursday, 10\u202fAM to 9\u202fPM', 'Friday, 10\u202fAM to 9\u202fPM', 'Saturday, 10\u202fAM to 9\u202fPM.']",https://lh5.googleusercontent.com/p/AF1QipP7E4JWRLIs5GFZE-Bzq2OwDICd1keMw35zAVM4=w408-h306-k-no
33,25,에이커,"47 Yongpyeong-ro 113beon-gil, Cheongju-si, Chungcheongbuk-do",0432971162,4.4,36.6045765,127.4869303,"['Sunday, 10\u202fAM to 11\u202fPM', 'Monday, 10\u202fAM to 11\u202fPM', 'Tuesday, 10\u202fAM to 11\u202fPM', 'Wednesday, 10\u202fAM to 11\u202fPM', 'Thursday, 10\u202fAM to 11\u202fPM', 'Friday, 10\u202fAM to 11\u202fPM', 'Saturday, 10\u202fAM to 11\u202fPM.']",https://lh5.googleusercontent.com/p/AF1QipPF7D92vqR6MUOuXEuQHaxQgfqIoKQm59oR6Y0_=w408-h408-k-no
33,26,단양 장다리식당,"370 Sambong-ro, Danyang-eup, Danyang-gun, Chungcheongbuk-do",0434233960,3.7,36.9895146,128.368121,"['Sunday, 10\u202fAM to 9\u202fPM', 'Monday, 10\u202fAM to 9\u202fPM', 'Tuesday, 10\u202fAM to 9\u202fPM', 'Wednesday, 10\u202fAM to 9\u202fPM', 'Thursday, 10\u202fAM to 9\u202fPM', 'Friday, 10\u202fAM to 9\u202fPM', 'Saturday, 10\u202fAM to 9\u202fPM.']",https://lh5.googleusercontent.com/p/AF1QipOB1fZTVEcTLsT2H5vLvKRkkBopEZPilxqqYwa-=w408-h306-k-no
33,27,농사꾼의집,"173 Myeongji-dong, Jecheon-si, Chungcheongbuk-do",0436474589,3.1,37.1075575,128.1973645,"['Sunday, 10\u202fAM to 9\u202fPM', 'Monday, 10\u202fAM to 9\u202fPM', 'Tuesday, 10\u202fAM to 9\u202fPM', 'Wednesday, 10\u202fAM to 9\u202fPM', 'Thursday, 10\u202fAM to 9\u202fPM', 'Friday, 10\u202fAM to 9\u202fPM', 'Saturday, 10\u202fAM to 9\u202fPM.']",https://lh5.googleusercontent.com/p/AF1QipO0SIUj1CTlj_l4G65ou-mV1PyN8Eo2QV1dz_CH=w408-h544-k-no
33,28,구읍할매묵집,"2-2 Munjeong-ri, Okcheon-eup, Okcheon-gun, Chungcheongbuk-do",0437321853,3.7,36.3148145,127.5804065,"['Sunday, 11\u202fAM to 8:30\u202fPM', 'Monday, 11\u202fAM to 8:30\u202fPM', 'Tuesday, 11\u202fAM to 8:30\u202fPM', 'Wednesday, 11\u202fAM to 8:30\u202fPM', 'Thursday, 11\u202fAM to 8:30\u202fPM', 'Friday, 11\u202fAM to 8:30\u202fPM', 'Saturday, 11\u202fAM to 8:30\u202fPM.']",https://lh5.googleusercontent.com/p/AF1QipPGAl84ZkYYl_9GCjVGZCpKRTCpn9O8mdwDVIQ=w408-h305-k-no
33,29,복해가든,"15-9 Gaean-gil, Jangan-myeon, Boeun-gun, Chungcheongbuk-do",0435430606,4.2,36.4706869,127.7917514,"['Sunday, 11\u202fAM to 8\u202fPM', 'Monday, 11\u202fAM to 8\u202fPM', 'Tuesday, 11\u202fAM to 8\u202fPM', 'Wednesday, 11\u202fAM to 8\u202fPM', 'Thursday, 11\u202fAM to 8\u202fPM', 'Friday, 11\u202fAM to 8\u202fPM', 'Saturday, 11\u202fAM to 8\u202fPM.']",https://lh5.googleusercontent.com/p/AF1QipNQD-f7Nw4f61ud09yVVxLn5rKUUDBG4NpbHw2M=w408-h306-k-no
33,30,Gyeongjingag,"29-10 Geumgu-ri, Okcheon-eup, Okcheon-gun, Chungcheongbuk-do",0437312357,4.0,36.3002546,127.5697531,"['Sunday, 11\u202fAM to 6\u202fPM', 'Monday, Closed', 'Tuesday, 11\u202fAM to 6\u202fPM', 'Wednesday, 11\u202fAM to 6\u202fPM', 'Thursday, 11\u202fAM to 6\u202fPM', 'Friday, 11\u202fAM to 6\u202fPM', 'Saturday, 11\u202fAM to 6\u202fPM.']",https://lh5.googleusercontent.com/p/AF1QipMB0Gg2Xr9hdnfOaFLRSlzdbAMe7qfHgIHkqJo5=w426-h240-k-no
33,31,가선식당,"760 Geumgang-ro, Yangsan-myeon, Yeongdong-gun, Chungcheongbuk-do",0437438665,3.9,36.1248439,127.6010877,"['Sunday, 10\u202fAM to 8\u202fPM', 'Monday, 10\u202fAM to 8\u202fPM', 'Tuesday, 10\u202fAM to 8\u202fPM', 'Wednesday, 10\u202fAM to 8\u202fPM', 'Thursday, 10\u202fAM to 8\u202fPM', 'Friday, 10\u202fAM to 8\u202fPM', 'Saturday, 10\u202fAM to 8\u202fPM.']",https://lh5.googleusercontent.com/p/AF1QipNYx-wG25sHWYN7064pYmtQIQPdbsN1SNaUcRGb=w408-h306-k-no
33,32,Cowboy Grill,"415-24 Hakhyeonsoya-ro, Cheongpung-myeon, Jecheon-si, Chungcheongbuk-do",0436473510,4.3,37.0132542,128.2260638,"['Sunday, 11:30\u202fAM to 4\u202fPM, 5 to 8\u202fPM', 'Monday, 12 to 3:30\u202fPM, 5 to 8\u202fPM', 'Tuesday, Closed', 'Wednesday, Closed', 'Thursday, 12 to 3:30\u202fPM, 5 to 8\u202fPM', 'Friday, 11:30\u202fAM to 3:30\u202fPM, 4:30 to 9\u202fPM', 'Saturday, 11:30\u202fAM to 3:30\u202fPM, 4:30 to 9\u202fPM.']",https://lh5.googleusercontent.com/p/AF1QipOpYNhrcqU4jUZPuwjMwlkultMP8B8yQ6ac_c6o=w408-h306-k-no
33,33,조령산묵밥,"16-1 Wonpung-ri, Yeonpung-myeon, Goesan-gun, Chungcheongbuk-do",0438334687,4.1,36.8143963,128.0372429,"['Sunday, 10\u202fAM to 8:30\u202fPM', 'Monday, 10:30\u202fAM to 9\u202fPM', 'Tuesday, 10:30\u202fAM to 9\u202fPM', 'Wednesday, 10:30\u202fAM to 9\u202fPM', 'Thursday, 10:30\u202fAM to 9\u202fPM', 'Friday, 10:30\u202fAM to 9\u202fPM', 'Saturday, 10:30\u202fAM to 9\u202fPM.']",https://lh5.googleusercontent.com/p/AF1QipMLBdlesEPNy9IpOLtvbkEDf32L8lY612_aJokt=w426-h240-k-no
33,34,목도민물고기집,"985-3 Idam-ri, Gammul-myeon, Goesan-gun, Chungcheongbuk-do",0438337153,4.1,36.8688477,127.8569832,"['Sunday, 11\u202fAM to 7\u202fPM', 'Monday, 11\u202fAM to 7\u202fPM', 'Tuesday, 11\u202fAM to 7\u202fPM', 'Wednesday, 11\u202fAM to 7\u202fPM', 'Thursday, 11\u202fAM to 7\u202fPM', 'Friday, 11\u202fAM to 7\u202fPM', 'Saturday, 11\u202fAM to 7\u202fPM.']",https://lh5.googleusercontent.com/p/AF1QipOIijNCua-iZValj9m8i9TPo8S3aW3cLY3R_Crg=w426-h240-k-no
33,35,뿌리깊은나무,"221-3 Janggye-gil, Annae-myeon, Okcheon-gun, Chungcheongbuk-do",No Phone Number,3.8,36.3593783,127.6319493,"['Sunday, 10\u202fAM to 9\u202fPM', 'Monday, 10\u202fAM to 9\u202fPM', 'Tuesday, 10\u202fAM to 9\u202fPM', 'Wednesday, 10\u202fAM to 9\u202fPM', 'Thursday, 10\u202fAM to 9\u202fPM', 'Friday, 10\u202fAM to 9\u202fPM', 'Saturday, 10\u202fAM to 9\u202fPM.']",https://lh5.googleusercontent.com/p/AF1QipN89CZIyLZhgrUO9Pj6lcCfGIH3lTCOegDt2kvy=w426-h240-k-no
33,36,코리아 크래프트 브류어리 KOREA CRAFT BREWERY,"529 Sangno-ri, Wonnam-myeon, Eumseong-gun, Chungcheongbuk-do",No Phone Number,4.4,36.8895385,127.6828146,"['Sunday, Closed', 'Monday, Closed', 'Tuesday, Closed', 'Wednesday, Closed', 'Thursday, Closed', 'Friday, Closed', 'Saturday, 1 to 7\u202fPM.']",https://lh5.googleusercontent.com/p/AF1QipPRqSW-FKjJxpPZcQ4V5065ryVhyHreyf1pPAVO=w408-h544-k-no
33,37,대명도리탕,"1968 Bongmyeong-dong, Heungdeok-gu, Cheongju-si, Chungcheongbuk-do",0432682560,4.1,36.6491406,127.4564842,"['Sunday, 6\u202fAM to 10\u202fPM', 'Monday, 6\u202fAM to 10\u202fPM', 'Tuesday, 6\u202fAM to 10\u202fPM', 'Wednesday, 6\u202fAM to 10\u202fPM', 'Thursday, 6\u202fAM to 10\u202fPM', 'Friday, 6\u202fAM to 10\u202fPM', 'Saturday, 6\u202fAM to 10\u202fPM.']",https://lh5.googleusercontent.com/p/AF1QipMpz8GoYgqxoVdiH-VsfI64GlgWk1ccNsaNZgxx=w408-h271-k-no
33,38,산아래,"Chungcheongbuk-do, Jecheon-si, Bongyang-eup, Jangpyeong-ri, 949-2 KR",0436463233,3.9,37.1197664,128.1274754,"['Sunday, 10:30\u202fAM to 8:30\u202fPM', 'Monday, 10:30\u202fAM to 6\u202fPM', 'Tuesday, 10:30\u202fAM to 6\u202fPM', 'Wednesday, Closed', 'Thursday, 10:30\u202fAM to 8:30\u202fPM', 'Friday, 10:30\u202fAM to 8:30\u202fPM', 'Saturday, 10:30\u202fAM to 8:30\u202fPM.']",https://lh5.googleusercontent.com/p/AF1QipMaC_WCtQj__iTgDtDStyyM0iNPrBX0QxQ9hQpS=w408-h306-k-no
33,39,Dalaejeong,"165 Dongjincheon-gil, Goesan-eup, Goesan-gun, Chungcheongbuk-do",0438321246,3.8,36.8124724,127.7902057,"['Sunday, 10\u202fAM to 10\u202fPM', 'Monday, 10\u202fAM to 10\u202fPM', 'Tuesday, 10\u202fAM to 10\u202fPM', 'Wednesday, 10\u202fAM to 10\u202fPM', 'Thursday, 10\u202fAM to 10\u202fPM', 'Friday, 10\u202fAM to 10\u202fPM', 'Saturday, 10\u202fAM to 10\u202fPM.']",https://lh5.googleusercontent.com/p/AF1QipP5s5Zftbi5DV4Ft5Ty5X_dkawrwwMl1fZbd71D=w493-h240-k-no
33,40,금호송어장,Cheongju,0429315050,3.8,36.45915,127.460481,"['Sunday, 11\u202fAM to 9\u202fPM', 'Monday, Closed', 'Tuesday, 11\u202fAM to 9\u202fPM', 'Wednesday, 11\u202fAM to 9\u202fPM', 'Thursday, 11\u202fAM to 9\u202fPM', 'Friday, 11\u202fAM to 9\u202fPM', 'Saturday, 11\u202fAM to 9\u202fPM.']",https://lh5.googleusercontent.com/p/AF1QipPSB0KYtzrkQLrWx2XcJTjSSxdgZtQDgSVqReri=w408-h306-k-no
33,41,산막이깊은목맛집,Goesan,0438340832,4.0,36.7613044,127.8392242,"['Sunday, 10\u202fAM to 8\u202fPM', 'Monday, 10\u202fAM to 8\u202fPM', 'Tuesday, 10\u202fAM to 8\u202fPM', 'Wednesday, 10\u202fAM to 8\u202fPM', 'Thursday, 10\u202fAM to 8\u202fPM', 'Friday, 10\u202fAM to 8\u202fPM', 'Saturday, 10\u202fAM to 8\u202fPM.']",https://lh5.googleusercontent.com/p/AF1QipNA7LZTdtyqaiW5SNTNVPP-7r-bWHptKgkWNVBX=w408-h517-k-no
33,42,위드포레스트,"133 Jungnim-dong, Seowon-gu, Cheongju-si, Chungcheongbuk-do",No Phone Number,4.0,36.6063865,127.4415192,"['Sunday, 11\u202fAM to 9:30\u202fPM', 'Monday, 11\u202fAM to 9:30\u202fPM', 'Tuesday, 11\u202fAM to 9:30\u202fPM', 'Wednesday, 11\u202fAM to 9:30\u202fPM', 'Thursday, 11\u202fAM to 9:30\u202fPM', 'Friday, 11\u202fAM to 9:30\u202fPM', 'Saturday, 11\u202fAM to 9:30\u202fPM.']",https://lh5.googleusercontent.com/p/AF1QipNo2sInhz1C6QdWL-hH6EfGY4DTyc_S3iOcNLfM=w408-h306-k-no
33,43,장군집,"316-6 Gaesin-dong, Heungdeok-gu, Cheongju-si, Chungcheongbuk-do",0432670023,4.0,36.6201028,127.4538665,"['Sunday, Closed', 'Monday, 11\u202fAM to 12\u202fAM', 'Tuesday, 11\u202fAM to 12\u202fAM', 'Wednesday, 11\u202fAM to 12\u202fAM', 'Thursday, 11\u202fAM to 12\u202fAM', 'Friday, 11\u202fAM to 12\u202fAM', 'Saturday, 11\u202fAM to 12\u202fAM.']",https://lh5.googleusercontent.com/p/AF1QipPt3_rolSLOEkiO7m57oP8G5BuMwAqHeJhc1jcT=w426-h240-k-no
33,44,Blue Taste,Cheongju,0432878805,3.8,36.5185285,127.4984778,"['Sunday, 11\u202fAM to 9\u202fPM', 'Monday, 11\u202fAM to 9\u202fPM', 'Tuesday, 11\u202fAM to 9\u202fPM', 'Wednesday, 11\u202fAM to 9\u202fPM', 'Thursday, 11\u202fAM to 9\u202fPM', 'Friday, 11\u202fAM to 9\u202fPM', 'Saturday, 11\u202fAM to 9\u202fPM.']",https://lh5.googleusercontent.com/p/AF1QipN0JAhhcWN0saAxizyugtwKaVWTFoIP-szUErI9=w408-h544-k-no
33,45,옥천묵집,"24-1 Hagye-ri, Okcheon-eup, Okcheon-gun, Chungcheongbuk-do",0437327947,4.2,36.3148526,127.5830534,"['Sunday, 11\u202fAM to 6\u202fPM', 'Monday, 11\u202fAM to 6\u202fPM', 'Tuesday, 11\u202fAM to 6\u202fPM', 'Wednesday, 11\u202fAM to 6\u202fPM', 'Thursday, 11\u202fAM to 6\u202fPM', 'Friday, 11\u202fAM to 6\u202fPM', 'Saturday, 11\u202fAM to 6\u202fPM.']",https://lh5.googleusercontent.com/p/AF1QipM_HiPeYBucTuC-FLmI87_9urSX0XdB-Hd9RtTe=w426-h240-k-no
33,46,오십년할머니집,"8-1 Goegang-ro neutiul-gil, Goesan-eup, Goesan-gun, Chungcheongbuk-do",0438322974,4.5,36.8048569,127.8189867,"['Sunday, 10\u202fAM to 8:30\u202fPM', 'Monday, 10\u202fAM to 8:30\u202fPM', 'Tuesday, 10\u202fAM to 8:30\u202fPM', 'Wednesday, 10\u202fAM to 8:30\u202fPM', 'Thursday, 10\u202fAM to 8:30\u202fPM', 'Friday, 10\u202fAM to 8:30\u202fPM', 'Saturday, 10\u202fAM to 8:30\u202fPM.']",https://lh5.googleusercontent.com/p/AF1QipMQx4SmGski_X01HSi95I0MFSbcEZG6lzm24Gv9=w426-h240-k-no
33,47,파브리카,Cheongju,0432778068,4.1,36.6325716,127.4604789,"['Sunday, 11\u202fAM to 11\u202fPM', 'Monday, 11\u202fAM to 11\u202fPM', 'Tuesday, 11\u202fAM to 11\u202fPM', 'Wednesday, 11\u202fAM to 11\u202fPM', 'Thursday, 11\u202fAM to 11\u202fPM', 'Friday, 11\u202fAM to 11\u202fPM', 'Saturday, 11\u202fAM to 11\u202fPM.']",https://lh5.googleusercontent.com/p/AF1QipPwzN3rlF8s3gYRGjdTxJEmKljF0jp87-mfyfgh=w533-h240-k-no
33,48,오마카세 어진,"879-1 Yullyang-dong, Sangdang-gu, Cheongju-si, Chungcheongbuk-do",0432183217,4.3,36.6691253,127.4894729,"['Sunday, 12 to 2:20\u202fPM', 'Monday, 6 to 10:30\u202fPM', 'Tuesday, 6 to 10:30\u202fPM', 'Wednesday, 6 to 10:30\u202fPM', 'Thursday, 6 to 10:30\u202fPM', 'Friday, 12 to 2:20\u202fPM, 6 to 10:30\u202fPM', 'Saturday, 12 to 2:20\u202fPM, 6 to 10:30\u202fPM.']",https://lh5.googleusercontent.com/p/AF1QipPYiBLoAJDVSl-TZtY0K2kfGZjKgYpcrJwkhdbg=w408-h408-k-no
33,49,남주동해장국,"379 Namju-dong, Sangdang-gu, Cheongju-si, Chungcheongbuk-do",0432568575,4.3,36.6291982,127.485196,"['Sunday, 6\u202fAM to 9\u202fPM', 'Monday, Closed', 'Tuesday, 6\u202fAM to 9\u202fPM', 'Wednesday, 6\u202fAM to 9\u202fPM', 'Thursday, 6\u202fAM to 9\u202fPM', 'Friday, 6\u202fAM to 9\u202fPM', 'Saturday, 6\u202fAM to 9\u202fPM.']",https://lh5.googleusercontent.com/p/AF1QipPM_ZpETLbYMWwZ3viOCIvRCtZGKfSlnj153HMl=w408-h306-k-no
33,50,신미만두,"52 Gyodong-ro 3beon-gil, Sangdang-gu, Cheongju-si, Chungcheongbuk-do",0432533726,4.2,36.6396751,127.4908118,"['Sunday, Closed', 'Monday, 11\u202fAM to 7\u202fPM', 'Tuesday, 11\u202fAM to 7\u202fPM', 'Wednesday, 11\u202fAM to 7\u202fPM', 'Thursday, 11\u202fAM to 7\u202fPM', 'Friday, 11\u202fAM to 7\u202fPM', 'Saturday, 11\u202fAM to 7\u202fPM.']",https://lh5.googleusercontent.com/p/AF1QipMOA9xdeQoNlDS_Y-0tOYbhwkbGNt5J9eN5LUyw=w408-h306-k-no
33,51,옥산장날순대,"Chungcheongbuk-do, 청원군 Oksan-myeon, Osan-ri, 211-26",0432604944,3.3,36.6654197,127.3732649,"['Sunday, 6\u202fAM to 9\u202fPM', 'Monday, 6\u202fAM to 9\u202fPM', 'Tuesday, 6\u202fAM to 9\u202fPM', 'Wednesday, 6\u202fAM to 9\u202fPM', 'Thursday, 6\u202fAM to 9\u202fPM', 'Friday, 6\u202fAM to 9\u202fPM', 'Saturday, 6\u202fAM to 9\u202fPM.']",https://lh5.googleusercontent.com/p/AF1QipNZuhFci-JfmdmW2alnJxJ9O910MY6Cv4Jbx7n3=w408-h306-k-no
33,52,Asa Gamjatang,"8 Chilseong-ro 9-gil, Jecheon-si, Chungcheongbuk-do",0436420769,4.3,37.1442696,128.2120659,"['Sunday, 10\u202fAM to 9:30\u202fPM', 'Monday, 10\u202fAM to 9:30\u202fPM', 'Tuesday, Closed', 'Wednesday, 10\u202fAM to 9:30\u202fPM', 'Thursday, 10\u202fAM to 9:30\u202fPM', 'Friday, 10\u202fAM to 9:30\u202fPM', 'Saturday, 10\u202fAM to 9:30\u202fPM.']",https://lh5.googleusercontent.com/p/AF1QipM4TE0y4goWfDFaPRaYvIStUuRljGwtRIa7NIaD=w503-h240-k-no
33,53,아리숲 보은대추찐빵,"17-1 Sangpan-ri, Songnisan-myeon, Boeun-gun, Chungcheongbuk-do",0435447045,4.4,36.5129556,127.810627,['No Business Hours Available'],https://lh5.googleusercontent.com/p/AF1QipO8-eyB0VmNCJHn_rbD4TPCaG29w7HaQSuvnSZ0=w408-h306-k-no
33,54,대림식당,"Wangjang-ri, Gamgok-myeon, Eumseong-gun, Chungcheongbuk-do",0438775665,2.5,37.1181374,127.6483233,"['Sunday, 11\u202fAM to 9\u202fPM', 'Monday, 11\u202fAM to 9\u202fPM', 'Tuesday, 11\u202fAM to 9\u202fPM', 'Wednesday, 11\u202fAM to 9\u202fPM', 'Thursday, 11\u202fAM to 9\u202fPM', 'Friday, 11\u202fAM to 9\u202fPM', 'Saturday, 11\u202fAM to 9\u202fPM.']",https://lh5.googleusercontent.com/p/AF1QipMy3MSq-tK6kvuhyVqDfoEaBe2056bG5RtAOo44=w426-h240-k-no
33,55,성안골영양돌솥밥,"37-6 Sangdang-ro 59beon-gil, Sangdang-gu, Cheongju-si, Chungcheongbuk-do",0432236118,4.2,36.6333431,127.4884139,"['Sunday, 11\u202fAM to 9\u202fPM', 'Monday, 11\u202fAM to 9\u202fPM', 'Tuesday, 11\u202fAM to 9\u202fPM', 'Wednesday, 11\u202fAM to 9\u202fPM', 'Thursday, 11\u202fAM to 9\u202fPM', 'Friday, 11\u202fAM to 9\u202fPM', 'Saturday, 11\u202fAM to 9\u202fPM.']",https://lh5.googleusercontent.com/p/AF1QipPgkFR-5JsO8_UdgJXyjUs9KJbV2GZTCule5eJ8=w408-h306-k-no
33,56,소문난부부떡볶이,Cheongju,0432249001,4.2,36.6330887,127.4884142,"['Sunday, Closed', 'Monday, 11\u202fAM to 7:30\u202fPM', 'Tuesday, 11\u202fAM to 7:30\u202fPM', 'Wednesday, 11\u202fAM to 7:30\u202fPM', 'Thursday, 11\u202fAM to 7:30\u202fPM', 'Friday, 11\u202fAM to 7:30\u202fPM', 'Saturday, 11\u202fAM to 7:30\u202fPM.']",https://lh5.googleusercontent.com/p/AF1QipM_ZYcZO3Bqz0ac9P861XEJOZVvU0_SXm82ZbM8=w408-h306-k-no
33,57,옥천초량순대,"170-9 Geumgu-ri, Okcheon-eup, Okcheon-gun, Chungcheongbuk-do",0437321527,4.0,36.3019756,127.566879,"['Sunday, 8\u202fAM to 10\u202fPM', 'Monday, 8\u202fAM to 10\u202fPM', 'Tuesday, 8\u202fAM to 10\u202fPM', 'Wednesday, 8\u202fAM to 10\u202fPM', 'Thursday, 8\u202fAM to 10\u202fPM', 'Friday, 8\u202fAM to 10\u202fPM', 'Saturday, 8\u202fAM to 10\u202fPM.']",https://lh5.googleusercontent.com/p/AF1QipPAaG52mvLgKm_GbJkgBMJoSA2Irhf0_2YXry0v=w426-h240-k-no
33,58,영화식당,"11 Multang 1-gil, Suanbo-myeon, Chungju-si",0438464500,3.8,36.8474244,127.9904041,"['Sunday, 9\u202fAM to 8\u202fPM', 'Monday, 8\u202fAM to 9:30\u202fPM', 'Tuesday, 8\u202fAM to 9:30\u202fPM', 'Wednesday, 8\u202fAM to 9:30\u202fPM', 'Thursday, 8\u202fAM to 9:30\u202fPM', 'Friday, 8\u202fAM to 9:30\u202fPM', 'Saturday, 9\u202fAM to 8\u202fPM.']",https://lh5.googleusercontent.com/p/AF1QipO0nu8YD1FGBm3LsForZoreoj1Sk9lnF_qJxJij=w408-h306-k-no
33,59,스톤폴스,"19-33 1sunhwan-ro 1896beon-gil, Sangdang-gu, Cheongju-si, Chungcheongbuk-do",No Phone Number,4.3,36.6603625,127.5140894,['No Business Hours Available'],https://lh5.googleusercontent.com/p/AF1QipN7pe0rJMj8FICpAEJcYSq5Z38xjfN50tcq0ADr=w408-h272-k-no
33,60,황할머니갈비집,"30 Namsa-ro 140beon-gil, Sangdang-gu, Cheongju-si, Chungcheongbuk-do",0432229292,4.1,36.6307694,127.4902103,"['Sunday, 11:30\u202fAM to 10\u202fPM', 'Monday, 11:30\u202fAM to 10\u202fPM', 'Tuesday, 11:30\u202fAM to 10\u202fPM', 'Wednesday, 11:30\u202fAM to 10\u202fPM', 'Thursday, 11:30\u202fAM to 10\u202fPM', 'Friday, 11:30\u202fAM to 10\u202fPM', 'Saturday, 11:30\u202fAM to 10\u202fPM.']",https://lh5.googleusercontent.com/p/AF1QipNnDPEoesRcd6aytTW_91xZYkRJQJ0PwqWMUwa7=w408-h306-k-no
33,61,방아실돼지집,"576-13 Daejeong-ri, Gunbuk-myeon, Okcheon-gun, Chungcheongbuk-do",0437325653,3.9,36.3885428,127.5385856,"['Sunday, 11\u202fAM to 8\u202fPM', 'Monday, 11\u202fAM to 8\u202fPM', 'Tuesday, 11\u202fAM to 8\u202fPM', 'Wednesday, 11\u202fAM to 8\u202fPM', 'Thursday, 11\u202fAM to 8\u202fPM', 'Friday, 11\u202fAM to 8\u202fPM', 'Saturday, 11\u202fAM to 8\u202fPM.']",https://lh5.googleusercontent.com/p/AF1QipOgKEpI3H-AgLjlqjv_oYR8AtpCCRAOL4gdffkJ=w507-h240-k-no
33,62,Daebomyeongga,"287 Yongdu-daero, Jecheon-si, Chungcheongbuk-do",0436433050,4.0,37.1511738,128.1885272,"['Sunday, 11\u202fAM to 8\u202fPM', 'Monday, 11\u202fAM to 8\u202fPM', 'Tuesday, 11\u202fAM to 8\u202fPM', 'Wednesday, 11\u202fAM to 8\u202fPM', 'Thursday, Closed', 'Friday, 11\u202fAM to 8\u202fPM', 'Saturday, 11\u202fAM to 8\u202fPM.']",https://lh5.googleusercontent.com/p/AF1QipPJkWQPnh2znvd7PrV-9eDG1J1tjbLIyuQe9rtI=w408-h306-k-no
33,63,Deogseung-Gwan,"5 Sogye-ro, Hwanggan-myeon, Yeongdong-gun, Chungcheongbuk-do",0437424122,3.6,36.2254342,127.9157802,"['Sunday, 11\u202fAM to 3\u202fPM, 5 to 7\u202fPM', 'Monday, Closed', 'Tuesday, 11\u202fAM to 3\u202fPM, 5 to 7\u202fPM', 'Wednesday, 11\u202fAM to 3\u202fPM, 5 to 7\u202fPM', 'Thursday, 11\u202fAM to 3\u202fPM, 5 to 7\u202fPM', 'Friday, 11\u202fAM to 3\u202fPM, 5 to 7\u202fPM', 'Saturday, 11\u202fAM to 3\u202fPM, 5 to 7\u202fPM.']",https://lh5.googleusercontent.com/p/AF1QipNf-QKNvURpMdTbTngorDc9IRsrt9SlDblGEo4C=w408-h544-k-no
33,64,박쏘가리,"85 Subyeon-ro, Danyang-eup, Danyang-gun, Chungcheongbuk-do",0434238825,3.5,36.9829475,128.3708594,"['Sunday, 8\u202fAM to 10:45\u202fPM', 'Monday, 8\u202fAM to 10:45\u202fPM', 'Tuesday, 8\u202fAM to 10:45\u202fPM', 'Wednesday, 8\u202fAM to 10:45\u202fPM', 'Thursday, 8\u202fAM to 10:45\u202fPM', 'Friday, 8\u202fAM to 10:45\u202fPM', 'Saturday, 8\u202fAM to 10:45\u202fPM.']",https://lh5.googleusercontent.com/p/AF1QipOEuLBdRbIdiOVu4Tz40PyT1fa-yQqYtB4rGx6F=w408-h306-k-no
33,65,Gong-Wondang,"87번지 Nammunno 2(i)-ga, Sangdang-gu, Cheongju-si, Chungcheongbuk-do",0432553894,3.6,36.6330688,127.4886189,['No Business Hours Available'],https://lh5.googleusercontent.com/p/AF1QipP5vLL8IkbYsLNDgxlpB5BRk_7Ohe1mlpmrpGDK=w408-h323-k-no
33,66,Fullmoon,"81-194 Su-dong, Sangdang-gu, Cheongju-si, Chungcheongbuk-do",0432245152,4.1,36.6462784,127.494751,"['Sunday, 10:30\u202fAM to 11:30\u202fPM', 'Monday, 10:30\u202fAM to 11:30\u202fPM', 'Tuesday, 10:30\u202fAM to 11:30\u202fPM', 'Wednesday, 10:30\u202fAM to 11:30\u202fPM', 'Thursday, 10:30\u202fAM to 11:30\u202fPM', 'Friday, 10:30\u202fAM to 11:30\u202fPM', 'Saturday, 10:30\u202fAM to 11:30\u202fPM.']",https://lh5.googleusercontent.com/p/AF1QipODq-IFSw_9LNPW0nQfkIjZOi-NVUIwc-N7isUB=w408-h306-k-no
33,67,만나밥집,"35 Dongsu 2-gil, Chungju-si, Chungcheongbuk-do",0438529590,4.2,36.98632,127.9378094,['No Business Hours Available'],https://lh5.googleusercontent.com/p/AF1QipPDyejxczhbpkZ5oq3NT6WbG2UxTHOcSXiwzXmr=w408-h544-k-no
33,68,Daebagjib,"214 Jukhyang-ri, Okcheon-eup, Okcheon-gun, Chungcheongbuk-do",0437335788,3.8,36.3154196,127.5768075,"['Sunday, 12\u202fAM to 8\u202fPM', 'Monday, 10\u202fAM to 8\u202fPM', 'Tuesday, 10\u202fAM to 8\u202fPM', 'Wednesday, 10\u202fAM to 8\u202fPM', 'Thursday, 10\u202fAM to 8\u202fPM', 'Friday, 10\u202fAM to 8\u202fPM', 'Saturday, 10\u202fAM to 8\u202fPM.']",https://lh5.googleusercontent.com/p/AF1QipNHi8-REdY_KdEivTs9gh6XMMWDrh9XSK2HltvA=w408-h408-k-no
33,69,Second scent traditional dumpling noodles,"327 Chungcheong-daero, Eumseong-gun, Chungcheongbuk-do",0438724410,4.3,36.8599702,127.6294718,"['Sunday, 8\u202fAM to 6\u202fPM', 'Monday, 8\u202fAM to 4\u202fPM', 'Tuesday, 8\u202fAM to 4\u202fPM', 'Wednesday, 8\u202fAM to 4\u202fPM', 'Thursday, 8\u202fAM to 4\u202fPM', 'Friday, 8\u202fAM to 4\u202fPM', 'Saturday, 8\u202fAM to 7\u202fPM.']",https://lh5.googleusercontent.com/p/AF1QipMivcUN5m-2afUhkT71A5OQ5F4lsrokw7s3F9FP=w408-h306-k-no
33,70,이안테라스 베이커리,"345-3 율량.사천동 Sangdang-gu, Cheongju-si, Chungcheongbuk-do",No Phone Number,4.2,36.6653149,127.4992566,['No Business Hours Available'],https://lh5.googleusercontent.com/p/AF1QipMWy76Ya-Y3iuuog1oZw73Gqx4ghs_qaTD6_9vo=w408-h272-k-no
33,71,옥수찐빵 만두,"Chungcheongbuk-do, Cheongju-si, 청원군 북이면 옥수리 148-1",0432127173,4.1,36.7719198,127.5643239,"['Sunday, 10:30\u202fAM to 9\u202fPM', 'Monday, 10:30\u202fAM to 9\u202fPM', 'Tuesday, 10:30\u202fAM to 9\u202fPM', 'Wednesday, 10:30\u202fAM to 9\u202fPM', 'Thursday, 10:30\u202fAM to 9\u202fPM', 'Friday, 10:30\u202fAM to 9\u202fPM', 'Saturday, 10:30\u202fAM to 9\u202fPM.']",https://lh5.googleusercontent.com/p/AF1QipNVLqqfnxKaDvbOV3SsCKEJUD58-MyZpQIqTynQ=w426-h240-k-no
33,72,중앙모밀,Cheongju,0432530777,4.1,36.6387856,127.4872437,"['Sunday, 11\u202fAM to 8:30\u202fPM', 'Monday, 11\u202fAM to 8:30\u202fPM', 'Tuesday, 11\u202fAM to 8:30\u202fPM', 'Wednesday, 11\u202fAM to 8:30\u202fPM', 'Thursday, 11\u202fAM to 8:30\u202fPM', 'Friday, 11\u202fAM to 8:30\u202fPM', 'Saturday, 11\u202fAM to 8:30\u202fPM.']",https://lh5.googleusercontent.com/p/AF1QipPRNUxqyIoDD5e45waSurluUNVLuARgnvcRdfj0=w408-h306-k-no
33,73,위드쿠잉,"488-1 Jidong-dong, Heungdeok-gu, Cheongju-si, Chungcheongbuk-do",No Phone Number,4.1,36.6489033,127.4084843,"['Sunday, 10:30\u202fAM to 10\u202fPM', 'Monday, 10:30\u202fAM to 10\u202fPM', 'Tuesday, 10:30\u202fAM to 10\u202fPM', 'Wednesday, 10:30\u202fAM to 10\u202fPM', 'Thursday, 10:30\u202fAM to 10\u202fPM', 'Friday, 10:30\u202fAM to 10\u202fPM', 'Saturday, 10:30\u202fAM to 10\u202fPM.']",https://lh5.googleusercontent.com/p/AF1QipMzEoMIvnIhfo1-0VI5ibxpkAbilUho-4Fq9szW=w408-h408-k-no
33,74,백로식당,"Chungcheongbuk-do, Cheongju-si, Heungdeok-gu, 1sunhwan-ro, 418 백로식당 신봉점",01021652374,4.0,36.6534756,127.4706477,['No Business Hours Available'],https://lh5.googleusercontent.com/p/AF1QipO6nnJ6gqog_Tx59PDttZvzxx8svle7ObmeePD9=w408-h306-k-no
33,75,용만두전골,"Chungcheongbuk-do, Cheongju-si, Heungdeok-gu, Oksan-myeon, Osan-ri, 537-2 KR",0432631232,4.5,36.6643506,127.3750858,"['Sunday, 11\u202fAM to 9\u202fPM', 'Monday, 11\u202fAM to 9\u202fPM', 'Tuesday, 11\u202fAM to 9\u202fPM', 'Wednesday, 11\u202fAM to 9\u202fPM', 'Thursday, 11\u202fAM to 9\u202fPM', 'Friday, 11\u202fAM to 9\u202fPM', 'Saturday, 11\u202fAM to 9\u202fPM.']",https://lh5.googleusercontent.com/p/AF1QipM5yWASkep13wsLSOPryoF00hqY-Fr4dmPG35U5=w408-h272-k-no
33,76,상촌식당,"99 Jungsansinchon-gil, Suanbo-myeon, Chungju-si, Chungcheongbuk-do",0438483492,4.0,36.8846673,127.9951335,"['Sunday, 11:30\u202fAM to 3\u202fPM', 'Monday, Closed', 'Tuesday, 11:30\u202fAM to 3\u202fPM', 'Wednesday, 11:30\u202fAM to 3\u202fPM', 'Thursday, 11:30\u202fAM to 3\u202fPM', 'Friday, 11:30\u202fAM to 3\u202fPM', 'Saturday, 11:30\u202fAM to 3\u202fPM.']",https://lh5.googleusercontent.com/p/AF1QipPHFJOlwZnCegbXYhJEHbj3HPNEuXOv484vERKT=w408-h408-k-no
33,77,제중한식촌(장수밥상),Goesan,0438369261,4.1,36.7733333,127.6383333,"['Sunday, 10:30\u202fAM to 9\u202fPM', 'Monday, 10:30\u202fAM to 9\u202fPM', 'Tuesday, 10:30\u202fAM to 9\u202fPM', 'Wednesday, 10:30\u202fAM to 9\u202fPM', 'Thursday, 10:30\u202fAM to 9\u202fPM', 'Friday, 10:30\u202fAM to 9\u202fPM', 'Saturday, 10:30\u202fAM to 9\u202fPM.']",https://lh5.googleusercontent.com/p/AF1QipPQkpThNfPW4MYuBmS_WZM_O4jqoCWcRHpJoi_2=w408-h306-k-no
33,78,명산가든,"624-6 Seseong-ri, Salmi-myeon, Chungju-si, Chungcheongbuk-do",0438517208,4.3,36.9138818,127.948033,"['Sunday, 11\u202fAM to 8:30\u202fPM', 'Monday, 11\u202fAM to 8:30\u202fPM', 'Tuesday, 11\u202fAM to 8:30\u202fPM', 'Wednesday, 11\u202fAM to 8:30\u202fPM', 'Thursday, 11\u202fAM to 8:30\u202fPM', 'Friday, 11\u202fAM to 8:30\u202fPM', 'Saturday, 11\u202fAM to 8:30\u202fPM.']",https://lh5.googleusercontent.com/p/AF1QipMmgzRHoBMxujjHPILsX1WuuxHBPGhMvIr-ymQk=w408-h306-k-no
33,79,Poongmidang,"23-1 중앙로 Okcheon-eup, Okcheon-gun",No Phone Number,3.5,36.2997118,127.5677105,"['Sunday, 9:30\u202fAM to 6\u202fPM', 'Monday, Closed', 'Tuesday, 9:30\u202fAM to 6\u202fPM', 'Wednesday, 9:30\u202fAM to 6\u202fPM', 'Thursday, 9:30\u202fAM to 6\u202fPM', 'Friday, 9:30\u202fAM to 6\u202fPM', 'Saturday, 9:30\u202fAM to 6\u202fPM.']",https://lh5.googleusercontent.com/p/AF1QipOxOcjsxhAFbnt7IQu8lrm9PaElbxbh8hi4PXje=w408-h544-k-no
33,80,배영숙산야초밥상,"280-1 Sanae-ri, Songnisan-myeon, Boeun-gun, Chungcheongbuk-do",0435431136,4.1,36.5308366,127.8212562,"['Sunday, 9\u202fAM to 9\u202fPM', 'Monday, 9\u202fAM to 9\u202fPM', 'Tuesday, 9\u202fAM to 9\u202fPM', 'Wednesday, 9\u202fAM to 9\u202fPM', 'Thursday, 9\u202fAM to 9\u202fPM', 'Friday, 9\u202fAM to 9\u202fPM', 'Saturday, 9\u202fAM to 9\u202fPM.']",https://lh5.googleusercontent.com/p/AF1QipN7nve4bZhN9YglM2F0GrJ3nEvuBP6BCgixOOpY=w408-h306-k-no
33,81,김천식당,"25-4 Samsan-ro 1-gil, Boeun-eup, Boeun-gun, Chungcheongbuk-do",0435431413,4.0,36.4823762,127.7213699,"['Sunday, 8\u202fAM to 9\u202fPM', 'Monday, 8\u202fAM to 9\u202fPM', 'Tuesday, 8\u202fAM to 9\u202fPM', 'Wednesday, 8\u202fAM to 9\u202fPM', 'Thursday, 8\u202fAM to 9\u202fPM', 'Friday, 8\u202fAM to 9\u202fPM', 'Saturday, 8\u202fAM to 9\u202fPM.']",https://lh5.googleusercontent.com/p/AF1QipO6yCC0B50XYo9Oh3UAb1PqjDT3n8gwbPSz7Jxn=w408-h306-k-no
33,82,Their There Cafe,Cheongju,0432959000,4.3,36.6124544,127.4981118,"['Sunday, 10\u202fAM to 10\u202fPM', 'Monday, 10\u202fAM to 10\u202fPM', 'Tuesday, 10\u202fAM to 10\u202fPM', 'Wednesday, 10\u202fAM to 10\u202fPM', 'Thursday, 10\u202fAM to 10\u202fPM', 'Friday, 10\u202fAM to 10\u202fPM', 'Saturday, 10\u202fAM to 10\u202fPM.']",https://lh5.googleusercontent.com/p/AF1QipPhkyQ2Q3HIbYEPdRCphjJvBkzCAFKdPzXseZo=w408-h306-k-no
33,83,어부명가,Danyang-gun,0434217688,3.5,36.9831664,128.370669,"['Sunday, 10\u202fAM to 11\u202fPM', 'Monday, 10\u202fAM to 11\u202fPM', 'Tuesday, 10\u202fAM to 11\u202fPM', 'Wednesday, 10\u202fAM to 11\u202fPM', 'Thursday, 10\u202fAM to 11\u202fPM', 'Friday, 10\u202fAM to 11\u202fPM', 'Saturday, 10\u202fAM to 11\u202fPM.']",https://lh5.googleusercontent.com/p/AF1QipPgqhTIM8K4jJsJj1QLkg70BdetT17xTVIWYnHd=w426-h240-k-no
33,84,청풍황금송어,Jecheon,0436524769,4.2,37.0299402,128.1801401,"['Sunday, 11\u202fAM to 8\u202fPM', 'Monday, 11\u202fAM to 8\u202fPM', 'Tuesday, 11\u202fAM to 8\u202fPM', 'Wednesday, 11\u202fAM to 8\u202fPM', 'Thursday, 11\u202fAM to 8\u202fPM', 'Friday, 11\u202fAM to 8\u202fPM', 'Saturday, 11\u202fAM to 8\u202fPM.']",https://lh5.googleusercontent.com/p/AF1QipMYFcHqjX2gWq--PQOrqOk0EtH-Lroee6cAkNv-=w408-h408-k-no
33,85,아성청국장,"1562 Uncheon-dong, Heungdeok-gu, Cheongju-si, Chungcheongbuk-do",0432660888,4.2,36.6481832,127.4771135,"['Sunday, 10\u202fAM to 9\u202fPM', 'Monday, 10\u202fAM to 9\u202fPM', 'Tuesday, 10\u202fAM to 9\u202fPM', 'Wednesday, 10\u202fAM to 9\u202fPM', 'Thursday, 10\u202fAM to 9\u202fPM', 'Friday, 10\u202fAM to 9\u202fPM', 'Saturday, 10\u202fAM to 9\u202fPM.']",https://lh5.googleusercontent.com/p/AF1QipMzWjRYqJPT57lWE9GwpsXCXGMbuZOxNfX2wiIh=w426-h240-k-no
33,86,대운분식,Cheongju,0432600667,3.7,36.665457,127.3741785,"['Sunday, 10:30\u202fAM to 10\u202fPM', 'Monday, 10:30\u202fAM to 10\u202fPM', 'Tuesday, 10:30\u202fAM to 10\u202fPM', 'Wednesday, 10:30\u202fAM to 10\u202fPM', 'Thursday, 10:30\u202fAM to 10\u202fPM', 'Friday, 10:30\u202fAM to 10\u202fPM', 'Saturday, 10:30\u202fAM to 10\u202fPM.']",https://lh5.googleusercontent.com/p/AF1QipN25MEbsNYJNi2alguRHJrXcnrcxGsJ0pUd4lr_=w408-h306-k-no
33,87,Song-Aejib,"513-19 Hwasan-ri, Chopyeong-myeon, Jincheon-gun, Chungcheongbuk-do",0435326228,4.0,36.8133862,127.5177439,"['Sunday, 11\u202fAM to 8\u202fPM', 'Monday, 11\u202fAM to 8\u202fPM', 'Tuesday, 11\u202fAM to 8\u202fPM', 'Wednesday, 11\u202fAM to 8\u202fPM', 'Thursday, 11\u202fAM to 8\u202fPM', 'Friday, 11\u202fAM to 8\u202fPM', 'Saturday, 11\u202fAM to 8\u202fPM.']",https://lh5.googleusercontent.com/p/AF1QipPGs2qsDgGWPtf6xbFzdvamnx-TylP3vjeHuhRR=w426-h240-k-no
33,88,EATS,"201-30 내덕2동 Sangdang-gu, Cheongju-si, Chungcheongbuk-do",No Phone Number,4.7,36.6536684,127.493422,['No Business Hours Available'],https://lh5.googleusercontent.com/p/AF1QipPcnlkJUOfol2-Pru-g3LJz0SYFnFiUhZi5WD64=w408-h306-k-no
33,89,서문우동,"166-3 Seomun-dong, Sangdang-gu, Cheongju-si, Chungcheongbuk-do",0432563334,3.9,36.635465,127.4851885,"['Sunday, 10\u202fAM to 8\u202fPM', 'Monday, 10\u202fAM to 8\u202fPM', 'Tuesday, 10\u202fAM to 8\u202fPM', 'Wednesday, 10\u202fAM to 8\u202fPM', 'Thursday, 10\u202fAM to 8\u202fPM', 'Friday, 10\u202fAM to 8\u202fPM', 'Saturday, 10\u202fAM to 8\u202fPM.']",https://lh5.googleusercontent.com/p/AF1QipNrr7kSMEdpQXwRDRQQURki4VvvUOrqxHYPNe2f=w426-h240-k-no
33,90,탄금대 왕갈비탕,"364-13 Chilgeum-dong, Chungju-si, Chungcheongbuk-do",0438578577,4.1,36.9864122,127.9097831,"['Sunday, 10\u202fAM to 8:30\u202fPM', 'Monday, Closed', 'Tuesday, 10\u202fAM to 8:30\u202fPM', 'Wednesday, 10\u202fAM to 8:30\u202fPM', 'Thursday, 10\u202fAM to 8:30\u202fPM', 'Friday, 10\u202fAM to 8:30\u202fPM', 'Saturday, 10\u202fAM to 8:30\u202fPM.']",https://lh5.googleusercontent.com/p/AF1QipMkmll92qFkHOQlKOxflgZMvQD_y5R2lgNIs20=w426-h240-k-no
33,91,송이식당,"222-3 Mugeuk-ri, Geumwang-eup, Eumseong-gun, Chungcheongbuk-do",0438773169,4.7,36.994087,127.59606,['No Business Hours Available'],https://lh5.googleusercontent.com/p/AF1QipMAhZ7rT2X_is3XP6INLP4fd8pffG_oVaHdWYgB=w408-h306-k-no
33,92,Nangman Jjajang,"2-41 Uirim-daero 48-gil, Mosan-dong, Jecheon-si, Chungcheongbuk-do",0436434626,3.8,37.1772959,128.2122245,"['Sunday, 11\u202fAM to 2:30\u202fPM, 5 to 8:20\u202fPM', 'Monday, 11\u202fAM to 2:30\u202fPM, 5 to 8:20\u202fPM', 'Tuesday, 11\u202fAM to 2:30\u202fPM, 5 to 8:20\u202fPM', 'Wednesday, 11\u202fAM to 2:30\u202fPM, 5 to 8:20\u202fPM', 'Thursday, 11\u202fAM to 2:30\u202fPM, 5 to 8:20\u202fPM', 'Friday, 11\u202fAM to 2:30\u202fPM, 5 to 8:20\u202fPM', 'Saturday, 11\u202fAM to 2:30\u202fPM, 5 to 8:20\u202fPM.']",https://lh5.googleusercontent.com/p/AF1QipPle1VejCCELvECJHAWun4vir6GVz6R6ak59CZ-=w408-h306-k-no
33,93,Chan King cutlet stuffing,Cheongju,0432664277,4.3,36.6344849,127.4583052,"['Sunday, Closed', 'Monday, 11\u202fAM to 8:30\u202fPM', 'Tuesday, 11\u202fAM to 8:30\u202fPM', 'Wednesday, 11\u202fAM to 8:30\u202fPM', 'Thursday, 11\u202fAM to 8:30\u202fPM', 'Friday, 11\u202fAM to 8:30\u202fPM', 'Saturday, 11\u202fAM to 8\u202fPM.']",https://lh5.googleusercontent.com/p/AF1QipMrqPrJN23HpU-QnUr-M34n1ugr7BJbWHKxKWc=w408-h306-k-no
33,94,Gaesindong Haejangguk,"16 Mochung-ro, Seowon-gu, Cheongju-si, Chungcheongbuk-do",0432734546,4.0,36.6246552,127.465818,"['Sunday, 6\u202fAM to 11\u202fPM', 'Monday, 6\u202fAM to 11\u202fPM', 'Tuesday, 6\u202fAM to 11\u202fPM', 'Wednesday, 6\u202fAM to 11\u202fPM', 'Thursday, 6\u202fAM to 11\u202fPM', 'Friday, 6\u202fAM to 11\u202fPM', 'Saturday, 6\u202fAM to 11\u202fPM.']",https://lh5.googleusercontent.com/p/AF1QipM3T4ftJqG-FnyLV7UOjjfvX1selhOjmrKqW-r3=w408-h306-k-no
33,95,지영옥청국장,"337-24 봉방동 Chungju-si, Chungcheongbuk-do",0438477683,4.0,36.9703188,127.9144791,"['Sunday, Closed', 'Monday, 10\u202fAM to 8\u202fPM', 'Tuesday, 10\u202fAM to 8\u202fPM', 'Wednesday, 10\u202fAM to 8\u202fPM', 'Thursday, 10\u202fAM to 8\u202fPM', 'Friday, 10\u202fAM to 8\u202fPM', 'Saturday, 10\u202fAM to 8\u202fPM.']",https://lh5.googleusercontent.com/p/AF1QipPK75tpisf5zqQ5TumtWq0_hpWySXN9MV30KKsf=w503-h240-k-no
33,96,싱그레복집,Cheongju,0432532981,3.9,36.6480102,127.4825785,"['Sunday, 10:30\u202fAM to 9:30\u202fPM', 'Monday, 10:30\u202fAM to 9:30\u202fPM', 'Tuesday, 10:30\u202fAM to 9:30\u202fPM', 'Wednesday, 10:30\u202fAM to 9:30\u202fPM', 'Thursday, 10:30\u202fAM to 9:30\u202fPM', 'Friday, 10:30\u202fAM to 9:30\u202fPM', 'Saturday, 10:30\u202fAM to 9:30\u202fPM.']",https://lh5.googleusercontent.com/p/AF1QipPds-R8jfxC2D1ljQwca84IVlhVldyndmxhYlTD=w426-h240-k-no
33,97,안성식당,"1618 Yeongdonghwanggan-ro, Yeongdong-gun",0437424203,4.0,36.2249939,127.9051065,"['Sunday, 7\u202fAM to 7:30\u202fPM', 'Monday, 7\u202fAM to 8\u202fPM', 'Tuesday, 7\u202fAM to 8\u202fPM', 'Wednesday, 7\u202fAM to 8\u202fPM', 'Thursday, 7\u202fAM to 8\u202fPM', 'Friday, 7\u202fAM to 8\u202fPM', 'Saturday, 7\u202fAM to 7:30\u202fPM.']",https://lh5.googleusercontent.com/p/AF1QipPxSt_sB0ycN757Ord8slIPmQuvm-GV83RSlhjH=w408-h306-k-no
33,98,복생반점,Danyang-gun,0434222210,3.2,36.9844611,128.3695222,"['Sunday, 10\u202fAM to 9\u202fPM', 'Monday, 10\u202fAM to 9\u202fPM', 'Tuesday, 10\u202fAM to 9\u202fPM', 'Wednesday, 10\u202fAM to 9\u202fPM', 'Thursday, 10\u202fAM to 9\u202fPM', 'Friday, 10\u202fAM to 9\u202fPM', 'Saturday, 10\u202fAM to 9\u202fPM.']",https://lh5.googleusercontent.com/p/AF1QipN_mFu1rjfzq91ZxEp4ORj88isvnSzigOGYnIzY=w408-h306-k-no
33,99,송원칼국수,"38 Chojung-ro, Jeungpyeong-eup, Jeungpyeong-gun, Chungcheongbuk-do",0438388721,4.2,36.7780457,127.5686817,"['Sunday, 11\u202fAM to 9\u202fPM', 'Monday, 11\u202fAM to 9\u202fPM', 'Tuesday, 11\u202fAM to 9\u202fPM', 'Wednesday, 11\u202fAM to 9\u202fPM', 'Thursday, 11\u202fAM to 9\u202fPM', 'Friday, 11\u202fAM to 9\u202fPM', 'Saturday, 11\u202fAM to 9\u202fPM.']",https://lh5.googleusercontent.com/p/AF1QipP7hn4R1mZBKK0L70sdRc89g4QwfGsDc0WadahN=w408-h544-k-no
33,100,상당집,"1 Seongnae-ro 118beon-gil, Sanseong-dong, Sangdang-gu, Cheongju-si, Chungcheongbuk-do",0432523291,4.0,36.6634876,127.54235,"['Sunday, 9:30\u202fAM to 8\u202fPM', 'Monday, 9:30\u202fAM to 8\u202fPM', 'Tuesday, 9:30\u202fAM to 8\u202fPM', 'Wednesday, 9:30\u202fAM to 8\u202fPM', 'Thursday, 9:30\u202fAM to 8\u202fPM', 'Friday, 9:30\u202fAM to 8\u202fPM', 'Saturday, 9:30\u202fAM to 8\u202fPM.']",https://lh5.googleusercontent.com/p/AF1QipNJsbfhRI8Q9i6lcUla7mUseAgurkTXKKbbZVa9=w426-h240-k-no
33,101,운정식당,"445 Munhwa-dong, Chungju-si, Chungcheongbuk-do",0438472820,4.1,36.9728016,127.9220673,"['Sunday, 6\u202fAM to 10\u202fPM', 'Monday, 6\u202fAM to 10\u202fPM', 'Tuesday, 6\u202fAM to 10\u202fPM', 'Wednesday, 6\u202fAM to 10\u202fPM', 'Thursday, 6\u202fAM to 10\u202fPM', 'Friday, 6\u202fAM to 10\u202fPM', 'Saturday, 6\u202fAM to 10\u202fPM.']",https://lh5.googleusercontent.com/p/AF1QipPJOAvYyz261KZO6uNdyMAwLMimucHxYCQ1dbz9=w408-h306-k-no
33,102,오성당,"55 Pungsan-ro, Gagyeong-dong, Heungdeok-gu, Cheongju-si, Chungcheongbuk-do",0432567197,4.1,36.6275959,127.4362944,"['Sunday, Closed', 'Monday, 11\u202fAM to 8:30\u202fPM', 'Tuesday, 11\u202fAM to 8:30\u202fPM', 'Wednesday, 11\u202fAM to 8:30\u202fPM', 'Thursday, 11\u202fAM to 8:30\u202fPM', 'Friday, 11\u202fAM to 8:30\u202fPM', 'Saturday, 11\u202fAM to 8\u202fPM.']",https://lh5.googleusercontent.com/p/AF1QipPeobLH_3rD-eiC3rOJmLCo12ZPlw6VCsNMpL_4=w408-h544-k-no
33,103,Seongnamjib,Cheongju,0432978322,4.3,36.5205881,127.5138357,"['Sunday, Closed', 'Monday, 10\u202fAM to 9\u202fPM', 'Tuesday, 10\u202fAM to 9\u202fPM', 'Wednesday, 10\u202fAM to 9\u202fPM', 'Thursday, 10\u202fAM to 9\u202fPM', 'Friday, 10\u202fAM to 9\u202fPM', 'Saturday, 10\u202fAM to 9\u202fPM.']",https://lh5.googleusercontent.com/p/AF1QipOEdb2nMeGjS_Wj7YzR2tgw91JphhBewNXCSC5j=w408-h306-k-no
