areatype,index,name,address,phone_number,average_rating,latitude,longitude,business_hours,image_url
3,1,천리집,"127 Sinseongnam-ro, Yuseong District, Daejeon",0428643880,4.3,36.3918008,127.3511833,"['Sunday, 6:30\u202fAM to 9:30\u202fPM', 'Monday, 6:30\u202fAM to 10\u202fPM', 'Tuesday, 6:30\u202fAM to 10\u202fPM', 'Wednesday, 6:30\u202fAM to 10\u202fPM', 'Thursday, 6:30\u202fAM to 10\u202fPM', 'Friday, 6:30\u202fAM to 10\u202fPM', 'Saturday, 6:30\u202fAM to 9:30\u202fPM.']",https://lh5.googleusercontent.com/p/AF1QipNzC_mrPGZtcEA7Oi17MdSpMnFG74vKackeGt5I=w408-h408-k-no
3,2,삼대째전통칼국수,"30-23 Jeong-dong, Dong-gu, Daejeon",0422575432,4.3,36.3325596,127.430887,"['Sunday, 9\u202fAM to 8:30\u202fPM', 'Monday, 9\u202fAM to 8:30\u202fPM', 'Tuesday, 9\u202fAM to 8:30\u202fPM', 'Wednesday, 9\u202fAM to 8:30\u202fPM', 'Thursday, 9\u202fAM to 8:30\u202fPM', 'Friday, 9\u202fAM to 8:30\u202fPM', 'Saturday, 9\u202fAM to 8:30\u202fPM.']",https://lh5.googleusercontent.com/p/AF1QipN_zyqtJer0GsuarsakOhToAQgjukoGurtzBitq=w427-h240-k-no
3,3,칼국수만드는사람들,"20 Dunsanjung-ro 78beon-gil, Seo-gu, Daejeon",0424778254,4.0,36.353245,127.3879357,"['Sunday, 11:30\u202fAM to 9:30\u202fPM', 'Monday, 11:30\u202fAM to 9:30\u202fPM', 'Tuesday, 11:30\u202fAM to 9:30\u202fPM', 'Wednesday, 11:30\u202fAM to 9:30\u202fPM', 'Thursday, 11:30\u202fAM to 9:30\u202fPM', 'Friday, 11:30\u202fAM to 9:30\u202fPM', 'Saturday, 11:30\u202fAM to 9:30\u202fPM.']",https://lh5.googleusercontent.com/p/AF1QipN5QRIKHyrt6TkMWXfIYGwGUWs8Pv_dj8k0lsoT=w408-h306-k-no
3,4,Moru Brunch Cafe Dunsan,"1202 Dunsan-dong, Seo-gu, Daejeon",0424862201,4.1,36.3494312,127.3781978,"['Sunday, 10:30\u202fAM to 3:30\u202fPM, 6 to 10:30\u202fPM', 'Monday, Closed', 'Tuesday, 10:30\u202fAM to 3:30\u202fPM, 6 to 10:30\u202fPM', 'Wednesday, 10:30\u202fAM to 3:30\u202fPM, 6 to 10:30\u202fPM', 'Thursday, 10:30\u202fAM to 3:30\u202fPM', 'Friday, 10:30\u202fAM to 3:30\u202fPM, 6 to 10:30\u202fPM', 'Saturday, 10:30\u202fAM to 3:30\u202fPM, 6 to 10:30\u202fPM.']",https://lh5.googleusercontent.com/p/AF1QipOQM1EqcMjem5thyzMDjJO4Dz2vlyPHGN3A-Rm7=w426-h240-k-no
3,5,Magjangjib,"367-17번지 Seonhwa-dong, Jung-gu, Daejeon",No Phone Number,4.0,36.3280573,127.4181193,"['Sunday, 11\u202fAM to 9\u202fPM', 'Monday, 4 to 9\u202fPM', 'Tuesday, 11\u202fAM to 9\u202fPM', 'Wednesday, 11\u202fAM to 9\u202fPM', 'Thursday, 11\u202fAM to 9\u202fPM', 'Friday, 11\u202fAM to 9\u202fPM', 'Saturday, 11\u202fAM to 9\u202fPM.']",https://lh5.googleusercontent.com/p/AF1QipMTM5j892J_yAF2as1JwABjqMvKjanC23OnAPNp=w408-h306-k-no
3,6,월산본가,"181-10 Daeheung-dong, Jung-gu, Daejeon",0422564100,3.8,36.3252768,127.4274882,"['Sunday, 11:30\u202fAM to 9\u202fPM', 'Monday, 11:30\u202fAM to 10\u202fPM', 'Tuesday, 11:30\u202fAM to 10\u202fPM', 'Wednesday, 11:30\u202fAM to 10\u202fPM', 'Thursday, 11:30\u202fAM to 10\u202fPM', 'Friday, 11:30\u202fAM to 10\u202fPM', 'Saturday, 11:30\u202fAM to 10\u202fPM.']",https://lh5.googleusercontent.com/p/AF1QipM8LYTR_HQT6JgLd9FhyXbG0wdb-afI1t7X2yAa=w426-h240-k-no
3,7,한가네닭발집,"26 Jungang-ro 121beon-gil, Jung-gu, Daejeon",0422559340,3.5,36.3289672,127.422905,"['Saturday, 12 to 6\u202fAM, 4\u202fPM to 12\u202fAM', 'Sunday, 12 to 6\u202fAM, 4\u202fPM to 12\u202fAM', 'Monday, 12 to 6\u202fAM, 4\u202fPM to 12\u202fAM', 'Tuesday, 12 to 6\u202fAM, 4\u202fPM to 12\u202fAM', 'Wednesday, 12 to 6\u202fAM, 4\u202fPM to 12\u202fAM', 'Thursday, 12 to 6\u202fAM, 4\u202fPM to 12\u202fAM', 'Friday, 12 to 6\u202fAM, 4\u202fPM to 12\u202fAM.']",https://lh5.googleusercontent.com/p/AF1QipP7wKUHLIBmiSgHZZRXUss1_XAM_dqxgo1OufkF=w426-h240-k-no
3,8,스시호산,"Daejeon, Seo-gu, Daedeok-daero, 366 해가든센트럴파크 1층",0424820053,4.8,36.3654656,127.3800195,"['Sunday, Closed', 'Monday, Closed', 'Tuesday, 7 to 10\u202fPM', 'Wednesday, 7 to 10\u202fPM', 'Thursday, 7 to 10\u202fPM', 'Friday, Closed', 'Saturday, Closed.']",https://lh5.googleusercontent.com/p/AF1QipP_7eAFebwUN-4ypbD6sPvrBRwlf5kNxJyi6gux=w408-h408-k-no
3,9,Langman,"22-28 Wondoan-ro 179beon-gil, Seo-gu, Daejeon",01024676113,4.3,36.320597,127.3428304,"['Sunday, 11\u202fAM to 9\u202fPM', 'Monday, 11\u202fAM to 9\u202fPM', 'Tuesday, Closed', 'Wednesday, 11\u202fAM to 9\u202fPM', 'Thursday, 11\u202fAM to 9\u202fPM', 'Friday, 11\u202fAM to 9\u202fPM', 'Saturday, 11\u202fAM to 9\u202fPM.']",https://lh5.googleusercontent.com/p/AF1QipNNpHCxelbNdjAoSkF4AerugLW74Qzg7xDUceI=w408-h544-k-no
3,10,Meshihosan,"3-1 Doryong-dong, Yuseong District, Daejeon",No Phone Number,4.3,36.3747806,127.3806864,"['Sunday, 11:30\u202fAM to 9:30\u202fPM', 'Monday, 11:30\u202fAM to 9:30\u202fPM', 'Tuesday, 11:30\u202fAM to 9:30\u202fPM', 'Wednesday, 11:30\u202fAM to 9:30\u202fPM', 'Thursday, 11:30\u202fAM to 9:30\u202fPM', 'Friday, 11:30\u202fAM to 9:30\u202fPM', 'Saturday, 11:30\u202fAM to 9:30\u202fPM.']",https://lh5.googleusercontent.com/p/AF1QipPwbv-rEcnYGYhtaCmWfdrrqJwddmv1LIFNk0O6=w408-h306-k-no
3,11,와타요업,"9-8 Galmayeok-ro 25beon-gil, Seo-gu, Daejeon",01047923220,4.4,36.3525827,127.3734357,"['Sunday, 12 to 2:30\u202fPM, 5:30 to 8:30\u202fPM', 'Monday, 12:30 to 2:30\u202fPM, 5:30 to 8:30\u202fPM', 'Tuesday, 12 to 2:30\u202fPM, 5:30 to 8:30\u202fPM', 'Wednesday, 12 to 2:30\u202fPM, 5:30 to 8:30\u202fPM', 'Thursday, 12 to 2:30\u202fPM, 5:30 to 8:30\u202fPM', 'Friday, 12 to 2:30\u202fPM, 5:30 to 8:30\u202fPM', 'Saturday, 12 to 2:30\u202fPM, 5:30 to 8:30\u202fPM.']",https://lh5.googleusercontent.com/p/AF1QipNbPNK_pGHAbHpA3BFa22IQOCdm2BfeIkVKzWPd=w426-h240-k-no
3,12,정성을다하는베이커리,"1619 Gyebaek-ro, Jung-gu, Daejeon",0425231579,4.8,36.3191346,127.3996052,"['Sunday, 7\u202fAM to 11\u202fPM', 'Monday, 7\u202fAM to 11\u202fPM', 'Tuesday, 7\u202fAM to 11\u202fPM', 'Wednesday, 7\u202fAM to 11\u202fPM', 'Thursday, 7\u202fAM to 11\u202fPM', 'Friday, 7\u202fAM to 11\u202fPM', 'Saturday, 7\u202fAM to 11\u202fPM.']",https://lh5.googleusercontent.com/p/AF1QipP2QT9TzuktH4WGi6hPUrWJQMMdbhJTG92tb4v9=w408-h306-k-no
3,13,한밭칼국수,"22-1 Eunhaeng-dong, Jung-gu, Daejeon",0422549350,4.4,36.3311111,127.4236111,"['Sunday, 11\u202fAM to 8\u202fPM', 'Monday, 11\u202fAM to 8\u202fPM', 'Tuesday, 11\u202fAM to 8\u202fPM', 'Wednesday, 11\u202fAM to 8\u202fPM', 'Thursday, 11\u202fAM to 8\u202fPM', 'Friday, 11\u202fAM to 8\u202fPM', 'Saturday, 11\u202fAM to 8\u202fPM.']",https://lh5.googleusercontent.com/p/AF1QipMAduT79HRaiuIJYCXoEWWC8gzA7RwmnTJlv44=w408-h306-k-no
3,14,Hansala,"21-9 Songchonbuk-ro 20beon-gil, Songchon-dong, Daedeok-gu, Daejeon",01092418469,4.3,36.3647694,127.43757,['No Business Hours Available'],https://lh5.googleusercontent.com/p/AF1QipNHw8RtvRehyY9OOpeXas475kj3muDtOhWQMn5-=w426-h240-k-no
3,15,갈마짬뽕,"1468 Galma-dong, Seo-gu, Daejeon",0424829136,4.2,36.3553054,127.3683731,"['Sunday, 10:30\u202fAM to 3\u202fPM', 'Monday, Closed', 'Tuesday, 10:30\u202fAM to 3\u202fPM', 'Wednesday, 10:30\u202fAM to 3\u202fPM', 'Thursday, 10:30\u202fAM to 3\u202fPM', 'Friday, 10:30\u202fAM to 3\u202fPM', 'Saturday, 10:30\u202fAM to 3\u202fPM.']",https://lh5.googleusercontent.com/p/AF1QipN2LBDhbYTuWZLwPG1iSYlGJ5gGP_GuJTHhQTkZ=w513-h240-k-no
3,16,함초양념갈비,Daejeon,0426241184,3.6,36.3570231,127.4331257,"['Sunday, 11\u202fAM to 10\u202fPM', 'Monday, 11\u202fAM to 10\u202fPM', 'Tuesday, 11\u202fAM to 10\u202fPM', 'Wednesday, 11\u202fAM to 10\u202fPM', 'Thursday, 11\u202fAM to 10\u202fPM', 'Friday, 11\u202fAM to 10\u202fPM', 'Saturday, 11\u202fAM to 10\u202fPM.']",https://lh5.googleusercontent.com/p/AF1QipNcGB8wdiTLgo8xBj00nABgaSUfQi7DaCIuW1dc=w493-h240-k-no
3,17,Jugam,"855 Galma-dong, Seo-gu, Daejeon",No Phone Number,4.8,36.3520121,127.3729765,"['Sunday, 5\u202fPM to 12\u202fAM', 'Monday, 5\u202fPM to 12\u202fAM', 'Tuesday, 5\u202fPM to 12\u202fAM', 'Wednesday, 5\u202fPM to 12\u202fAM', 'Thursday, 5\u202fPM to 12\u202fAM', 'Friday, 5\u202fPM to 12\u202fAM', 'Saturday, 5\u202fPM to 12\u202fAM.']",https://lh5.googleusercontent.com/p/AF1QipNBSUZ4h-V4mHxE1AEgH56XY9m-CI21vQx0ZC2x=w408-h408-k-no
3,18,Sungsimdang Bakery Daejeon Station Branch,"Daejeon, Dong-gu, Jungang-ro, 215 대전역사 2F",0422204138,4.3,36.3321453,127.4338407,"['Sunday, 7\u202fAM to 10:30\u202fPM', 'Monday, 7\u202fAM to 10:30\u202fPM', 'Tuesday, 7\u202fAM to 10:30\u202fPM', 'Wednesday, 7\u202fAM to 10:30\u202fPM', 'Thursday, 7\u202fAM to 10:30\u202fPM', 'Friday, 7\u202fAM to 10:30\u202fPM', 'Saturday, 7\u202fAM to 10:30\u202fPM.']",https://lh5.googleusercontent.com/p/AF1QipMh-DLQ8_VTU4f6NG6KIJ47u33rbfeZkaEgOcm9=w408-h306-k-no
3,19,Oh munchang's Sundae-gukbap,"1153 Hanbat-daero, 중리동 Daedeok-gu, Daejeon",0426214325,4.2,36.3592139,127.4266165,"['Sunday, Open 24 hours', 'Monday, Open 24 hours', 'Tuesday, Open 24 hours', 'Wednesday, Open 24 hours', 'Thursday, Open 24 hours', 'Friday, Open 24 hours', 'Saturday, Open 24 hours.']",https://lh5.googleusercontent.com/p/AF1QipPhJsre8wtqwADIRwvFSftKcP-i7-UYIzx9XQXS=w408-h544-k-no
3,20,Laluche,"1392 Gyeryongdae-ro, Banpo-myeon, Gongju-si, Chungcheongnam-do",0425850116,4.4,36.3597707,127.2527458,"['Sunday, 11\u202fAM to 10\u202fPM', 'Monday, 11\u202fAM to 10\u202fPM', 'Tuesday, 11\u202fAM to 10\u202fPM', 'Wednesday, 11\u202fAM to 10\u202fPM', 'Thursday, 11\u202fAM to 10\u202fPM', 'Friday, 11\u202fAM to 10\u202fPM', 'Saturday, 11\u202fAM to 10\u202fPM.']",https://lh5.googleusercontent.com/p/AF1QipPzm8UhDWMxAE3JIWqjQWbBRlk2l5lX9z40IxOJ=w408-h544-k-no
3,21,복수분식본점,"104-12 Daesa-dong, Jung-gu, Daejeon",No Phone Number,4.0,36.317956,127.4263018,['No Business Hours Available'],https://lh5.googleusercontent.com/p/AF1QipP0AZstkHv_A85N5nakP29TBeQf-hawpUN0_Gw=w408-h306-k-no
3,22,Interview Coffee,"25-3 Hanbat-daero 371beon-gil, Yuseong District, Daejeon",0428233712,4.3,36.3645845,127.3412946,"['Sunday, 11\u202fAM to 10\u202fPM', 'Monday, 11\u202fAM to 10\u202fPM', 'Tuesday, 11\u202fAM to 10\u202fPM', 'Wednesday, 11\u202fAM to 10\u202fPM', 'Thursday, 11\u202fAM to 10\u202fPM', 'Friday, 11\u202fAM to 10\u202fPM', 'Saturday, 11\u202fAM to 10\u202fPM.']",https://lh5.googleusercontent.com/p/AF1QipMsUfE5qVXaNyHJxbi1WO69dyBX6hdrX8hdGiug=w426-h240-k-no
3,23,옥천가,"166-7 Oryu-dong, Jung-gu, Daejeon",0425325658,3.7,36.3220546,127.4069903,"['Sunday, 11:30\u202fAM to 10\u202fPM', 'Monday, 11:30\u202fAM to 10\u202fPM', 'Tuesday, 11:30\u202fAM to 10\u202fPM', 'Wednesday, 11:30\u202fAM to 10\u202fPM', 'Thursday, 11:30\u202fAM to 10\u202fPM', 'Friday, 11:30\u202fAM to 10\u202fPM', 'Saturday, 11:30\u202fAM to 10\u202fPM.']",https://lh5.googleusercontent.com/p/AF1QipNY1ygcuDLlCy1ggKtkHggMvxadcxScxpAw7wOn=w532-h240-k-no
3,24,아마레 (AMARE),번지 D 동 KR 대전광역시 유성구 도룡동 4-9 도룡하우스디어반 상가 D118호 아마레,07042335135,4.5,36.3759479,127.3956718,"['Sunday, 11:30\u202fAM to 9:30\u202fPM', 'Monday, 11:30\u202fAM to 9:30\u202fPM', 'Tuesday, Closed', 'Wednesday, 11:30\u202fAM to 9:30\u202fPM', 'Thursday, 11:30\u202fAM to 9:30\u202fPM', 'Friday, 11:30\u202fAM to 9:30\u202fPM', 'Saturday, 11:30\u202fAM to 9:30\u202fPM.']",https://lh5.googleusercontent.com/p/AF1QipMF8MfTA0muCdgj9tUnqpm_wyTe0zwzBlFHvj4h=w408-h544-k-no
3,25,Nuovo Napoli,"15 Nongdae-ro, Yuseong District, Daejeon",0423229582,4.2,36.3619529,127.3530053,"['Sunday, 11:30\u202fAM to 4\u202fPM, 5 to 10\u202fPM', 'Monday, Closed', 'Tuesday, Closed', 'Wednesday, 11:30\u202fAM to 3\u202fPM, 5 to 10\u202fPM', 'Thursday, 11:30\u202fAM to 3\u202fPM, 5 to 10\u202fPM', 'Friday, 11:30\u202fAM to 3\u202fPM, 5 to 10\u202fPM', 'Saturday, 11:30\u202fAM to 4\u202fPM, 5 to 10\u202fPM.']",https://lh5.googleusercontent.com/p/AF1QipMBLW84B_nqPq3Wp4iQl4BCzt8jF-CMPAxirjQ=w408-h408-k-no
3,26,설해돈,"36 Daedeok-daero 233beon-gil, Seo-gu, Daejeon",0424841119,3.6,36.3536615,127.3772659,"['Sunday, 11:30\u202fAM to 10\u202fPM', 'Monday, 11:30\u202fAM to 10\u202fPM', 'Tuesday, 11:30\u202fAM to 10\u202fPM', 'Wednesday, 11:30\u202fAM to 10\u202fPM', 'Thursday, 11:30\u202fAM to 10\u202fPM', 'Friday, 11:30\u202fAM to 10\u202fPM', 'Saturday, 11:30\u202fAM to 10\u202fPM.']",https://lh5.googleusercontent.com/p/AF1QipNezhc2ZdXbbSeP0i6iULsdiYtXy5J5u-h5TzW9=w408-h306-k-no
3,27,온유네닭매운탕,"2115 Dunsan-dong, Seo-gu, Daejeon",0422559585,4.2,36.3493912,127.3985888,"['Sunday, Closed', 'Monday, 5 to 10\u202fPM', 'Tuesday, 5 to 10\u202fPM', 'Wednesday, 5 to 10\u202fPM', 'Thursday, 5 to 10\u202fPM', 'Friday, 5 to 10\u202fPM', 'Saturday, 5 to 10\u202fPM.']",https://lh5.googleusercontent.com/p/AF1QipOVcqUuvs-BaZhR0H6_UE7t0F9vfzrlI1E3jen1=w532-h240-k-no
3,28,토박이식당,Daejeon,0422523470,4.0,36.327527,127.427933,"['Sunday, 10:30\u202fAM to 10\u202fPM', 'Monday, 10:30\u202fAM to 10\u202fPM', 'Tuesday, Closed', 'Wednesday, 10:30\u202fAM to 10\u202fPM', 'Thursday, 10:30\u202fAM to 10\u202fPM', 'Friday, 10:30\u202fAM to 10\u202fPM', 'Saturday, 10:30\u202fAM to 10\u202fPM.']",https://lh5.googleusercontent.com/p/AF1QipOJzs6tqCuLfcXZL5KN0F5jeD-rijfN3ScNAKs=w493-h240-k-no
3,29,Le-Pain 99-1,"650 Bongmyeong-dong, Yuseong District, Daejeon",0428269914,4.2,36.3579086,127.3472463,"['Sunday, 8\u202fAM to 10\u202fPM', 'Monday, 8\u202fAM to 10\u202fPM', 'Tuesday, 8\u202fAM to 10\u202fPM', 'Wednesday, 8\u202fAM to 10\u202fPM', 'Thursday, 8\u202fAM to 10\u202fPM', 'Friday, 8\u202fAM to 10\u202fPM', 'Saturday, 8\u202fAM to 10\u202fPM.']",https://lh5.googleusercontent.com/p/AF1QipP3_piLudl6WQr6cjA1F454N3jrOlMC-J2kgR2F=w426-h240-k-no
3,30,Sutgol Won Naengmyeon,"18 Sinseong-ro 84beon-gil, Yuseong District, Daejeon",0428613287,4.0,36.3900713,127.3503625,"['Sunday, 11\u202fAM to 8\u202fPM', 'Monday, 11\u202fAM to 8\u202fPM', 'Tuesday, 11\u202fAM to 8\u202fPM', 'Wednesday, 11\u202fAM to 8\u202fPM', 'Thursday, 11\u202fAM to 8\u202fPM', 'Friday, 11\u202fAM to 8\u202fPM', 'Saturday, 11\u202fAM to 8\u202fPM.']",https://lh5.googleusercontent.com/p/AF1QipPox2JC4rAKJWPXhmemYRyQuKrYVQfKR5BpBHc-=w408-h306-k-no
3,31,형제집,"34 Daeheung-ro 175beon-gil, Daeheung-dong, Jung-gu, Daejeon",0422566474,3.5,36.3267356,127.4305623,"['Sunday, Closed', 'Monday, 11:30\u202fAM to 4\u202fPM, 5:10 to 9\u202fPM', 'Tuesday, 11:30\u202fAM to 4\u202fPM, 5:10 to 9\u202fPM', 'Wednesday, 11:30\u202fAM to 4\u202fPM, 5:10 to 9\u202fPM', 'Thursday, 11:30\u202fAM to 4\u202fPM, 5:10 to 9\u202fPM', 'Friday, 11:30\u202fAM to 4\u202fPM, 5:10 to 9\u202fPM', 'Saturday, 11:30\u202fAM to 4\u202fPM, 5:10 to 9\u202fPM.']",https://lh5.googleusercontent.com/p/AF1QipNB4_9HvaTBkOO02jHYBS29l_N6wIebjZ5hjudQ=w408-h307-k-no
3,32,Sariwon Head Branch,"Daejeon, Seo-gu, Dunsan-ro 31beon-gil, 77 2층",0424874209,3.9,36.3552365,127.3773662,"['Sunday, 10\u202fAM to 10\u202fPM', 'Monday, 10\u202fAM to 10\u202fPM', 'Tuesday, 10\u202fAM to 10\u202fPM', 'Wednesday, 10\u202fAM to 10\u202fPM', 'Thursday, 10\u202fAM to 10\u202fPM', 'Friday, 10\u202fAM to 10\u202fPM', 'Saturday, 10\u202fAM to 10\u202fPM.']",https://lh5.googleusercontent.com/p/AF1QipNoNtqsv-FYGQPHBfJK8hJxaN_lrGjjeS48nAUB=w408-h306-k-no
3,33,Piatto,"144-1 Eunhaeng-dong, Jung-gu, Daejeon",0422237004,4.3,36.3278043,127.4274048,"['Sunday, 11\u202fAM to 10\u202fPM', 'Monday, 11\u202fAM to 10\u202fPM', 'Tuesday, 11\u202fAM to 10\u202fPM', 'Wednesday, 11\u202fAM to 10\u202fPM', 'Thursday, 11\u202fAM to 10\u202fPM', 'Friday, 11\u202fAM to 10\u202fPM', 'Saturday, 11\u202fAM to 10\u202fPM.']",https://lh5.googleusercontent.com/p/AF1QipPqOqCKhMddZZgg0CuUKW7PcKxiaErYnuwLBPzL=w408-h306-k-no
3,34,Sulin,"397-1 Doryong-dong, Yuseong District, Daejeon",0428679200,4.5,36.3842253,127.3788806,"['Sunday, Closed', 'Monday, 11\u202fAM to 10\u202fPM', 'Tuesday, 11\u202fAM to 10\u202fPM', 'Wednesday, 11\u202fAM to 10\u202fPM', 'Thursday, 11\u202fAM to 10\u202fPM', 'Friday, 11\u202fAM to 10\u202fPM', 'Saturday, 11\u202fAM to 10\u202fPM.']",https://lh5.googleusercontent.com/p/AF1QipNqpZ2yIyViBmc1QXi6MoMuUacOLchEfF_gfbar=w408-h306-k-no
3,35,Wangwan Sikdang,"6 Seonhwa-ro 196beon-gil, Dong-gu, Daejeon",0422211663,4.1,36.3335975,127.4275715,"['Sunday, Closed', 'Monday, 12 to 2\u202fPM', 'Tuesday, 12 to 2\u202fPM', 'Wednesday, 12 to 2\u202fPM', 'Thursday, 12 to 2\u202fPM', 'Friday, 12 to 2\u202fPM', 'Saturday, 12 to 2\u202fPM.']",https://lh5.googleusercontent.com/p/AF1QipMkfjis1VHRf7ArUmsa_-fV8iARr1vcnALygtVq=w408-h306-k-no
3,36,미미삼겹,"641-11 Bongmyeong-dong, Yuseong District, Daejeon",0428259793,4.5,36.3586631,127.3474709,['No Business Hours Available'],https://lh5.googleusercontent.com/p/AF1QipNhZCq5LWBDxJwqoP0IVOcEniyMXOJ_ZwEiu7lj=w408-h306-k-no
3,37,Mongtteu,"257번길 48 Wondoan-ro, Seo-gu, Daejeon",0425422900,4.3,36.3266946,127.3475573,"['Sunday, 10\u202fAM to 10\u202fPM', 'Monday, Closed', 'Tuesday, 10\u202fAM to 10\u202fPM', 'Wednesday, 10\u202fAM to 10\u202fPM', 'Thursday, 10\u202fAM to 10\u202fPM', 'Friday, 10\u202fAM to 10\u202fPM', 'Saturday, 10\u202fAM to 10\u202fPM.']",https://lh5.googleusercontent.com/p/AF1QipPkCjBNYhC58fXIxqGvVxVotKTn4AmBwVmR4lcK=w408-h306-k-no
3,38,금성삼계탕,"32-14 Jung-dong, Dong-gu, Daejeon",0422543422,3.9,36.332111,127.4287488,"['Sunday, 10:30\u202fAM to 9:30\u202fPM', 'Monday, 10:30\u202fAM to 9:30\u202fPM', 'Tuesday, 10:30\u202fAM to 9:30\u202fPM', 'Wednesday, 10:30\u202fAM to 9:30\u202fPM', 'Thursday, 10:30\u202fAM to 9:30\u202fPM', 'Friday, 10:30\u202fAM to 9:30\u202fPM', 'Saturday, 10:30\u202fAM to 9:30\u202fPM.']",https://lh5.googleusercontent.com/p/AF1QipNFuHw0ELW2Tb-Xe6Sk-uxTZEP6GkhbZwCXQhUs=w408-h306-k-no
3,39,부산식당,"34 Yuseong-daero 730beon-gil, Jangdae-dong, Yuseong District, Daejeon",0428222618,4.1,36.3576079,127.3341376,"['Sunday, 11\u202fAM to 10\u202fPM', 'Monday, 11\u202fAM to 10\u202fPM', 'Tuesday, 11\u202fAM to 10\u202fPM', 'Wednesday, 11\u202fAM to 10\u202fPM', 'Thursday, 11\u202fAM to 10\u202fPM', 'Friday, 11\u202fAM to 10\u202fPM', 'Saturday, 11\u202fAM to 10\u202fPM.']",https://lh5.googleusercontent.com/p/AF1QipPRNDsLyQw7v6bIrBXpRmBIA7BM-rHDIlMdiaPW=w408-h272-k-no
3,40,소나무집,"2-7 Daeheung-dong, Jung-gu, Daejeon",0422561464,4.0,36.3269444,127.4305556,"['Sunday, 11:30\u202fAM to 9\u202fPM', 'Monday, 11:30\u202fAM to 9\u202fPM', 'Tuesday, 11:30\u202fAM to 9\u202fPM', 'Wednesday, 11:30\u202fAM to 9\u202fPM', 'Thursday, 11:30\u202fAM to 9\u202fPM', 'Friday, 11:30\u202fAM to 9\u202fPM', 'Saturday, 11:30\u202fAM to 9\u202fPM.']",https://lh5.googleusercontent.com/p/AF1QipOoIv-rdUtIkEtijzjKxM3neTOvrDe4g-S5sAvV=w408-h306-k-no
3,41,바다횟집,"8 Hanbat-daero 1003beon-gil, Daedeok-gu, Daejeon",0426281022,4.0,36.3585172,127.4098709,"['Sunday, Closed', 'Monday, 5 to 10\u202fPM', 'Tuesday, 5 to 10\u202fPM', 'Wednesday, 5 to 10\u202fPM', 'Thursday, 5 to 10\u202fPM', 'Friday, 5 to 10\u202fPM', 'Saturday, 12 to 10\u202fPM.']",https://lh5.googleusercontent.com/p/AF1QipM2sD78ykhnaPhL3QinPzpBpSXbuKPYJwOsJ0Dx=w408-h408-k-no
3,42,내집식당,"42 Daeheung-ro 121beon-gil, Daeheung-dong, Jung-gu, Daejeon",0422235083,4.3,36.325248,127.4249965,"['Sunday, Closed', 'Monday, 10\u202fAM to 10\u202fPM', 'Tuesday, 10\u202fAM to 10\u202fPM', 'Wednesday, 10\u202fAM to 10\u202fPM', 'Thursday, 10\u202fAM to 10\u202fPM', 'Friday, 10\u202fAM to 10\u202fPM', 'Saturday, 10\u202fAM to 10\u202fPM.']",https://lh5.googleusercontent.com/p/AF1QipP_rORxFzhjCT-SalgW1Mur4GuXnMF9um9eSSOr=w408-h306-k-no
3,43,원조황소집,"25 Daejong-ro 460beon-gil, Jung-gu, Daejeon",0422567923,4.0,36.3263343,127.4288514,"['Sunday, 11:30\u202fAM to 1\u202fAM', 'Monday, 11:30\u202fAM to 1\u202fAM', 'Tuesday, 11:30\u202fAM to 1\u202fAM', 'Wednesday, 11:30\u202fAM to 1\u202fAM', 'Thursday, 11:30\u202fAM to 1\u202fAM', 'Friday, 11:30\u202fAM to 1\u202fAM', 'Saturday, 11:30\u202fAM to 1\u202fAM.']",https://lh5.googleusercontent.com/p/AF1QipPrjMFW6sOaxPTrLicKlgUy7Q6c-4mVzd2DEWX2=w408-h306-k-no
3,44,Doodoodang,"234 Daecheong-ro, Yongho-dong, Daedeok-gu, Daejeon",0429331942,4.1,36.448219,127.4507324,"['Sunday, 10:30\u202fAM to 10\u202fPM', 'Monday, 10:30\u202fAM to 10\u202fPM', 'Tuesday, 10:30\u202fAM to 10\u202fPM', 'Wednesday, 10:30\u202fAM to 10\u202fPM', 'Thursday, 10:30\u202fAM to 10\u202fPM', 'Friday, 10:30\u202fAM to 10\u202fPM', 'Saturday, 10:30\u202fAM to 10\u202fPM.']",https://lh5.googleusercontent.com/p/AF1QipP2r1SeXMYpr4eHrq1BJcNNpN5Tir3hYkM1swMX=w408-h306-k-no
3,45,Conto,"69-5 Yeonchuk-dong, Daedeok-gu, Daejeon",0424839999,4.0,36.3889241,127.4274334,"['Sunday, 10\u202fAM to 9\u202fPM', 'Monday, 10\u202fAM to 9\u202fPM', 'Tuesday, 10\u202fAM to 9\u202fPM', 'Wednesday, 10\u202fAM to 9\u202fPM', 'Thursday, 10\u202fAM to 9\u202fPM', 'Friday, 10\u202fAM to 9\u202fPM', 'Saturday, 10\u202fAM to 9\u202fPM.']",https://lh5.googleusercontent.com/p/AF1QipMyiXQxo59CpAli8f_r0IoZgeXurfqPSfMySouN=w408-h306-k-no
3,46,대복한우곱창,"760 Tanbang-dong, Seo-gu, Daejeon",0424899288,3.3,36.3460756,127.3882881,"['Sunday, 11:30\u202fAM to 9:30\u202fPM', 'Monday, 11:30\u202fAM to 9:30\u202fPM', 'Tuesday, 11:30\u202fAM to 9:30\u202fPM', 'Wednesday, 11:30\u202fAM to 9:30\u202fPM', 'Thursday, 11:30\u202fAM to 9:30\u202fPM', 'Friday, 11:30\u202fAM to 9:30\u202fPM', 'Saturday, 11:30\u202fAM to 9:30\u202fPM.']",https://lh5.googleusercontent.com/p/AF1QipN15Y5CQ9_cK25-tPIE21EpnIaSKHYpBf-N5anS=w408-h272-k-no
3,47,아저씨돈까스,"22-7 Jungang-ro 164beon-gil, Jung-gu, Daejeon",No Phone Number,4.1,36.3281523,127.4279555,"['Sunday, 11\u202fAM to 9:30\u202fPM', 'Monday, 11\u202fAM to 9:30\u202fPM', 'Tuesday, 11\u202fAM to 9:30\u202fPM', 'Wednesday, 11\u202fAM to 9:30\u202fPM', 'Thursday, 11\u202fAM to 9:30\u202fPM', 'Friday, 11\u202fAM to 9:30\u202fPM', 'Saturday, 11\u202fAM to 9:30\u202fPM.']",https://lh5.googleusercontent.com/p/AF1QipNXu4_5gTq6Gb1VrfZcyxHKJ2yDGVaGd3IGpkaN=w408-h306-k-no
3,48,Sungsimdang Terrace Kitchen,"Daejeon, Jung-gu, Daejong-ro 480beon-gil, 15 2층",0422204128,4.5,36.3277266,127.4273696,"['Sunday, 10\u202fAM to 9:30\u202fPM', 'Monday, 10\u202fAM to 9:30\u202fPM', 'Tuesday, 10\u202fAM to 9:30\u202fPM', 'Wednesday, 10\u202fAM to 9:30\u202fPM', 'Thursday, 10\u202fAM to 9:30\u202fPM', 'Friday, 10\u202fAM to 9:30\u202fPM', 'Saturday, 10\u202fAM to 9:30\u202fPM.']",https://lh5.googleusercontent.com/p/AF1QipPEFsVNqfrJyWPjfV14gpFxn4A-p1MqL8A34JtX=w408-h306-k-no
3,49,한마음냉면,"334-17 Wonnae-dong, Yuseong District, Daejeon",No Phone Number,4.3,36.2984584,127.3184991,['No Business Hours Available'],https://lh5.googleusercontent.com/p/AF1QipOy8Fg8IUfhQtL5Mb2lIWUbD43av6YuillKLg6y=w513-h240-k-no
3,50,한스브레드,"454-7 Sangdae-dong, Yuseong District, Daejeon",0422550089,4.0,36.3473497,127.3354707,"['Sunday, 7\u202fAM to 11\u202fPM', 'Monday, 7\u202fAM to 11\u202fPM', 'Tuesday, 7\u202fAM to 11\u202fPM', 'Wednesday, 7\u202fAM to 11\u202fPM', 'Thursday, 7\u202fAM to 11\u202fPM', 'Friday, 7\u202fAM to 11\u202fPM', 'Saturday, 7\u202fAM to 11\u202fPM.']",https://lh5.googleusercontent.com/p/AF1QipOtlGlDPtRMfLOfUaQI2qubTFS7hVKKZcFFMDoT=w408-h408-k-no
3,51,할매육칼두,"33 Jijokbuk-ro 66beon-gil, Yuseong District, Daejeon",0428259442,3.8,36.387927,127.3070023,"['Sunday, 11\u202fAM to 9\u202fPM', 'Monday, 11\u202fAM to 9\u202fPM', 'Tuesday, 11\u202fAM to 9\u202fPM', 'Wednesday, 11\u202fAM to 9\u202fPM', 'Thursday, 11\u202fAM to 9\u202fPM', 'Friday, 11\u202fAM to 9\u202fPM', 'Saturday, 11\u202fAM to 9\u202fPM.']",https://lh5.googleusercontent.com/p/AF1QipNLtuLcbfVYZwfgymP1Qy9XlJo5ZIstG6sYIUoq=w493-h240-k-no
3,52,여수게장백반 본점,"3 Chungmu-ro 86beon-gil, Jung-gu, Daejeon",0422558090,3.9,36.3172225,127.4269683,"['Sunday, 11\u202fAM to 9\u202fPM', 'Monday, 11\u202fAM to 9\u202fPM', 'Tuesday, 11\u202fAM to 9\u202fPM', 'Wednesday, 11\u202fAM to 9\u202fPM', 'Thursday, 11\u202fAM to 9\u202fPM', 'Friday, 11\u202fAM to 9\u202fPM', 'Saturday, 11\u202fAM to 9\u202fPM.']",https://lh5.googleusercontent.com/p/AF1QipPcxJ-EuIApIAXNSNyi4U5wLGOngzg7SJnIVUfH=w408-h306-k-no
3,53,대성콩국수,"67-36 Doma-dong, Seo-gu, Daejeon",0425334586,4.0,36.3210511,127.3775335,"['Sunday, 11:30\u202fAM to 8:30\u202fPM', 'Monday, 11:30\u202fAM to 8:30\u202fPM', 'Tuesday, 11:30\u202fAM to 8:30\u202fPM', 'Wednesday, 11:30\u202fAM to 8:30\u202fPM', 'Thursday, 11:30\u202fAM to 8:30\u202fPM', 'Friday, 11:30\u202fAM to 8:30\u202fPM', 'Saturday, 11:30\u202fAM to 8:30\u202fPM.']",https://lh5.googleusercontent.com/p/AF1QipP3EvdTLa2ZHmzZrFxyYV2Onf7Nfpa2JcksSFuc=w408-h544-k-no
3,54,Gwibin Dolsotbap,"Daejeon, Seo-gu, Mannyeon-ro 68beon-gil, 21 1층",0424883340,3.9,36.3663744,127.3805022,"['Sunday, 11\u202fAM to 8:30\u202fPM', 'Monday, 11\u202fAM to 8:30\u202fPM', 'Tuesday, 11\u202fAM to 8:30\u202fPM', 'Wednesday, 11\u202fAM to 8:30\u202fPM', 'Thursday, 11\u202fAM to 8:30\u202fPM', 'Friday, 11\u202fAM to 8:30\u202fPM', 'Saturday, 11\u202fAM to 8:30\u202fPM.']",https://lh5.googleusercontent.com/p/AF1QipOxkQ5DwECNOA6r0sDwvyDGsDlGEvcZr9c21EK2=w426-h240-k-no
3,55,백제식당,"87 Sanseo-ro 1615beon-gil, Dong-gu, Daejeon",No Phone Number,4.2,36.2906069,127.4588471,"['Sunday, 11\u202fAM to 12\u202fAM', 'Monday, 11\u202fAM to 12\u202fAM', 'Tuesday, 11\u202fAM to 12\u202fAM', 'Wednesday, 11\u202fAM to 12\u202fAM', 'Thursday, 11\u202fAM to 12\u202fAM', 'Friday, 11\u202fAM to 12\u202fAM', 'Saturday, 11\u202fAM to 12\u202fAM.']",https://lh5.googleusercontent.com/p/AF1QipNEmMow8StssiUJV7bWpVMQZiOS8OH8WWWewf5T=w426-h240-k-no
3,56,Buyeonbu,"21 Gyeryong-ro 141beon-gil, Bongmyeong-dong, Yuseong District, Daejeon",0428268008,4.1,36.353505,127.3459964,"['Sunday, 11\u202fAM to 10\u202fPM', 'Monday, 11\u202fAM to 10\u202fPM', 'Tuesday, 11\u202fAM to 10\u202fPM', 'Wednesday, 11\u202fAM to 10\u202fPM', 'Thursday, 11\u202fAM to 10\u202fPM', 'Friday, 11\u202fAM to 10\u202fPM', 'Saturday, 11\u202fAM to 10\u202fPM.']",https://lh5.googleusercontent.com/p/AF1QipM7cQSqMvpBOyb21k3aI6e3flySvMKwIt-D7niM=w426-h240-k-no
3,57,진로집,"45-5 Junggyo-ro, Daeheung-dong, Jung-gu, Daejeon",0422260914,3.8,36.3258519,127.4246713,"['Sunday, 11:30\u202fAM to 10\u202fPM', 'Monday, 11:30\u202fAM to 10\u202fPM', 'Tuesday, 11:30\u202fAM to 10\u202fPM', 'Wednesday, 11:30\u202fAM to 10\u202fPM', 'Thursday, 11:30\u202fAM to 10\u202fPM', 'Friday, 11:30\u202fAM to 10\u202fPM', 'Saturday, 11:30\u202fAM to 10\u202fPM.']",https://lh5.googleusercontent.com/p/AF1QipOqwbPMvlNHujm4ZlBG0mAq91PyuDyhFXz2dQ8S=w408-h408-k-no
3,58,OC Kalguksu,"13 Yetsintanjin-ro, Dong-gu, Daejeon",0426279972,4.0,36.3419729,127.4250897,"['Sunday, 11\u202fAM to 9\u202fPM', 'Monday, Closed', 'Tuesday, 11\u202fAM to 9\u202fPM', 'Wednesday, 11\u202fAM to 9\u202fPM', 'Thursday, 11\u202fAM to 9\u202fPM', 'Friday, 11\u202fAM to 9\u202fPM', 'Saturday, 11\u202fAM to 9\u202fPM.']",https://lh5.googleusercontent.com/p/AF1QipPoTlqt3dvfvsCLDbZ1j8iiM2WyYcus7kqSMFfF=w408-h544-k-no
3,59,농민순대,"138 Chungmu-ro, Jung-gu, Daejeon",0422561191,4.0,36.3190874,127.4318552,"['Sunday, 8\u202fAM to 12\u202fAM', 'Monday, Closed', 'Tuesday, 8\u202fAM to 12\u202fAM', 'Wednesday, 8\u202fAM to 12\u202fAM', 'Thursday, 8\u202fAM to 12\u202fAM', 'Friday, 8\u202fAM to 12\u202fAM', 'Saturday, 8\u202fAM to 12\u202fAM.']",https://lh5.googleusercontent.com/p/AF1QipPPezsvWMESy57Zbv7aSbh3MzyZRRDfJS_aSvMO=w408-h408-k-no
3,60,Ganamji,"395-1 Doryong-dong, Yuseong District, Daejeon",0428617557,4.2,36.3855265,127.3787981,"['Sunday, Closed', 'Monday, 11:30\u202fAM to 3\u202fPM, 4 to 9\u202fPM', 'Tuesday, 11:30\u202fAM to 3\u202fPM, 4 to 9\u202fPM', 'Wednesday, 11:30\u202fAM to 3\u202fPM, 4 to 9\u202fPM', 'Thursday, 11:30\u202fAM to 3\u202fPM, 4 to 9\u202fPM', 'Friday, 11:30\u202fAM to 3\u202fPM, 4 to 9\u202fPM', 'Saturday, 11:30\u202fAM to 3\u202fPM, 4 to 9\u202fPM.']",https://lh5.googleusercontent.com/p/AF1QipNIybayVJYggwHSD_-VH3R1UsiQhG5HrUuaHhP5=w408-h544-k-no
3,61,흑룡산촌두부,"181-1 Deongmyeong-dong, Yuseong District, Daejeon",0428240515,4.0,36.3471885,127.2919451,"['Sunday, 11\u202fAM to 8:30\u202fPM', 'Monday, 11\u202fAM to 8:30\u202fPM', 'Tuesday, 11\u202fAM to 8:30\u202fPM', 'Wednesday, 11\u202fAM to 8:30\u202fPM', 'Thursday, 11\u202fAM to 8:30\u202fPM', 'Friday, 11\u202fAM to 8:30\u202fPM', 'Saturday, 11\u202fAM to 8:30\u202fPM.']",https://lh5.googleusercontent.com/p/AF1QipN4ejdDMyx8esJFqD1nUq2C4WJ4g8x6XD2eHi2_=w493-h240-k-no
3,62,부추해물칼국수,"139-24 Sintanjin-dong, Daedeok-gu, Daejeon",0429345656,4.1,36.4495293,127.431653,"['Sunday, 11\u202fAM to 9\u202fPM', 'Monday, 11\u202fAM to 9\u202fPM', 'Tuesday, 11\u202fAM to 9\u202fPM', 'Wednesday, 11\u202fAM to 9\u202fPM', 'Thursday, 11\u202fAM to 9\u202fPM', 'Friday, 11\u202fAM to 9\u202fPM', 'Saturday, 11\u202fAM to 9\u202fPM.']",https://lh5.googleusercontent.com/p/AF1QipOZA32_HFNwxPYJx-Yv8KIlQ-zFawAPEJq059Xa=w408-h544-k-no
3,63,AIRSANN,"Chungcheongnam-do, Gongju-si, Banpo-myeon, Hakbong-ri, 927 KR",No Phone Number,4.1,36.3660445,127.2516406,"['Sunday, 10\u202fAM to 11\u202fPM', 'Monday, 10\u202fAM to 11\u202fPM', 'Tuesday, 10\u202fAM to 11\u202fPM', 'Wednesday, 10\u202fAM to 11\u202fPM', 'Thursday, 10\u202fAM to 11\u202fPM', 'Friday, 10\u202fAM to 11\u202fPM', 'Saturday, 10\u202fAM to 11\u202fPM.']",https://lh5.googleusercontent.com/p/AF1QipNwp17tu4LPEsDtGz9X_lR-gFmgj-GKZBeBGSiC=w408-h544-k-no
3,64,O.Gan Teri Cafe and Dessert,"9 Sutonggol-ro, Yuseong District, Daejeon",050713252102,4.1,36.3453452,127.2937664,"['Sunday, 11\u202fAM to 10\u202fPM', 'Monday, 11\u202fAM to 10\u202fPM', 'Tuesday, 11\u202fAM to 10\u202fPM', 'Wednesday, 11\u202fAM to 10\u202fPM', 'Thursday, 11\u202fAM to 10\u202fPM', 'Friday, 11\u202fAM to 10\u202fPM', 'Saturday, 11\u202fAM to 10\u202fPM.']",https://lh5.googleusercontent.com/p/AF1QipMr7-a9MeZ1ue5Ntm8wQmJSQBdWpQFL66JnNRs=w426-h240-k-no
3,65,라차우,"516-12 Noeun-dong, Yuseong District, Daejeon",0428232888,4.2,36.3674087,127.31572,"['Sunday, 11:30\u202fAM to 9:30\u202fPM', 'Monday, 11:30\u202fAM to 9:30\u202fPM', 'Tuesday, 11:30\u202fAM to 9:30\u202fPM', 'Wednesday, 11:30\u202fAM to 9:30\u202fPM', 'Thursday, 11:30\u202fAM to 9:30\u202fPM', 'Friday, 11:30\u202fAM to 9:30\u202fPM', 'Saturday, 11:30\u202fAM to 9:30\u202fPM.']",https://lh5.googleusercontent.com/p/AF1QipNid6LHK52m0use04GZTh7ZH5mE56qQZYlaGMUc=w493-h240-k-no
3,66,봉이호떡,"460-1 Haso-dong, Dong-gu, Daejeon",0422740700,4.1,36.2001311,127.4490255,"['Sunday, 11:20\u202fAM to 10\u202fPM', 'Monday, 11:20\u202fAM to 10\u202fPM', 'Tuesday, 11:20\u202fAM to 10\u202fPM', 'Wednesday, 11:20\u202fAM to 10\u202fPM', 'Thursday, 11:20\u202fAM to 10\u202fPM', 'Friday, 11:20\u202fAM to 10\u202fPM', 'Saturday, 11:20\u202fAM to 10\u202fPM.']",https://lh5.googleusercontent.com/p/AF1QipNXpACTB2ajLgurV3OmZhx99ngYSLqcBksCvwR-=w408-h408-k-no
3,67,희락반점,"36 Seonhwa-dong, Jung-gu, Daejeon",0422528435,4.1,36.3289657,127.4235045,"['Sunday, 11:30\u202fAM to 9\u202fPM', 'Monday, 11:30\u202fAM to 9\u202fPM', 'Tuesday, 11:30\u202fAM to 9\u202fPM', 'Wednesday, 11:30\u202fAM to 9\u202fPM', 'Thursday, 11:30\u202fAM to 9\u202fPM', 'Friday, 11:30\u202fAM to 9\u202fPM', 'Saturday, 11:30\u202fAM to 9\u202fPM.']",https://lh5.googleusercontent.com/p/AF1QipNjmooaWSnnT_BJKgOer3rlT0uJhyEIdkx-eWSB=w408-h306-k-no
3,68,미소본가 스마일칼국수,"82 Bomun-ro 230beon-gil, Jung-gu, Daejeon",0422211845,4.1,36.324409,127.4271813,"['Sunday, Closed', 'Monday, 11\u202fAM to 8:20\u202fPM', 'Tuesday, 11\u202fAM to 8:20\u202fPM', 'Wednesday, 11\u202fAM to 8:20\u202fPM', 'Thursday, 11\u202fAM to 8:20\u202fPM', 'Friday, 11\u202fAM to 8:20\u202fPM', 'Saturday, 11\u202fAM to 8:20\u202fPM.']",https://lh5.googleusercontent.com/p/AF1QipM2yMooE1sU2bZSCj8X8CcsL7JIh9bLqKvTIwSt=w408-h272-k-no
3,69,괴정동공주칼국수,"32 Yongmun-ro, Seo-gu, Daejeon",0425279401,3.9,36.3395342,127.3872325,"['Sunday, 11\u202fAM to 10\u202fPM', 'Monday, 11\u202fAM to 10\u202fPM', 'Tuesday, 11\u202fAM to 10\u202fPM', 'Wednesday, 11\u202fAM to 10\u202fPM', 'Thursday, 11\u202fAM to 10\u202fPM', 'Friday, 11\u202fAM to 10\u202fPM', 'Saturday, 11\u202fAM to 10\u202fPM.']",https://lh5.googleusercontent.com/p/AF1QipPvAWNOwO0smH-e6KWqncnYUJOVpTAd04Zm2itE=w408-h306-k-no
3,70,미세노센세,"65 Gyeryong-ro 553beonan-gil, Seo-gu, Daejeon",0424820366,4.1,36.3460338,127.3888775,"['Sunday, 11\u202fAM to 3:30\u202fPM, 4:30 to 10\u202fPM', 'Monday, 11\u202fAM to 3:30\u202fPM, 4:30 to 10\u202fPM', 'Tuesday, 11\u202fAM to 3:30\u202fPM, 4:30 to 10\u202fPM', 'Wednesday, 11\u202fAM to 3:30\u202fPM, 4:30 to 10\u202fPM', 'Thursday, 11\u202fAM to 3:30\u202fPM, 4:30 to 10\u202fPM', 'Friday, 11\u202fAM to 3:30\u202fPM, 4:30 to 10\u202fPM', 'Saturday, 11\u202fAM to 3:30\u202fPM, 4:30 to 10\u202fPM.']",https://lh5.googleusercontent.com/p/AF1QipPLNKeDCuqBNwhO0KVm1rwLvRsOS61ENWS3_fB0=w408-h306-k-no
3,71,Tomiya,"14 Cheongsaseo-ro, Seo-gu, Daejeon",0424711153,4.6,36.3591406,127.3768974,"['Sunday, Closed', 'Monday, 11\u202fAM to 7:30\u202fPM', 'Tuesday, 11\u202fAM to 7:30\u202fPM', 'Wednesday, 11\u202fAM to 7:30\u202fPM', 'Thursday, 11\u202fAM to 7:30\u202fPM', 'Friday, 11\u202fAM to 7:30\u202fPM', 'Saturday, 11\u202fAM to 7:30\u202fPM.']",https://lh5.googleusercontent.com/p/AF1QipMQtEhWoD7tWklAAhmEZg_F7BoVRQTeQAoi1isO=w426-h240-k-no
3,72,Hanyeong Sikdang,"149-25 오류동 Jung-gu, Daejeon",0425332644,4.0,36.3233897,127.4107655,"['Sunday, 11\u202fAM to 9\u202fPM', 'Monday, 11\u202fAM to 9\u202fPM', 'Tuesday, 11\u202fAM to 9\u202fPM', 'Wednesday, 11\u202fAM to 9\u202fPM', 'Thursday, 11\u202fAM to 9\u202fPM', 'Friday, 11\u202fAM to 9\u202fPM', 'Saturday, 11\u202fAM to 9\u202fPM.']",https://lh5.googleusercontent.com/p/AF1QipPDy5-F6qCks2rlOU78OE4c2yCWzQe_PpC8Hi7w=w426-h240-k-no
3,73,적덕식당,"220-3 Uam-ro, Dong-gu, Daejeon",0426334293,3.8,36.3430438,127.4412254,"['Sunday, 10\u202fAM to 10\u202fPM', 'Monday, 10\u202fAM to 10\u202fPM', 'Tuesday, 10\u202fAM to 10\u202fPM', 'Wednesday, 10\u202fAM to 10\u202fPM', 'Thursday, 10\u202fAM to 10\u202fPM', 'Friday, 10\u202fAM to 10\u202fPM', 'Saturday, 10\u202fAM to 10\u202fPM.']",https://lh5.googleusercontent.com/p/AF1QipPdruWPw7OMOqf00l16dtLH-PW2BswjHBbThrRp=w408-h408-k-no
3,74,신도칼국수 본점,"11 Daejeon-ro 825beon-gil, Dong-gu, Daejeon",0422536799,3.8,36.3325597,127.431,"['Sunday, 10\u202fAM to 8\u202fPM', 'Monday, 10\u202fAM to 8\u202fPM', 'Tuesday, 10\u202fAM to 8\u202fPM', 'Wednesday, 10\u202fAM to 8\u202fPM', 'Thursday, 10\u202fAM to 8\u202fPM', 'Friday, 10\u202fAM to 8\u202fPM', 'Saturday, 10\u202fAM to 8\u202fPM.']",https://lh5.googleusercontent.com/p/AF1QipMSaX0vPn9WXmcioFyxHB_76HoyggUiVnXl5q5O=w426-h240-k-no
3,75,영화반점,"139-17 Sintanjin-dong, Daedeok-gu, Daejeon",0429314158,4.2,36.449803,127.4315863,"['Sunday, Closed', 'Monday, 11\u202fAM to 8\u202fPM', 'Tuesday, 11\u202fAM to 8\u202fPM', 'Wednesday, 11\u202fAM to 8\u202fPM', 'Thursday, 11\u202fAM to 8\u202fPM', 'Friday, 11\u202fAM to 8\u202fPM', 'Saturday, 11\u202fAM to 8\u202fPM.']",https://lh5.googleusercontent.com/p/AF1QipPvvM4Lj1TTgq03d4cIBNWC9nL6gmq0IRG06H0=w426-h240-k-no
3,76,도덕봉가든,"172-1 Deongmyeong-dong, Yuseong District, Daejeon",0428253777,3.8,36.3457094,127.2954398,"['Sunday, 11\u202fAM to 9:40\u202fPM', 'Monday, 11\u202fAM to 9:40\u202fPM', 'Tuesday, 11\u202fAM to 9:40\u202fPM', 'Wednesday, 11\u202fAM to 9:40\u202fPM', 'Thursday, 11\u202fAM to 9:40\u202fPM', 'Friday, 11\u202fAM to 9:40\u202fPM', 'Saturday, 11\u202fAM to 9:40\u202fPM.']",https://lh5.googleusercontent.com/p/AF1QipPk1drUkvmPlMjNraVqg1BAw1Ozr5gFjAiwi-DQ=w408-h306-k-no
3,77,Gaecheon Restaurant,"39-2 Daejeon-ro 779beon-gil, Dong-gu, Daejeon",0422565627,3.9,36.3285616,127.4315997,"['Sunday, 11\u202fAM to 8:30\u202fPM', 'Monday, 11\u202fAM to 8:30\u202fPM', 'Tuesday, 11\u202fAM to 8:30\u202fPM', 'Wednesday, 11\u202fAM to 8:30\u202fPM', 'Thursday, 11\u202fAM to 8:30\u202fPM', 'Friday, 11\u202fAM to 8:30\u202fPM', 'Saturday, 11\u202fAM to 8:30\u202fPM.']",https://lh5.googleusercontent.com/p/AF1QipP5ZTnDGt03skmDLfjcwuou5PCD1vcJAcydKYLA=w408-h306-k-no
3,78,찌글이짜글이본점,"149-1 Moksang-dong, Daedeok-gu, Daejeon",0429329421,4.0,36.447542,127.4104731,"['Sunday, 6\u202fAM to 11\u202fPM', 'Monday, 6\u202fAM to 11\u202fPM', 'Tuesday, 6\u202fAM to 11\u202fPM', 'Wednesday, 6\u202fAM to 11\u202fPM', 'Thursday, 6\u202fAM to 11\u202fPM', 'Friday, 6\u202fAM to 11\u202fPM', 'Saturday, 6\u202fAM to 11\u202fPM.']",https://lh5.googleusercontent.com/p/AF1QipN3PwfuXGtThqaIb0-3KPKPkcW8gzZPHHXJN-rb=w426-h240-k-no
3,79,대전갈비집,"3-16 Daeheung-dong, Jung-gu, Daejeon",0422540758,3.9,36.3265917,127.4308106,"['Sunday, 11\u202fAM to 10:30\u202fPM', 'Monday, 11\u202fAM to 10:30\u202fPM', 'Tuesday, 11\u202fAM to 10:30\u202fPM', 'Wednesday, 11\u202fAM to 10:30\u202fPM', 'Thursday, 11\u202fAM to 10:30\u202fPM', 'Friday, 11\u202fAM to 10:30\u202fPM', 'Saturday, 11\u202fAM to 10:30\u202fPM.']",https://lh5.googleusercontent.com/p/AF1QipOakl9amEEf58086KJzB9m1OQ3-n94G-AXc5Mcv=w426-h240-k-no
3,80,하이엔드미친등심,"666-5 온천1동 Yuseong District, Daejeon",No Phone Number,4.9,36.3582834,127.3524577,['No Business Hours Available'],https://lh5.googleusercontent.com/p/AF1QipOn4jWBZ-Lx3ZULRLYbiP34-pKZ8hiJYVlXcoBQ=w408-h272-k-no
3,81,한우김삿갓,"Daejeon, Yuseong District, Yuseong-daero, 1184번길 11-27 3층",0428636076,4.0,36.3949418,127.3528417,"['Sunday, 11\u202fAM to 9:30\u202fPM', 'Monday, 11\u202fAM to 9:30\u202fPM', 'Tuesday, 11\u202fAM to 9:30\u202fPM', 'Wednesday, 11\u202fAM to 9:30\u202fPM', 'Thursday, 11\u202fAM to 9:30\u202fPM', 'Friday, 11\u202fAM to 9:30\u202fPM', 'Saturday, 11\u202fAM to 9:30\u202fPM.']",https://lh5.googleusercontent.com/p/AF1QipNGlORP0j-8jpjeV5n8Ku1g8qh_yTVZSuGe57or=w408-h306-k-no
3,82,만화쉔딤섬,Daejeon,0428630015,4.4,36.3969743,127.4027164,"['Sunday, Closed', 'Monday, 11:30\u202fAM to 1:30\u202fPM, 5 to 9\u202fPM', 'Tuesday, 11:30\u202fAM to 1:30\u202fPM, 5 to 9\u202fPM', 'Wednesday, 11:30\u202fAM to 1:30\u202fPM, 5 to 9\u202fPM', 'Thursday, 11:30\u202fAM to 1:30\u202fPM, 5 to 9\u202fPM', 'Friday, 11:30\u202fAM to 1:30\u202fPM, 5 to 9\u202fPM', 'Saturday, 11:30\u202fAM to 1:30\u202fPM, 5 to 9\u202fPM.']",https://lh5.googleusercontent.com/p/AF1QipMme2oXzQPEsNqgacYRkvITApsfgzE-WOrDZcC3=w507-h240-k-no
3,83,Sungsimdang Bakery Head Store,"15 Daejong-ro 480beon-gil, Jung-gu, Daejeon",15888069,4.4,36.3276832,127.4273424,"['Sunday, 8\u202fAM to 10\u202fPM', 'Monday, 8\u202fAM to 10\u202fPM', 'Tuesday, 8\u202fAM to 10\u202fPM', 'Wednesday, 8\u202fAM to 10\u202fPM', 'Thursday, 8\u202fAM to 10\u202fPM', 'Friday, 8\u202fAM to 10\u202fPM', 'Saturday, 8\u202fAM to 10\u202fPM.']",https://lh5.googleusercontent.com/p/AF1QipONVOBUlrNDBChbfQwGP4Z7R8d8bZpiZiKIiEzY=w408-h306-k-no
3,84,Baggane,"287 Dongdaejeon-ro, Dong-gu, Daejeon",0426257321,4.1,36.3463482,127.4449525,"['Sunday, Closed', 'Monday, 4:30 to 10\u202fPM', 'Tuesday, 4:30 to 10\u202fPM', 'Wednesday, 4:30 to 10\u202fPM', 'Thursday, 4:30 to 10\u202fPM', 'Friday, 4:30 to 10\u202fPM', 'Saturday, 4:30 to 10\u202fPM.']",https://lh5.googleusercontent.com/p/AF1QipP2oI94zjXg925mDacKcQN2EwycYIVt5EWwuXy2=w408-h544-k-no
3,85,Wonmi Myeonok,"419 Okcheon-ro, Dong-gu, Daejeon",0422710157,4.0,36.331877,127.475409,"['Sunday, 10:30\u202fAM to 8\u202fPM', 'Monday, 10:30\u202fAM to 8\u202fPM', 'Tuesday, Closed', 'Wednesday, 10:30\u202fAM to 8\u202fPM', 'Thursday, 10:30\u202fAM to 8\u202fPM', 'Friday, 10:30\u202fAM to 8\u202fPM', 'Saturday, 10:30\u202fAM to 8\u202fPM.']",https://lh5.googleusercontent.com/p/AF1QipPQgN1DXuJzLdp0f8PQKme-FRtR0jkpCu3IsMGl=w426-h240-k-no
3,86,칸스테이크하우스,"Daejeon, Seo-gu, Munjeong-ro, 29 8층",0424882014,4.3,36.3468121,127.3824053,"['Sunday, 11\u202fAM to 10\u202fPM', 'Monday, 11\u202fAM to 3\u202fPM, 5:30 to 10\u202fPM', 'Tuesday, 11\u202fAM to 3\u202fPM, 5:30 to 10\u202fPM', 'Wednesday, 11\u202fAM to 3\u202fPM, 5:30 to 10\u202fPM', 'Thursday, 11\u202fAM to 3\u202fPM, 5:30 to 10\u202fPM', 'Friday, 11\u202fAM to 3\u202fPM, 5:30 to 10\u202fPM', 'Saturday, 11\u202fAM to 10\u202fPM.']",https://lh5.googleusercontent.com/p/AF1QipMTM_tbBjCDU7zZ1N0oyQjV8Py4TfcOJZuEzKIY=w425-h240-k-no
3,87,Da Alli,"40-5 Jijok-ro 349beon-gil, Yuseong District, Daejeon",0428258308,4.4,36.3876817,127.3168069,"['Sunday, Closed', 'Monday, 11:30\u202fAM to 3\u202fPM, 5 to 9:30\u202fPM', 'Tuesday, 11:30\u202fAM to 3\u202fPM, 5 to 9:30\u202fPM', 'Wednesday, 11:30\u202fAM to 3\u202fPM, 5 to 9:30\u202fPM', 'Thursday, 11:30\u202fAM to 3\u202fPM, 5 to 9:30\u202fPM', 'Friday, 11:30\u202fAM to 3\u202fPM, 5 to 9:30\u202fPM', 'Saturday, 11:30\u202fAM to 9:30\u202fPM.']",https://lh5.googleusercontent.com/p/AF1QipNLa96pAW-aC-WjF2sChvm_hgcU4xM4roOVAoZf=w408-h408-k-no
3,88,광천식당,"52-2 Seonhwa-dong, Jung-gu, Daejeon",0422264751,3.7,36.3285703,127.4235894,"['Sunday, 10:30\u202fAM to 9:30\u202fPM', 'Monday, Closed', 'Tuesday, 10:30\u202fAM to 9:30\u202fPM', 'Wednesday, 10:30\u202fAM to 9:30\u202fPM', 'Thursday, 10:30\u202fAM to 9:30\u202fPM', 'Friday, 10:30\u202fAM to 9:30\u202fPM', 'Saturday, 10:30\u202fAM to 9:30\u202fPM.']",https://lh5.googleusercontent.com/p/AF1QipNYMr6G1piADDAsFgfk59BuBvZqrYjmNznnePz_=w408-h306-k-no
