areatype,index,name,address,phone_number,average_rating,latitude,longitude,business_hours,image_url
31,1,Pyeonggaok Bundang Branch,"9 Neuti-ro 51beon-gil, Bundang-gu, Seongnam-si, Gyeonggi-do",0317861571,3.8,37.3695411,127.1100772,"['Sunday, 11\u202fAM to 10\u202fPM', 'Monday, 11\u202fAM to 10\u202fPM', 'Tuesday, 11\u202fAM to 10\u202fPM', 'Wednesday, 11\u202fAM to 10\u202fPM', 'Thursday, 11\u202fAM to 10\u202fPM', 'Friday, 11\u202fAM to 10\u202fPM', 'Saturday, 11\u202fAM to 10\u202fPM.']",https://lh5.googleusercontent.com/p/AF1QipNJf5AFgZ5JVhbeIeGK-Mp5n9JXNs4txKnSrzy6=w408-h306-k-no
31,2,Bonsuwon Galbi,"41 Jungbu-daero 223beon-gil, Paldal-gu, Suwon-si, Gyeonggi-do",0312118434,3.9,37.2781201,127.0405091,"['Sunday, 11:30\u202fAM to 9\u202fPM', 'Monday, 11:30\u202fAM to 9\u202fPM', 'Tuesday, 11:30\u202fAM to 9\u202fPM', 'Wednesday, 11:30\u202fAM to 9\u202fPM', 'Thursday, 11:30\u202fAM to 9\u202fPM', 'Friday, 11:30\u202fAM to 9\u202fPM', 'Saturday, 11:30\u202fAM to 9\u202fPM.']",https://lh5.googleusercontent.com/p/AF1QipO7Kecxu7Qd8Dc5xG93eBudQs4FG7ZcuzNCZP3l=w408-h544-k-no
31,3,수레실가든,"647 Neungpyeong-ri, Opo-eup, Gwangju-si, Gyeonggi-do",0317185292,4.1,37.3463889,127.1541667,"['Sunday, 11:30\u202fAM to 10\u202fPM', 'Monday, 11:30\u202fAM to 10\u202fPM', 'Tuesday, 11:30\u202fAM to 10\u202fPM', 'Wednesday, 11:30\u202fAM to 10\u202fPM', 'Thursday, 11:30\u202fAM to 10\u202fPM', 'Friday, 11:30\u202fAM to 10\u202fPM', 'Saturday, 11:30\u202fAM to 10\u202fPM.']",https://lh5.googleusercontent.com/p/AF1QipM6HJUFGW_KUnUi20kcB4PnTadw9aq7MXo6cOGN=w408-h544-k-no
31,4,산타루치아,"Gyeonggi-do, Anyang-si, Dongan-gu, Simin-daero, 230 KR B동 42층 KR 평촌아크로타워",0314447000,4.3,37.3922951,126.9568892,['No Business Hours Available'],https://lh5.googleusercontent.com/p/AF1QipORYliDJZ37MKI4cpRADQUiJn2dlcImQwizbYIw=w426-h240-k-no
31,5,Gunpo Restaurant,"6 Gunpo-ro 556beon-gil, Dang-dong, Gunpo-si, Gyeonggi-do",0314520025,4.3,37.3554683,126.9472569,"['Sunday, Closed', 'Monday, 8:30\u202fAM to 3\u202fPM, 4 to 8:30\u202fPM', 'Tuesday, 8:30\u202fAM to 3\u202fPM, 4 to 8:30\u202fPM', 'Wednesday, 8:30\u202fAM to 3\u202fPM, 4 to 8:30\u202fPM', 'Thursday, 8:30\u202fAM to 3\u202fPM, 4 to 8:30\u202fPM', 'Friday, 8:30\u202fAM to 3\u202fPM, 4 to 8:30\u202fPM', 'Saturday, 8:30\u202fAM to 3\u202fPM, 4 to 8:30\u202fPM.']",https://lh5.googleusercontent.com/p/AF1QipPPf5YnEwmMc5oihekPzlYI4GcwIEhafbqW29vb=w426-h240-k-no
31,6,"Hill House floor Gapyeong pine nuts, tofu","248 Sumogwon-ro, Sang-myeon, Gapyeong-gun, Gyeonggi-do",0315845368,3.5,37.7567185,127.360442,"['Sunday, 9:30\u202fAM to 8\u202fPM', 'Monday, 9:30\u202fAM to 8\u202fPM', 'Tuesday, 9:30\u202fAM to 8\u202fPM', 'Wednesday, 9:30\u202fAM to 8\u202fPM', 'Thursday, 9:30\u202fAM to 8\u202fPM', 'Friday, 9:30\u202fAM to 8\u202fPM', 'Saturday, 9:30\u202fAM to 8\u202fPM.']",https://lh5.googleusercontent.com/p/AF1QipN8s1gd72NNfzKmb-5zOHyUOWnSaMAF7HxlzPEH=w408-h306-k-no
31,7,미가훠궈양고기,"15 Pungdeokcheon-ro 140beon-gil, 풍덕천1동 Suji-gu, Yongin-si, Gyeonggi-do",0312728845,4.4,37.3225332,127.0985153,"['Sunday, 11:30\u202fAM to 11:30\u202fPM', 'Monday, 12 to 1\u202fAM, 11:30\u202fAM to 1\u202fAM', 'Tuesday, 11:30\u202fAM to 1\u202fAM', 'Wednesday, 11:30\u202fAM to 1\u202fAM', 'Thursday, 11:30\u202fAM to 1\u202fAM', 'Friday, 11:30\u202fAM to 1\u202fAM', 'Saturday, 11:30\u202fAM to 12\u202fAM.']",https://lh5.googleusercontent.com/p/AF1QipPOmvSwDDRgJQv8sxPTXQ3OR9hJqGqenEqQt2sA=w408-h306-k-no
31,8,욕쟁이할머니집,"231-2 Gomo-ri, Soheul-eup, Pocheon-si, Gyeonggi-do",0315423667,3.7,37.796242,127.1661988,"['Sunday, 11\u202fAM to 8\u202fPM', 'Monday, 11\u202fAM to 8\u202fPM', 'Tuesday, 11\u202fAM to 8\u202fPM', 'Wednesday, 11\u202fAM to 8\u202fPM', 'Thursday, Closed', 'Friday, 11\u202fAM to 8\u202fPM', 'Saturday, 11\u202fAM to 8\u202fPM.']",https://lh5.googleusercontent.com/p/AF1QipM78f9TfMHRHDh28xm7VuJV20YVjKKF1VUDIZsK=w513-h240-k-no
31,9,Squirrel Town mukjip,"48 Aenigol-gil 43beon-gil, Ilsandong-gu, Goyang-si, Gyeonggi-do",0319073601,4.2,37.6732614,126.7892248,"['Sunday, 11\u202fAM to 9\u202fPM', 'Monday, 11\u202fAM to 9\u202fPM', 'Tuesday, 11\u202fAM to 9\u202fPM', 'Wednesday, 11\u202fAM to 9\u202fPM', 'Thursday, 11\u202fAM to 9\u202fPM', 'Friday, 11\u202fAM to 9\u202fPM', 'Saturday, 11\u202fAM to 9\u202fPM.']",https://lh5.googleusercontent.com/p/AF1QipMeITH34yxzE9ij134QdFwEM6Fq_nwOOaCvf4m0=w493-h240-k-no
31,10,Saddo Garden,"Gyeonggi-do, Yongin-si, Giheung-gu, Giheungdanji-ro, 89 사또가든",0312855916,3.9,37.2262785,127.1075991,"['Sunday, 9:30\u202fAM to 9:30\u202fPM', 'Monday, 9:30\u202fAM to 9:30\u202fPM', 'Tuesday, 9:30\u202fAM to 9:30\u202fPM', 'Wednesday, 9:30\u202fAM to 9:30\u202fPM', 'Thursday, 9:30\u202fAM to 9:30\u202fPM', 'Friday, 9:30\u202fAM to 9:30\u202fPM', 'Saturday, 9:30\u202fAM to 9:30\u202fPM.']",https://lh5.googleusercontent.com/p/AF1QipMZpQmiGy-Gli2QVLtEAdqPmU_UGV4qF0bv4TvT=w408-h306-k-no
31,11,(주)박가삼거리부대찌개,"103 Munhyang-ro, Munsan-eup, Paju-si, Gyeonggi-do",0319523431,4.2,37.8605542,126.7873451,"['Sunday, Closed', 'Monday, 8\u202fAM to 9:30\u202fPM', 'Tuesday, 8\u202fAM to 9:30\u202fPM', 'Wednesday, 8\u202fAM to 9:30\u202fPM', 'Thursday, 8\u202fAM to 9:30\u202fPM', 'Friday, 8\u202fAM to 9:30\u202fPM', 'Saturday, 8\u202fAM to 9:30\u202fPM.']",https://lh5.googleusercontent.com/p/AF1QipN9KAMzH-Kjc4edXyYHSzgLwzEwM1FIeEI-9aqQ=w426-h240-k-no
31,12,Miss Jin Hamburger Songtan Main Branch,"3-1 Shopping-ro, 신장2동 Pyeongtaek-si, Gyeonggi-do",0316670656,4.0,37.0803477,127.0500199,"['Sunday, 10\u202fAM to 2\u202fAM', 'Monday, 10\u202fAM to 2\u202fAM', 'Tuesday, 10\u202fAM to 2\u202fAM', 'Wednesday, 10\u202fAM to 2\u202fAM', 'Thursday, 10\u202fAM to 2\u202fAM', 'Friday, 10\u202fAM to 2\u202fAM', 'Saturday, 10\u202fAM to 2\u202fAM.']",https://lh5.googleusercontent.com/p/AF1QipML_GEJmw6t6pUZgqkW7FWvSQ0j9fV3cM0ty7Bf=w408-h544-k-no
31,13,골목안채,"6174-12 동 다산 Namyangju-si, Gyeonggi-do",0315692665,3.9,37.6134705,127.1662703,"['Sunday, 11\u202fAM to 10\u202fPM', 'Monday, 11\u202fAM to 10\u202fPM', 'Tuesday, 11\u202fAM to 10\u202fPM', 'Wednesday, 11\u202fAM to 10\u202fPM', 'Thursday, 11\u202fAM to 10\u202fPM', 'Friday, 11\u202fAM to 10\u202fPM', 'Saturday, 11\u202fAM to 10\u202fPM.']",https://lh5.googleusercontent.com/p/AF1QipOPzcIs0IYWkXrOVjQ5TQ9Mh8AX2t61O3VMf1S0=w408-h306-k-no
31,14,Moghyang-Won,"34-11 Deongneung-ro 1071beon-gil, Namyangju-si, Gyeonggi-do",0315272255,3.9,37.683507,127.1013583,"['Sunday, 10:30\u202fAM to 10\u202fPM', 'Monday, 10:30\u202fAM to 10\u202fPM', 'Tuesday, 10:30\u202fAM to 10\u202fPM', 'Wednesday, 10:30\u202fAM to 10\u202fPM', 'Thursday, 10:30\u202fAM to 10\u202fPM', 'Friday, 10:30\u202fAM to 10\u202fPM', 'Saturday, 10:30\u202fAM to 10\u202fPM.']",https://lh5.googleusercontent.com/p/AF1QipPxQWNPYOVa5gtVJ6qoQDkWh4zUwpR_rJ4v28vi=w426-h240-k-no
31,15,Eunice's Garden Restaurant,"Gyeonggi-do, Ansan-si, Banwolcheonbuk-gil, 139 KR",0314372045,4.2,37.3114005,126.8890848,"['Sunday, 11\u202fAM to 4\u202fPM, 5 to 10\u202fPM', 'Monday, Closed', 'Tuesday, 11\u202fAM to 3\u202fPM, 5 to 10\u202fPM', 'Wednesday, 11\u202fAM to 3\u202fPM, 5 to 10\u202fPM', 'Thursday, 11\u202fAM to 3\u202fPM, 5 to 10\u202fPM', 'Friday, 11\u202fAM to 3\u202fPM, 5 to 10\u202fPM', 'Saturday, 11\u202fAM to 4\u202fPM, 5 to 10\u202fPM.']",https://lh5.googleusercontent.com/p/AF1QipNbNckY1vMILv2ou9bVvLI36rrlPdnnhj4bE6lg=w408-h469-k-no
31,16,아소산 일산본점,"967-1 Madu-dong, Goyang-si, Gyeonggi-do",0319035333,4.2,37.6591761,126.7826304,"['Sunday, 11:30\u202fAM to 9:30\u202fPM', 'Monday, 11:30\u202fAM to 9:30\u202fPM', 'Tuesday, 11:30\u202fAM to 9:30\u202fPM', 'Wednesday, 11:30\u202fAM to 9:30\u202fPM', 'Thursday, 11:30\u202fAM to 9:30\u202fPM', 'Friday, 11:30\u202fAM to 9:30\u202fPM', 'Saturday, 11:30\u202fAM to 9:30\u202fPM.']",https://lh5.googleusercontent.com/p/AF1QipP3BkVVXFTDHHpcLB64YEQWyg2B33Y9A6hCCEQ3=w408-h306-k-no
31,17,Traffic Light Grill,"396-14 Seooreung-ro, Deogyang-gu, Goyang-si, Gyeonggi-do",023824536,4.1,37.6256698,126.8970345,"['Sunday, 12\u202fPM to 12\u202fAM', 'Monday, 12\u202fPM to 12\u202fAM', 'Tuesday, 12\u202fPM to 12\u202fAM', 'Wednesday, 12\u202fPM to 12\u202fAM', 'Thursday, 12\u202fPM to 12\u202fAM', 'Friday, 12\u202fPM to 12\u202fAM', 'Saturday, 12\u202fPM to 12\u202fAM.']",https://lh5.googleusercontent.com/p/AF1QipP5EUUbFLraJ4dlDCk1X45S28N3DAc-kr0m_iEq=w426-h240-k-no
31,18,평양면옥 분당점,"27 Angol-ro, Bundang-gu, Seongnam-si, Gyeonggi-do",0317017752,3.8,37.3851721,127.134703,"['Sunday, 11:30\u202fAM to 9:30\u202fPM', 'Monday, 11:30\u202fAM to 9:30\u202fPM', 'Tuesday, 11:30\u202fAM to 9:30\u202fPM', 'Wednesday, 11:30\u202fAM to 9:30\u202fPM', 'Thursday, 11:30\u202fAM to 9:30\u202fPM', 'Friday, 11:30\u202fAM to 9:30\u202fPM', 'Saturday, 11:30\u202fAM to 9:30\u202fPM.']",https://lh5.googleusercontent.com/p/AF1QipMKd6CffAO6UPWXy-7PQxD3BHjvNtQ1sBSkfZzS=w408-h306-k-no
31,19,Jangmozip,"5 Haogae-ro 344beon-gil, Seongnam-si, Gyeonggi-do",0317111321,3.9,37.3907314,127.058043,"['Sunday, 10:30\u202fAM to 8:30\u202fPM', 'Monday, 10:30\u202fAM to 8:30\u202fPM', 'Tuesday, 10:30\u202fAM to 8:30\u202fPM', 'Wednesday, 10:30\u202fAM to 8:30\u202fPM', 'Thursday, 10:30\u202fAM to 8:30\u202fPM', 'Friday, 10:30\u202fAM to 8:30\u202fPM', 'Saturday, 10:30\u202fAM to 8:30\u202fPM.']",https://lh5.googleusercontent.com/p/AF1QipPbALecojoHbF0oMgZ2QZ73NeO8x-Ol9ef-meEt=w408-h725-k-no
31,20,수담 죽전본점,"14-6 Jukjeon-ro 27beon-gil, Bojeong-dong, Giheung-gu, Yongin-si, Gyeonggi-do",0318976987,4.1,37.3218589,127.1120117,"['Sunday, Closed', 'Monday, Closed', 'Tuesday, 11:30\u202fAM to 4\u202fPM, 5 to 9\u202fPM', 'Wednesday, 11:30\u202fAM to 4\u202fPM, 5 to 9\u202fPM', 'Thursday, 11:30\u202fAM to 4\u202fPM, 5 to 9\u202fPM', 'Friday, 11:30\u202fAM to 4\u202fPM, 5 to 9\u202fPM', 'Saturday, 11:30\u202fAM to 4\u202fPM, 5 to 9\u202fPM.']",https://lh5.googleusercontent.com/p/AF1QipOgKTtxdI1FECuDmODxGSEWVDqcpQ_CyKDKdjNz=w408-h306-k-no
31,21,Eunhajang,"78 Munhyang-ro, Munsan-eup, Paju-si, Gyeonggi-do",0319524121,3.5,37.8584828,126.7860424,"['Sunday, 11\u202fAM to 9\u202fPM', 'Monday, Closed', 'Tuesday, 11\u202fAM to 9\u202fPM', 'Wednesday, 11\u202fAM to 9\u202fPM', 'Thursday, 11\u202fAM to 9\u202fPM', 'Friday, 11\u202fAM to 9\u202fPM', 'Saturday, 11\u202fAM to 9\u202fPM.']",https://lh5.googleusercontent.com/p/AF1QipO9PVIso31-Xl2RshmAFtIZJlSgbfA_cwOLteg=w408-h306-k-no
31,22,호미불닭발 본점,"14 Buil-ro 237beon-gil, Bucheon-si, Gyeonggi-do",0323254267,4.1,37.488887,126.7567095,"['Saturday, 6\u202fPM to 4\u202fAM', 'Sunday, 6\u202fPM to 3\u202fAM', 'Monday, 6\u202fPM to 4\u202fAM', 'Tuesday, 6\u202fPM to 4\u202fAM', 'Wednesday, 6\u202fPM to 4\u202fAM', 'Thursday, 6\u202fPM to 4\u202fAM', 'Friday, 6\u202fPM to 4\u202fAM.']",https://lh5.googleusercontent.com/p/AF1QipNDNjP29cv8MoK6bIfptU2iBAZUJjiNw7bJ_Wd2=w408-h306-k-no
31,23,이동폭포갈비,"Gyeonggi-do, Pocheon-si, Idong-myeon, Yeougogae-ro, 698 KR",0315314415,3.8,38.0508005,127.3805499,"['Sunday, 10\u202fAM to 9\u202fPM', 'Monday, 10\u202fAM to 9\u202fPM', 'Tuesday, 10\u202fAM to 9\u202fPM', 'Wednesday, 10\u202fAM to 9\u202fPM', 'Thursday, 10\u202fAM to 9\u202fPM', 'Friday, 10\u202fAM to 9\u202fPM', 'Saturday, 10\u202fAM to 9\u202fPM.']",https://lh5.googleusercontent.com/p/AF1QipPqnlVatDiUu9vLCHm0O63NtzQXEzYHi7JEPECR=w408-h544-k-no
31,24,popolo pizza,"43-20 Jeongbalsan-ro, Ilsandong-gu, Goyang-si, Gyeonggi-do",0319329337,4.3,37.6583641,126.7733968,"['Sunday, 11:30\u202fAM to 9:30\u202fPM', 'Monday, Closed', 'Tuesday, 11:30\u202fAM to 3:30\u202fPM, 5 to 9:30\u202fPM', 'Wednesday, 11:30\u202fAM to 3:30\u202fPM, 5 to 9:30\u202fPM', 'Thursday, 11:30\u202fAM to 3:30\u202fPM, 5 to 9:30\u202fPM', 'Friday, 11:30\u202fAM to 3:30\u202fPM, 5 to 9:30\u202fPM', 'Saturday, 11:30\u202fAM to 9:30\u202fPM.']",https://lh5.googleusercontent.com/p/AF1QipOEwTBHr2JOLOng2z9Pk85ydNIqpqAx-lOWTRKS=w408-h544-k-no
31,25,야마다야,"124 Gumi-ro, Gumi-dong, Bundang-gu, Seongnam-si, Gyeonggi-do",0317135242,4.4,37.3398373,127.1223722,"['Sunday, 11\u202fAM to 2:30\u202fPM, 5 to 8\u202fPM', 'Monday, 11\u202fAM to 2:30\u202fPM, 5 to 8\u202fPM', 'Tuesday, Closed', 'Wednesday, 11\u202fAM to 2:30\u202fPM, 5 to 8\u202fPM', 'Thursday, 11\u202fAM to 2:30\u202fPM, 5 to 8\u202fPM', 'Friday, 11\u202fAM to 2:30\u202fPM, 5 to 8\u202fPM', 'Saturday, 11\u202fAM to 2:30\u202fPM, 5 to 8\u202fPM.']",https://lh5.googleusercontent.com/p/AF1QipM_HJjAPRcC06FZ_PsTQboXeSgwvYJIxeMIsx01=w426-h240-k-no
31,26,Wonjo Guksujip,"10 Haengju-ro 17beon-gil, Deogyang-gu, Goyang-si, Gyeonggi-do",0319747228,4.1,37.6015468,126.8277127,"['Sunday, 8\u202fAM to 8:10\u202fPM', 'Monday, Closed', 'Tuesday, 8\u202fAM to 8:10\u202fPM', 'Wednesday, 8\u202fAM to 8:10\u202fPM', 'Thursday, 8\u202fAM to 8:10\u202fPM', 'Friday, 8\u202fAM to 8:10\u202fPM', 'Saturday, 8\u202fAM to 8:10\u202fPM.']",https://lh5.googleusercontent.com/p/AF1QipPmmdemy4skRY-KDGym7xa319kjT-5m6I5IZ8L1=w426-h240-k-no
31,27,김근자 할머니집,"14 Jangam 1-gil, Idong-myeon, Pocheon-si, Gyeonggi-do",0315312157,3.2,38.0350924,127.3664023,"['Sunday, 10\u202fAM to 10\u202fPM', 'Monday, 10\u202fAM to 10\u202fPM', 'Tuesday, 10\u202fAM to 10\u202fPM', 'Wednesday, 10\u202fAM to 10\u202fPM', 'Thursday, 10\u202fAM to 10\u202fPM', 'Friday, 10\u202fAM to 10\u202fPM', 'Saturday, 10\u202fAM to 10\u202fPM.']",https://lh5.googleusercontent.com/p/AF1QipNgtvdp9gpNj30W0a1jzmJFF7FhKCgCVIBL94--=w426-h240-k-no
31,28,King Rice House,"Gyeonggi-do, Icheon-si, Sindun-myeon, Gyeongchung-daero, 3134 KR",0316323646,3.0,37.3062978,127.4034881,"['Sunday, 10:30\u202fAM to 4:30\u202fPM, 5 to 9\u202fPM', 'Monday, 10:30\u202fAM to 4:30\u202fPM, 5 to 9\u202fPM', 'Tuesday, 10:30\u202fAM to 4:30\u202fPM, 5 to 9\u202fPM', 'Wednesday, 10:30\u202fAM to 4:30\u202fPM, 5 to 9\u202fPM', 'Thursday, Closed', 'Friday, 10:30\u202fAM to 4:30\u202fPM, 5 to 9\u202fPM', 'Saturday, 10:30\u202fAM to 4:30\u202fPM, 5 to 9\u202fPM.']",https://lh5.googleusercontent.com/p/AF1QipMl6tzwjvRQXN3FElIF9mtSl23f62iePK-gPyfZ=w426-h240-k-no
31,29,원조두지리매운탕본점,"53 Surihol-ro 2316beon-gil, Jeokseong-myeon, Paju-si, Gyeonggi-do",0319594508,4.2,37.9641521,126.893957,"['Sunday, 10\u202fAM to 6:30\u202fPM', 'Monday, 10\u202fAM to 6:30\u202fPM', 'Tuesday, 10\u202fAM to 6:30\u202fPM', 'Wednesday, 10\u202fAM to 6:30\u202fPM', 'Thursday, 10\u202fAM to 6:30\u202fPM', 'Friday, 10\u202fAM to 6:30\u202fPM', 'Saturday, 10\u202fAM to 6:30\u202fPM.']",https://lh5.googleusercontent.com/p/AF1QipP9QCaMZYJ-NK5oYTLJ5TAp9FrDIQWk2ejaCXFy=w408-h306-k-no
31,30,Midohyang,"2141-9 Daehwa-dong, Ilsanseo-gu, Goyang-si, Gyeonggi-do",0319185333,4.2,37.6786003,126.7534714,"['Sunday, 11\u202fAM to 9\u202fPM', 'Monday, Closed', 'Tuesday, 11\u202fAM to 9\u202fPM', 'Wednesday, 11\u202fAM to 9\u202fPM', 'Thursday, 11\u202fAM to 9\u202fPM', 'Friday, 11\u202fAM to 9\u202fPM', 'Saturday, 11\u202fAM to 9\u202fPM.']",https://lh5.googleusercontent.com/p/AF1QipPrROsCmqDs62FDThcX_TnIxGux3NK3AawVBLD0=w408-h408-k-no
31,31,안일옥 본점,"20 Jungang-ro 411beon-gil, Anseong-si, Gyeonggi-do",0316752486,4.0,37.007431,127.2727546,['No Business Hours Available'],https://lh5.googleusercontent.com/p/AF1QipNTgJgILFH9rxmR9Bn1LbUhbqEIvvwb74XC3L4Y=w408-h544-k-no
31,32,Geujib,"13-2 수내1동 Bundang-gu, Seongnam-si, Gyeonggi-do",0317185115,4.0,37.3788037,127.1153086,"['Sunday, 11\u202fAM to 9\u202fPM', 'Monday, 11\u202fAM to 9\u202fPM', 'Tuesday, 11\u202fAM to 9\u202fPM', 'Wednesday, 11\u202fAM to 9\u202fPM', 'Thursday, 11\u202fAM to 9\u202fPM', 'Friday, 11\u202fAM to 9\u202fPM', 'Saturday, 11\u202fAM to 9\u202fPM.']",https://lh5.googleusercontent.com/p/AF1QipMXBUHe6sz9P-A9oSlskIZ06coPWyMxjjeeB8eV=w426-h240-k-no
31,33,천현한우집,"607 Mugap-ri, Chowol-eup, Gwangju-si, Gyeonggi-do",0317635762,4.2,37.4221418,127.3148575,"['Sunday, 11\u202fAM to 9\u202fPM', 'Monday, 11\u202fAM to 9\u202fPM', 'Tuesday, 11\u202fAM to 9\u202fPM', 'Wednesday, 11\u202fAM to 9\u202fPM', 'Thursday, 11\u202fAM to 9\u202fPM', 'Friday, 11\u202fAM to 9\u202fPM', 'Saturday, 11\u202fAM to 9\u202fPM.']",https://lh5.googleusercontent.com/p/AF1QipNcpCqP4B4yV1HQsCHe1EWAj4MpL1l4HX8Xc9tT=w408-h306-k-no
31,34,YongSeong Tongdak,"15 Jeongjo-ro 800beon-gil, Paldal-gu, Suwon-si, Gyeonggi-do",0312428226,3.9,37.2795791,127.0176239,"['Sunday, 11\u202fAM to 12:30\u202fAM', 'Monday, 11\u202fAM to 12:30\u202fAM', 'Tuesday, Closed', 'Wednesday, 11\u202fAM to 12:30\u202fAM', 'Thursday, 11\u202fAM to 12:30\u202fAM', 'Friday, 11\u202fAM to 12:30\u202fAM', 'Saturday, 11\u202fAM to 12:30\u202fAM.']",https://lh5.googleusercontent.com/p/AF1QipMVtyPsu14ucxOw42cfdZHuYlzQhxFWbxNBvjqx=w408-h544-k-no
31,35,North Han River makguksu chicken chops,"908 Bukhangang-ro, Joan-myeon, Namyangju-si, Gyeonggi-do",050714164201,4.2,37.59718,127.3390003,"['Sunday, 11\u202fAM to 3:30\u202fPM, 5:30 to 9\u202fPM', 'Monday, 11\u202fAM to 3:30\u202fPM, 5:30 to 9\u202fPM', 'Tuesday, Closed', 'Wednesday, 11\u202fAM to 3:30\u202fPM, 5:30 to 9\u202fPM', 'Thursday, 11\u202fAM to 3:30\u202fPM, 5:30 to 9\u202fPM', 'Friday, 11\u202fAM to 3:30\u202fPM, 5:30 to 9\u202fPM', 'Saturday, 11\u202fAM to 3:30\u202fPM, 5:30 to 9\u202fPM.']",https://lh5.googleusercontent.com/p/AF1QipMXQfNcUqNXTbUX-Yn3_hbiqWM4hAgCcmPQYkBg=w408-h306-k-no
31,36,일산칼국수 본점,"467 Gyeongui-ro, Ilsandong-gu, Goyang-si, Gyeonggi-do",0319032208,4.2,37.6704505,126.7860971,"['Sunday, 10\u202fAM to 7:40\u202fPM', 'Monday, 10\u202fAM to 8\u202fPM', 'Tuesday, 10\u202fAM to 8\u202fPM', 'Wednesday, 10\u202fAM to 8\u202fPM', 'Thursday, 10\u202fAM to 8\u202fPM', 'Friday, 10\u202fAM to 8\u202fPM', 'Saturday, 10\u202fAM to 8\u202fPM.']",https://lh5.googleusercontent.com/p/AF1QipP1DdZI6578m2bAWhPAO-AdzLLlcAgrIfqUyLUC=w426-h240-k-no
31,37,"Yingbin Lu (Champong, sweet and sour)","341 Tanhyeon-ro, 신장1동 Pyeongtaek-si, Gyeonggi-do",0316662258,3.5,37.0827703,127.0566166,"['Sunday, 10:30\u202fAM to 9:30\u202fPM', 'Monday, 10\u202fAM to 9:30\u202fPM', 'Tuesday, 10\u202fAM to 9:30\u202fPM', 'Wednesday, 10\u202fAM to 9:30\u202fPM', 'Thursday, 10\u202fAM to 9:30\u202fPM', 'Friday, 10\u202fAM to 9:30\u202fPM', 'Saturday, 10:30\u202fAM to 9:30\u202fPM.']",https://lh5.googleusercontent.com/p/AF1QipM3l1ohTr0StHp_FbC50bEdlKShceUbZV1l39bH=w408-h306-k-no
31,38,관촌순두부,"192-1 Saeum-dong, Icheon-si, Gyeonggi-do",0316356561,4.1,37.2945287,127.4185572,"['Sunday, 10:30\u202fAM to 9\u202fPM', 'Monday, 10:30\u202fAM to 9\u202fPM', 'Tuesday, 10:30\u202fAM to 9\u202fPM', 'Wednesday, 10:30\u202fAM to 9\u202fPM', 'Thursday, 10:30\u202fAM to 9\u202fPM', 'Friday, 10:30\u202fAM to 9\u202fPM', 'Saturday, 10:30\u202fAM to 9\u202fPM.']",https://lh5.googleusercontent.com/p/AF1QipP0uYPP7DJQ2rS4utmlBWvRBAKxVQOsfgOMkR2B=w408-h306-k-no
31,39,Jangan Chicken Restaurant,"114-3 Namsu-dong, Paldal-gu, Suwon-si, Gyeonggi-do",0312525190,4.0,37.279388,127.017851,"['Sunday, 12\u202fPM to 12\u202fAM', 'Monday, 12\u202fPM to 12\u202fAM', 'Tuesday, 12\u202fPM to 12\u202fAM', 'Wednesday, 12\u202fPM to 12\u202fAM', 'Thursday, 12\u202fPM to 12\u202fAM', 'Friday, 12\u202fPM to 12\u202fAM', 'Saturday, 12\u202fPM to 12\u202fAM.']",https://lh5.googleusercontent.com/p/AF1QipMA2ggqJzfJ4jKjcgJURKJbHTlje_7tapQeO9SD=w408-h272-k-no
31,40,송원막국수,"76-1 Gahwa-ro, Gapyeong-eup, Gapyeong-gun, Gyeonggi-do",0315821408,3.8,37.8266239,127.5152152,"['Sunday, 10:30\u202fAM to 6\u202fPM', 'Monday, 10:30\u202fAM to 6\u202fPM', 'Tuesday, Closed', 'Wednesday, 10:30\u202fAM to 6\u202fPM', 'Thursday, 10:30\u202fAM to 6\u202fPM', 'Friday, 10:30\u202fAM to 1\u202fPM, 6\u202fPM to 12\u202fAM', 'Saturday, 10:30\u202fAM to 6\u202fPM.']",https://lh5.googleusercontent.com/p/AF1QipOkUow6JpPuCcqupnoXKmPPsHi9R60CXTIkDjI=w408-h306-k-no
31,41,주막보리밥 서오릉본점,"133 Yongdu-ro 47beon-gil, Deogyang-gu, Goyang-si, Gyeonggi-do",023535694,4.1,37.6258918,126.8919319,"['Sunday, 11\u202fAM to 9\u202fPM', 'Monday, 11\u202fAM to 9\u202fPM', 'Tuesday, 11\u202fAM to 9\u202fPM', 'Wednesday, 11\u202fAM to 9\u202fPM', 'Thursday, 11\u202fAM to 9\u202fPM', 'Friday, 11\u202fAM to 9\u202fPM', 'Saturday, 11\u202fAM to 9\u202fPM.']",https://lh5.googleusercontent.com/p/AF1QipMI8d7y13iBcsYu5HLlZJiAK0A9flzracvM5uOe=w408-h306-k-no
31,42,Yedalmgol,"211 Yeoyang 2-ro, Bungnae-myeon, 시 Yeoju-si, Gyeonggi-do",0318835979,3.7,37.3225171,127.6773652,"['Sunday, 10\u202fAM to 8\u202fPM', 'Monday, 10\u202fAM to 8\u202fPM', 'Tuesday, 10\u202fAM to 8\u202fPM', 'Wednesday, 10\u202fAM to 8\u202fPM', 'Thursday, 10\u202fAM to 8\u202fPM', 'Friday, 10\u202fAM to 8\u202fPM', 'Saturday, 10\u202fAM to 8\u202fPM.']",https://lh5.googleusercontent.com/p/AF1QipOZTX1apsBBBBiPRFQp3JWjA1Y6V1tCu7jSuvca=w408-h544-k-no
31,43,Miss Lee Hamburger,"33 Shopping-ro, 신장2동 Pyeongtaek-si, Gyeonggi-do",0316677171,3.9,37.0813393,127.0530921,"['Sunday, 11\u202fAM to 6\u202fPM', 'Monday, Closed', 'Tuesday, 11\u202fAM to 6\u202fPM', 'Wednesday, 11\u202fAM to 6\u202fPM', 'Thursday, Closed', 'Friday, 11\u202fAM to 6\u202fPM', 'Saturday, 11\u202fAM to 6\u202fPM.']",https://lh5.googleusercontent.com/p/AF1QipPKld-qT469ko6paWImObnn1-fU6eU2z49Juv5r=w426-h240-k-no
31,44,스시 가이센,"Gyeonggi-do, Anyang-si, Dongan-gu, Pyeongchon-daero, 239 206호",0313864131,4.1,37.3926165,126.9541372,"['Sunday, Closed', 'Monday, 12 to 3\u202fPM, 6 to 9:30\u202fPM', 'Tuesday, 12 to 3\u202fPM, 6 to 9:30\u202fPM', 'Wednesday, 12 to 3\u202fPM, 6 to 9:30\u202fPM', 'Thursday, 12 to 3\u202fPM, 6 to 9:30\u202fPM', 'Friday, 12 to 3\u202fPM, 6 to 9:30\u202fPM', 'Saturday, 12 to 3\u202fPM, 6 to 9:30\u202fPM.']",https://lh5.googleusercontent.com/p/AF1QipNclNWU35yX-WG9OJaOnOBrm9WnEFWXJ7oRjIrp=w426-h240-k-no
31,45,탑골순대국,"715-4 Pungdeokcheon-dong, Suji-gu, Yongin-si, Gyeonggi-do",0312661357,4.3,37.3248655,127.0974251,"['Sunday, 11:30\u202fAM to 3\u202fPM, 3:30 to 5\u202fPM', 'Monday, 11:30\u202fAM to 3\u202fPM, 3:30 to 5\u202fPM', 'Tuesday, 11:30\u202fAM to 3\u202fPM, 3:30 to 5\u202fPM', 'Wednesday, 11:30\u202fAM to 3\u202fPM, 3:30 to 5\u202fPM', 'Thursday, 11:30\u202fAM to 3\u202fPM, 3:30 to 5\u202fPM', 'Friday, 11:30\u202fAM to 3\u202fPM, 3:30 to 5\u202fPM', 'Saturday, 11:30\u202fAM to 3\u202fPM, 3:30 to 5\u202fPM.']",https://lh5.googleusercontent.com/p/AF1QipMLw9lkHAvx2bK9OO-5rGYcDf2EWyyBu9xlwJsV=w408-h306-k-no
31,46,송월관 Songwol-gwan,"28-10 Keunsijang-ro, Dongducheon-si, Gyeonggi-do",0318652428,3.6,37.9009674,127.0549525,"['Sunday, 11:30\u202fAM to 9\u202fPM', 'Monday, 11:30\u202fAM to 9\u202fPM', 'Tuesday, 11:30\u202fAM to 9\u202fPM', 'Wednesday, 11:30\u202fAM to 9\u202fPM', 'Thursday, 11:30\u202fAM to 9\u202fPM', 'Friday, 11:30\u202fAM to 9\u202fPM', 'Saturday, 11:30\u202fAM to 9\u202fPM.']",https://lh5.googleusercontent.com/p/AF1QipOS5QgnNUmlYWdsLrQBeM6aUVxgApbXQwkf0U57=w408-h544-k-no
31,47,밀가마국시집,"28 Hoguk-ro 1723beon-gil, Uijeongbu-si, Gyeonggi-do",0318516045,4.2,37.7638167,127.0899972,"['Sunday, Closed', 'Monday, 11\u202fAM to 7:30\u202fPM', 'Tuesday, 11\u202fAM to 7:30\u202fPM', 'Wednesday, 11\u202fAM to 7:30\u202fPM', 'Thursday, 11\u202fAM to 7:30\u202fPM', 'Friday, 11\u202fAM to 7:30\u202fPM', 'Saturday, 11\u202fAM to 7:30\u202fPM.']",https://lh5.googleusercontent.com/p/AF1QipPaI8ej5iWJ8ZRhZOYDuLmycIscPVU-uG3haRCf=w408-h408-k-no
31,48,Korean noodle of Dae wang,"11 Changnyong-daero 7beon-gil, Paldal-gu, Suwon-si, Gyeonggi-do",0312522820,4.2,37.282467,127.0175643,"['Sunday, Closed', 'Monday, 11\u202fAM to 8\u202fPM', 'Tuesday, 11\u202fAM to 8\u202fPM', 'Wednesday, 11\u202fAM to 8\u202fPM', 'Thursday, 11\u202fAM to 8\u202fPM', 'Friday, 11\u202fAM to 8\u202fPM', 'Saturday, 11\u202fAM to 8\u202fPM.']",https://lh5.googleusercontent.com/p/AF1QipNd5fpFmczB9ZrZlXM_qJ2Kx9emum0gVK3p3yEX=w408-h408-k-no
31,49,Cheongmok Hanjeongsik,"3046 Gyeongchung-daero, Icheon-si, Gyeonggi-do",0316345414,3.6,37.2996275,127.4086162,"['Sunday, 10\u202fAM to 10\u202fPM', 'Monday, 10\u202fAM to 10\u202fPM', 'Tuesday, 10\u202fAM to 10\u202fPM', 'Wednesday, 10\u202fAM to 10\u202fPM', 'Thursday, 10\u202fAM to 10\u202fPM', 'Friday, 10\u202fAM to 10\u202fPM', 'Saturday, 10\u202fAM to 10\u202fPM.']",https://lh5.googleusercontent.com/p/AF1QipNdnSglKvyCtuo0S0Cp0KVNVmysSx9m3_TZH__F=w408-h544-k-no
31,50,정선한우,Seongnam-si,03180178014,4.2,37.391669,127.058717,"['Sunday, 11\u202fAM to 10\u202fPM', 'Monday, 11\u202fAM to 10\u202fPM', 'Tuesday, 11\u202fAM to 10\u202fPM', 'Wednesday, 11\u202fAM to 10\u202fPM', 'Thursday, 11\u202fAM to 10\u202fPM', 'Friday, 11\u202fAM to 10\u202fPM', 'Saturday, 11\u202fAM to 10\u202fPM.']",https://lh5.googleusercontent.com/p/AF1QipN-TlDxbebWEXs3sYS-0fiI28ui16GkZmD3n75m=w426-h240-k-no
31,51,호성식당,"266-5 Manho-ri, Poseung-eup, Pyeongtaek-si, Gyeonggi-do",0316817786,4.2,36.962051,126.847166,"['Sunday, 11\u202fAM to 8:30\u202fPM', 'Monday, 11\u202fAM to 8:30\u202fPM', 'Tuesday, 11\u202fAM to 8:30\u202fPM', 'Wednesday, 11\u202fAM to 8:30\u202fPM', 'Thursday, 11\u202fAM to 8:30\u202fPM', 'Friday, 11\u202fAM to 8:30\u202fPM', 'Saturday, 11\u202fAM to 8:30\u202fPM.']",https://lh5.googleusercontent.com/p/AF1QipNmpbsTmf-sSvFgdw5mtXpNSmESLqb1IePxykiG=w426-h240-k-no
31,52,Hagmalu,"96 Yongindaehak-ro, Cheoin-gu, Yongin-si, Gyeonggi-do",0313211201,3.7,37.230937,127.173857,"['Sunday, 10\u202fAM to 10\u202fPM', 'Monday, 10\u202fAM to 10\u202fPM', 'Tuesday, 10\u202fAM to 10\u202fPM', 'Wednesday, 10\u202fAM to 10\u202fPM', 'Thursday, 10\u202fAM to 10\u202fPM', 'Friday, 10\u202fAM to 10\u202fPM', 'Saturday, 10\u202fAM to 10\u202fPM.']",https://lh5.googleusercontent.com/p/AF1QipOTLsdiQSpr1LJuvGDDGwe0IqGOg4feEajYVlDM=w408-h408-k-no
31,53,광릉한옥집,"Bupyeong-ri, Jinjeop-eup, Namyangju-si, Gyeonggi-do",0315746630,4.2,37.7430285,127.1992852,"['Sunday, 11\u202fAM to 8\u202fPM', 'Monday, 11\u202fAM to 4\u202fPM', 'Tuesday, Closed', 'Wednesday, 11\u202fAM to 4\u202fPM', 'Thursday, 11\u202fAM to 4\u202fPM', 'Friday, 11\u202fAM to 4\u202fPM', 'Saturday, 11\u202fAM to 8\u202fPM.']",https://lh5.googleusercontent.com/p/AF1QipNsODPA-6ne3V-EgyOD8ojB5SzK3dKiEwy_jHx1=w408-h306-k-no
31,54,중앙식당,"9 Ilcheong-ro 8beon-gil, Ilsanseo-gu, Goyang-si, Gyeonggi-do",0319756357,4.0,37.6851255,126.7703362,"['Sunday, 11\u202fAM to 9\u202fPM', 'Monday, 11\u202fAM to 9\u202fPM', 'Tuesday, 11\u202fAM to 9\u202fPM', 'Wednesday, 11\u202fAM to 9\u202fPM', 'Thursday, 11\u202fAM to 9\u202fPM', 'Friday, 11\u202fAM to 9\u202fPM', 'Saturday, 11\u202fAM to 9\u202fPM.']",https://lh5.googleusercontent.com/p/AF1QipMxr4yEy2b9R7mMnCrEHk-_E1LHMQyB9-Ke1cjx=w408-h306-k-no
31,55,Okcheon Naengmyeon HwangHae Sikdang,"884-12 Okcheon-ri, Okcheon-myeon, Yangpyeong-gun, Gyeonggi-do",0317733575,3.3,37.5108622,127.4497721,"['Sunday, 11\u202fAM to 8\u202fPM', 'Monday, 11\u202fAM to 8\u202fPM', 'Tuesday, 11\u202fAM to 8\u202fPM', 'Wednesday, 11\u202fAM to 8\u202fPM', 'Thursday, 11\u202fAM to 8\u202fPM', 'Friday, 11\u202fAM to 8\u202fPM', 'Saturday, 11\u202fAM to 8\u202fPM.']",https://lh5.googleusercontent.com/p/AF1QipNbh9HyvXW7efZuqkNkKkbIQVKP9gZ0fivZ2IE=w408-h306-k-no
31,56,Gangwon Traditional Ginseng Chicken Soup,Bucheon,0323259119,4.1,37.4894444,126.7563889,"['Sunday, 11\u202fAM to 10\u202fPM', 'Monday, 11\u202fAM to 10\u202fPM', 'Tuesday, 11\u202fAM to 10\u202fPM', 'Wednesday, 11\u202fAM to 10\u202fPM', 'Thursday, 11\u202fAM to 10\u202fPM', 'Friday, 11\u202fAM to 10\u202fPM', 'Saturday, 11\u202fAM to 10\u202fPM.']",https://lh5.googleusercontent.com/p/AF1QipNigc8v6QfkZbwBH22os5OtS5li0QzyGPC3AGg4=w426-h240-k-no
31,57,반구정 나루터집,"13 Bangujeong-ro 85beon-gil, Munsan-eup, Paju-si, Gyeonggi-do",0319523472,4.0,37.8684699,126.7518066,"['Sunday, 11:30\u202fAM to 10\u202fPM', 'Monday, 11:30\u202fAM to 10\u202fPM', 'Tuesday, 11:30\u202fAM to 10\u202fPM', 'Wednesday, 11:30\u202fAM to 10\u202fPM', 'Thursday, 11:30\u202fAM to 10\u202fPM', 'Friday, 11:30\u202fAM to 10\u202fPM', 'Saturday, 11:30\u202fAM to 10\u202fPM.']",https://lh5.googleusercontent.com/p/AF1QipPOZGZkoZ1Sp-ddMfgd93dTZyVo40tCKzcHJ3oK=w408-h306-k-no
31,58,군계폐계닭 평택본점,Pyeongtaek,0316527430,4.0,36.993358,127.0916629,"['Sunday, 10\u202fAM to 11\u202fPM', 'Monday, 10\u202fAM to 11\u202fPM', 'Tuesday, 10\u202fAM to 11\u202fPM', 'Wednesday, 10\u202fAM to 11\u202fPM', 'Thursday, 10\u202fAM to 11\u202fPM', 'Friday, 10\u202fAM to 11\u202fPM', 'Saturday, 10\u202fAM to 11\u202fPM.']",https://lh5.googleusercontent.com/p/AF1QipMO5MWo44u7Zufd4dn2S-Bwo61wK0Yv6NUYRuOu=w408-h306-k-no
31,59,어랑손만두,"1084-25 Gyeongchun-ro, Namyangju-si, Gyeonggi-do",0315922959,3.8,37.6362598,127.2242036,"['Sunday, 9\u202fAM to 9\u202fPM', 'Monday, 9\u202fAM to 9\u202fPM', 'Tuesday, 9\u202fAM to 9\u202fPM', 'Wednesday, 9\u202fAM to 9\u202fPM', 'Thursday, 9\u202fAM to 9\u202fPM', 'Friday, 9\u202fAM to 9\u202fPM', 'Saturday, 9\u202fAM to 9\u202fPM.']",https://lh5.googleusercontent.com/p/AF1QipMiDOJNNm9mL2wttXXCMdx_he-ofHYZKNKM6Ou6=w408-h306-k-no
31,60,불타는오리,"1379-38 Cheonggun-ro, Jojong-myeon, Gapyeong-gun, Gyeonggi-do",0315853392,4.1,37.8202973,127.3379996,"['Sunday, 11\u202fAM to 9\u202fPM', 'Monday, 11\u202fAM to 9\u202fPM', 'Tuesday, 11\u202fAM to 9\u202fPM', 'Wednesday, 11\u202fAM to 9\u202fPM', 'Thursday, 11\u202fAM to 9\u202fPM', 'Friday, 11\u202fAM to 9\u202fPM', 'Saturday, 11\u202fAM to 9\u202fPM.']",https://lh5.googleusercontent.com/p/AF1QipPFjUX3uJp-rdgl--7XBIC8wG6TgvRxQODzJPhs=w408-h306-k-no
31,61,Mabangjib,"428-4 Cheonhyeon-dong, Hanam-si, Gyeonggi-do",0317910011,3.6,37.5321639,127.2171778,"['Sunday, 11\u202fAM to 9\u202fPM', 'Monday, 11\u202fAM to 9\u202fPM', 'Tuesday, 11\u202fAM to 9\u202fPM', 'Wednesday, 11\u202fAM to 9\u202fPM', 'Thursday, 11\u202fAM to 9\u202fPM', 'Friday, 11\u202fAM to 9:30\u202fPM', 'Saturday, 11\u202fAM to 9\u202fPM.']",https://lh5.googleusercontent.com/p/AF1QipPX0TxMFm2ehLz3xJlDRfDK-4yPHh3XoTKO_FYY=w532-h240-k-no
31,62,유치회관,"67 Hyowon-ro 292beon-gil, Paldal-gu, Suwon-si, Gyeonggi-do",0312346275,4.1,37.2587956,127.0321082,"['Sunday, Open 24 hours', 'Monday, Open 24 hours', 'Tuesday, Open 24 hours', 'Wednesday, Open 24 hours', 'Thursday, Open 24 hours', 'Friday, Open 24 hours', 'Saturday, Open 24 hours.']",https://lh5.googleusercontent.com/p/AF1QipMBOpxVFZNR8sjdzKNgyOd8H4QFLUNTMd5BDsc-=w408-h306-k-no
31,63,홍화루,"Gyeonggi-do, Suwon-si, Yeongtong-gu, Maeyeoul-ro 40beon-gil, 56 홍화루 1층",No Phone Number,4.3,37.2725731,127.0482296,"['Sunday, 11\u202fAM to 10\u202fPM', 'Monday, Closed', 'Tuesday, 11\u202fAM to 10\u202fPM', 'Wednesday, 11\u202fAM to 10\u202fPM', 'Thursday, 11\u202fAM to 10\u202fPM', 'Friday, 11\u202fAM to 10\u202fPM', 'Saturday, 11\u202fAM to 10\u202fPM.']",https://lh5.googleusercontent.com/p/AF1QipNpTlBiTztW9XaxV-5fehW6so-AyiHE7AhqMxNc=w408-h408-k-no
31,64,고자리냉면칼만두 본점,"915-45 Hoguk-ro, Deogyang-gu, Goyang-si, Gyeonggi-do",0319698250,3.8,37.6645483,126.8431513,"['Sunday, Closed', 'Monday, 10:30\u202fAM to 8\u202fPM', 'Tuesday, 10:30\u202fAM to 8\u202fPM', 'Wednesday, 10:30\u202fAM to 8\u202fPM', 'Thursday, 10:30\u202fAM to 8\u202fPM', 'Friday, 10:30\u202fAM to 8\u202fPM', 'Saturday, 10:30\u202fAM to 8\u202fPM.']",https://lh5.googleusercontent.com/p/AF1QipMJ_mbLnks4joXNualDXI7stMA_w7W5nRbVrWGo=w408-h408-k-no
31,65,칠보농원,"2435-8 Hwaseong-ro, Maesong-myeon, Hwaseong-si, Gyeonggi-do",0312920005,4.1,37.247261,126.930728,"['Sunday, 11\u202fAM to 9\u202fPM', 'Monday, 11\u202fAM to 9\u202fPM', 'Tuesday, 11\u202fAM to 9\u202fPM', 'Wednesday, 11\u202fAM to 9\u202fPM', 'Thursday, 11\u202fAM to 9\u202fPM', 'Friday, 11\u202fAM to 9\u202fPM', 'Saturday, 11\u202fAM to 9\u202fPM.']",https://lh5.googleusercontent.com/p/AF1QipMi-Poi0Upzc-WjzkK8jJSCytlHj4fNwOkosUzD=w408-h408-k-no
31,66,어울더울 과천본점,"Gyeonggi-do, Gwacheon-si, Galhyeon-dong, 175-2",025036817,4.3,37.409469,126.993118,"['Sunday, 11:30\u202fAM to 9:30\u202fPM', 'Monday, Closed', 'Tuesday, 11:30\u202fAM to 9:30\u202fPM', 'Wednesday, 11:30\u202fAM to 9:30\u202fPM', 'Thursday, 11:30\u202fAM to 9:30\u202fPM', 'Friday, 11:30\u202fAM to 9:30\u202fPM', 'Saturday, 11:30\u202fAM to 9:30\u202fPM.']",https://lh5.googleusercontent.com/p/AF1QipMACXMeZSoy6sYb4nw-nCUZjyuE7Vvc_f0ONOE=w408-h306-k-no
31,67,Yong am-ri Makguksu(Buckwheat Noodles),"Gyeonggi-do, Yangju-si, Eunhyeon-myeon, Yongam-ri, 46-12 KR 256",0318596223,4.1,37.8582063,127.0522257,"['Sunday, 11\u202fAM to 8\u202fPM', 'Monday, 11\u202fAM to 8\u202fPM', 'Tuesday, Closed', 'Wednesday, 11\u202fAM to 8\u202fPM', 'Thursday, 11\u202fAM to 8\u202fPM', 'Friday, 11\u202fAM to 8\u202fPM', 'Saturday, 11\u202fAM to 8\u202fPM.']",https://lh5.googleusercontent.com/p/AF1QipNqPtANlAe-T82dS2JQPn_vgMN40JbNwn1Rk8qH=w426-h240-k-no
31,68,Ibjujib,"Gyeonggi-do, Suwon-si, Paldal-gu, Paldallo 1(il)-ga, 66 KR",0312555384,4.0,37.2792748,127.0176389,"['Sunday, Closed', 'Monday, 12 to 10\u202fPM', 'Tuesday, 12 to 10\u202fPM', 'Wednesday, 12 to 10\u202fPM', 'Thursday, 12 to 10\u202fPM', 'Friday, 12 to 10\u202fPM', 'Saturday, 12 to 10\u202fPM.']",https://lh5.googleusercontent.com/p/AF1QipM7OE-HWanH4ZWncHHT979N00EnMgNS1pEWjT91=w408-h306-k-no
31,69,이마리명품청국장,Gimpo-si,No Phone Number,3.8,37.6519444,126.5963889,"['Sunday, 10:30\u202fAM to 8\u202fPM', 'Monday, 10:30\u202fAM to 8\u202fPM', 'Tuesday, 10:30\u202fAM to 8\u202fPM', 'Wednesday, 10:30\u202fAM to 8\u202fPM', 'Thursday, 10:30\u202fAM to 8\u202fPM', 'Friday, 10:30\u202fAM to 8\u202fPM', 'Saturday, 10:30\u202fAM to 8\u202fPM.']",https://lh5.googleusercontent.com/p/AF1QipMzsV8VvsA3mbeX_kwrkc3NpPAU_Ebh8Zf8zEMh=w408-h306-k-no
31,70,유프로네,"264 Neungwon-ri, Mohyeon-eup, Cheoin-gu, Yongin-si, Gyeonggi-do",0313399180,4.1,37.3370663,127.1730959,"['Sunday, 10:30\u202fAM to 10\u202fPM', 'Monday, 10:30\u202fAM to 10\u202fPM', 'Tuesday, 10:30\u202fAM to 10\u202fPM', 'Wednesday, 10:30\u202fAM to 10\u202fPM', 'Thursday, 10:30\u202fAM to 10\u202fPM', 'Friday, 10:30\u202fAM to 10\u202fPM', 'Saturday, 10:30\u202fAM to 10\u202fPM.']",https://lh5.googleusercontent.com/p/AF1QipOof6OlVjRQvnQQVneQrOuSx-4gksvAZS6KXUI=w408-h306-k-no
31,71,돼지집,"56 Kia-ro, Gwangmyeong-si, Gyeonggi-do",028059407,4.2,37.4359293,126.8858567,"['Sunday, 8:30\u202fAM to 11\u202fPM', 'Monday, 8:30\u202fAM to 11\u202fPM', 'Tuesday, 8:30\u202fAM to 11\u202fPM', 'Wednesday, 8:30\u202fAM to 11\u202fPM', 'Thursday, 8:30\u202fAM to 11\u202fPM', 'Friday, 8:30\u202fAM to 11\u202fPM', 'Saturday, 8:30\u202fAM to 11\u202fPM.']",https://lh5.googleusercontent.com/p/AF1QipPWU_eIWmdpeuO8nJUelfGX5fYd8LQAh27YdgWM=w408-h306-k-no
31,72,쏘렐라,"177 Jeongjail-ro, Bundang-gu, Seongnam-si, Gyeonggi-do",0317825882,4.3,37.3661077,127.1053796,"['Sunday, Closed', 'Monday, 11:30\u202fAM to 10\u202fPM', 'Tuesday, 11:30\u202fAM to 10\u202fPM', 'Wednesday, 11:30\u202fAM to 10\u202fPM', 'Thursday, 11:30\u202fAM to 10\u202fPM', 'Friday, 11:30\u202fAM to 10\u202fPM', 'Saturday, 11:30\u202fAM to 3\u202fPM, 5 to 10\u202fPM.']",https://lh5.googleusercontent.com/p/AF1QipP5l-i5ZzO6hmHfzOYwQjlgPHHruaMCa1SEq6dd=w408-h544-k-no
31,73,Myohyang Dumpling,"63 Achasan-ro, Guri-si, Gyeonggi-do",024443515,3.9,37.5639881,127.1148649,"['Sunday, 9:30\u202fAM to 9:30\u202fPM', 'Monday, Closed', 'Tuesday, 9:30\u202fAM to 9:30\u202fPM', 'Wednesday, 9:30\u202fAM to 9:30\u202fPM', 'Thursday, 9:30\u202fAM to 9:30\u202fPM', 'Friday, 9:30\u202fAM to 9:30\u202fPM', 'Saturday, 9:30\u202fAM to 9:30\u202fPM.']",https://lh5.googleusercontent.com/p/AF1QipMv_JIb-YIbcHoA17Dp1yKGkrqZXaD-Jb4MKcOb=w426-h240-k-no
31,74,Boyoung Mandoo,"271 Paldal-ro, Jangan-gu, Suwon-si, Gyeonggi-do",0312429076,3.9,37.2895593,127.0143813,"['Sunday, 10\u202fAM to 1\u202fAM', 'Monday, 10\u202fAM to 1\u202fAM', 'Tuesday, 10\u202fAM to 1\u202fAM', 'Wednesday, 10\u202fAM to 1\u202fAM', 'Thursday, 10\u202fAM to 1\u202fAM', 'Friday, 10\u202fAM to 1\u202fAM', 'Saturday, 10\u202fAM to 1\u202fAM.']",https://lh5.googleusercontent.com/p/AF1QipMv0BojMc64evmgsruPxaiQN0dZlIMz3fUT9k0w=w408-h408-k-no
31,75,오두산막국수 본점,"Gyeonggi-do, Paju-si, Yadong-dong, 369-5",0319447022,3.8,37.7712,126.75893,"['Sunday, 11\u202fAM to 9\u202fPM', 'Monday, 11\u202fAM to 9\u202fPM', 'Tuesday, 11\u202fAM to 9\u202fPM', 'Wednesday, 11\u202fAM to 9\u202fPM', 'Thursday, 11\u202fAM to 9\u202fPM', 'Friday, 11\u202fAM to 9\u202fPM', 'Saturday, 11\u202fAM to 9\u202fPM.']",https://lh5.googleusercontent.com/p/AF1QipPGCWEdHUF79_jqz0Pwuu25NT3JDJeIoSLjnvu4=w408-h306-k-no
31,76,비니에올리,"1189-14 Bojeong-dong, Giheung-gu, Yongin-si, Gyeonggi-do",0318894932,4.1,37.3213335,127.1102127,"['Sunday, Closed', 'Monday, 10:30\u202fAM to 9:30\u202fPM', 'Tuesday, 10:30\u202fAM to 9:30\u202fPM', 'Wednesday, 10:30\u202fAM to 9:30\u202fPM', 'Thursday, 10:30\u202fAM to 9:30\u202fPM', 'Friday, 10:30\u202fAM to 9:30\u202fPM', 'Saturday, 10:30\u202fAM to 9:30\u202fPM.']",https://lh5.googleusercontent.com/p/AF1QipOUu4RLvLKp76OdUIqPO7fWX-4K28cUBVkozzKU=w408-h306-k-no
31,77,Nongwoo Bonsuwon Galbi,"8 Heungdeok 4-ro 15beon-gil, Giheung-gu, Yongin-si, Gyeonggi-do",0312838434,3.9,37.2731307,127.0899138,"['Sunday, 11\u202fAM to 9:30\u202fPM', 'Monday, 11\u202fAM to 9:30\u202fPM', 'Tuesday, 11\u202fAM to 9:30\u202fPM', 'Wednesday, 11\u202fAM to 9:30\u202fPM', 'Thursday, 11\u202fAM to 9:30\u202fPM', 'Friday, 11\u202fAM to 9:30\u202fPM', 'Saturday, 11\u202fAM to 9:30\u202fPM.']",https://lh5.googleusercontent.com/p/AF1QipMWqKfgY0a6yXY4zRzGDuTBaWEE06vV0whA5LJ4=w408-h272-k-no
31,78,산사랑,"9 Saemmal-ro 89beon-gil, Suji-gu, Yongin-si, Gyeonggi-do",0312636080,3.9,37.3531056,127.0457117,"['Sunday, 11\u202fAM to 9:30\u202fPM', 'Monday, 11\u202fAM to 9:30\u202fPM', 'Tuesday, 11\u202fAM to 9:30\u202fPM', 'Wednesday, 11\u202fAM to 9:30\u202fPM', 'Thursday, 11\u202fAM to 9:30\u202fPM', 'Friday, 11\u202fAM to 9:30\u202fPM', 'Saturday, 11\u202fAM to 9:30\u202fPM.']",https://lh5.googleusercontent.com/p/AF1QipMqE5zMDPZGwwXgqCEGjoxAcBCN-PrWkEBVL4zc=w408-h306-k-no
31,79,Bachelor's Hand Kalguksu,"64-6 Singal-dong, Giheung-gu, Yongin-si, Gyeonggi-do",0312828474,4.3,37.273073,127.1101871,"['Sunday, 11\u202fAM to 9:30\u202fPM', 'Monday, 11\u202fAM to 9:30\u202fPM', 'Tuesday, 11\u202fAM to 9:30\u202fPM', 'Wednesday, 11\u202fAM to 9:30\u202fPM', 'Thursday, 11\u202fAM to 9:30\u202fPM', 'Friday, 11\u202fAM to 9:30\u202fPM', 'Saturday, 11\u202fAM to 9:30\u202fPM.']",https://lh5.googleusercontent.com/p/AF1QipPwC7XyU8F2PPC0PgBV5at8pnAJj3Oaj2XS_7it=w506-h240-k-no
31,80,Changmolu,"301 Geomdansan-ro, Hanam-si, Gyeonggi-do",0317929700,3.9,37.5392644,127.2332356,"['Sunday, 10\u202fAM to 9\u202fPM', 'Monday, 10\u202fAM to 9\u202fPM', 'Tuesday, 10\u202fAM to 9\u202fPM', 'Wednesday, 10\u202fAM to 9\u202fPM', 'Thursday, 10\u202fAM to 9\u202fPM', 'Friday, 10\u202fAM to 9\u202fPM', 'Saturday, 10\u202fAM to 9\u202fPM.']",https://lh5.googleusercontent.com/p/AF1QipNp1KW5-ufbp18mcUujWFfU1mvDdHcat0k2GjOm=w426-h240-k-no
31,81,꼬꼬오리주물럭,"49 Heungsin-ro 239beon-gil, Yangchon-eup, Gimpo-si, Gyeonggi-do",0319886840,4.3,37.6765919,126.6103161,"['Sunday, 10\u202fAM to 10\u202fPM', 'Monday, 10\u202fAM to 10\u202fPM', 'Tuesday, 10\u202fAM to 10\u202fPM', 'Wednesday, 10\u202fAM to 10\u202fPM', 'Thursday, 10\u202fAM to 10\u202fPM', 'Friday, 10\u202fAM to 10\u202fPM', 'Saturday, 10\u202fAM to 10\u202fPM.']",https://lh5.googleusercontent.com/p/AF1QipNq5rr8C_iRN9nUxqzHBEprwGKUygHKSkmMiC7a=w408-h306-k-no
31,82,아다미 순대국,"60-5 Maesanno 1(il)-ga, Suwon-si, Gyeonggi-do",0312424190,3.9,37.2672531,127.001728,"['Sunday, Open 24 hours', 'Monday, Open 24 hours', 'Tuesday, Open 24 hours', 'Wednesday, Open 24 hours', 'Thursday, Open 24 hours', 'Friday, Open 24 hours', 'Saturday, Open 24 hours.']",https://lh5.googleusercontent.com/p/AF1QipMyUEqxk3C5XHegQ-Wt4WsFf8p2ORpHa83S-bED=w408-h544-k-no
31,83,지동관,"78 Hoguk-ro 1298beon-gil, 의정부1동 Uijeongbu-si, Gyeonggi-do",0318462047,3.8,37.7399182,127.0482627,"['Sunday, 11\u202fAM to 9\u202fPM', 'Monday, Closed', 'Tuesday, 11\u202fAM to 9\u202fPM', 'Wednesday, 11\u202fAM to 9\u202fPM', 'Thursday, 11\u202fAM to 9\u202fPM', 'Friday, 11\u202fAM to 9\u202fPM', 'Saturday, 11\u202fAM to 9\u202fPM.']",https://lh5.googleusercontent.com/p/AF1QipNQzJEzrjKlwSYeAjYxoBsmE66C7neRFoi4EuuD=w426-h240-k-no
31,84,DeokSo SootBulGoGi,"1122-4 Wolmun-ri, Wabu-eup, Namyangju-si, Gyeonggi-do",0315773892,4.1,37.5971467,127.231194,"['Sunday, 11\u202fAM to 7:30\u202fPM', 'Monday, Closed', 'Tuesday, 11\u202fAM to 8\u202fPM', 'Wednesday, 11\u202fAM to 8\u202fPM', 'Thursday, 11\u202fAM to 8\u202fPM', 'Friday, 11\u202fAM to 8\u202fPM', 'Saturday, 11\u202fAM to 7:30\u202fPM.']",https://lh5.googleusercontent.com/p/AF1QipMZE0rDwmC23lyk7N8leiEKEa1_lyMYeQgm3BWY=w408-h306-k-no
31,85,Neung Ra Do,"12 Sanun-ro 32beon-gil, Bundang-gu, Seongnam-si, Gyeonggi-do",0317813989,4.0,37.3917318,127.0651836,"['Sunday, 11\u202fAM to 9\u202fPM', 'Monday, 11\u202fAM to 9\u202fPM', 'Tuesday, 11\u202fAM to 9\u202fPM', 'Wednesday, 11\u202fAM to 9\u202fPM', 'Thursday, 11\u202fAM to 9\u202fPM', 'Friday, 11\u202fAM to 9\u202fPM', 'Saturday, 11\u202fAM to 9\u202fPM.']",https://lh5.googleusercontent.com/p/AF1QipMVrohcUYwyVxSbOXLcjcjbiLHayLzzO-DV14Zl=w426-h240-k-no
31,86,미사리밀빛초계국수 본점,"Gyeonggi-do, Hanam-si, 덕풍동 38 -3",0317950330,4.0,37.5532034,127.2109476,"['Sunday, 9:30\u202fAM to 9:30\u202fPM', 'Monday, 9:30\u202fAM to 9:30\u202fPM', 'Tuesday, 9:30\u202fAM to 9:30\u202fPM', 'Wednesday, 9:30\u202fAM to 9:30\u202fPM', 'Thursday, 9:30\u202fAM to 9:30\u202fPM', 'Friday, 9:30\u202fAM to 9:30\u202fPM', 'Saturday, 9:30\u202fAM to 9:30\u202fPM.']",https://lh5.googleusercontent.com/p/AF1QipM3061Pbsa_l1dK6-rMALZ0nK9jem2KHzR8dvQt=w426-h240-k-no
31,87,Sagyejinmi,"453 Yanghyeon-ro, Bundang-gu, Seongnam-si, Gyeonggi-do",0317075868,4.2,37.4171539,127.1324974,"['Sunday, 11:30\u202fAM to 10\u202fPM', 'Monday, 11:30\u202fAM to 9\u202fPM', 'Tuesday, 11:30\u202fAM to 9\u202fPM', 'Wednesday, 11:30\u202fAM to 9\u202fPM', 'Thursday, 11:30\u202fAM to 9\u202fPM', 'Friday, 11:30\u202fAM to 9\u202fPM', 'Saturday, 11:30\u202fAM to 10\u202fPM.']",https://lh5.googleusercontent.com/p/AF1QipNm732aTt3EieXQeG6VqNPNAkSviyUc8n26Q8cp=w408-h306-k-no
31,88,I'm Home,"3-1 Pangyoyeok-ro 10beon-gil, Bundang-gu, Seongnam-si, Gyeonggi-do",No Phone Number,4.2,37.3839833,127.1113711,"['Sunday, 10\u202fAM to 10\u202fPM', 'Monday, 10\u202fAM to 10\u202fPM', 'Tuesday, 10\u202fAM to 10\u202fPM', 'Wednesday, 10\u202fAM to 10\u202fPM', 'Thursday, 10\u202fAM to 10\u202fPM', 'Friday, 10\u202fAM to 10\u202fPM', 'Saturday, 10\u202fAM to 10\u202fPM.']",https://lh5.googleusercontent.com/p/AF1QipOlzNZ6bvvpIUyPSn4FblpKN76nSN7L-J0MknUG=w408-h306-k-no
31,89,옥천고읍냉면,"6 Okcheon-gil 98beon-gil, Okcheon-myeon, Yangpyeong-gun, Gyeonggi-do",0317725302,3.9,37.5196872,127.4635847,"['Sunday, 11\u202fAM to 7\u202fPM', 'Monday, 11\u202fAM to 7\u202fPM', 'Tuesday, Closed', 'Wednesday, 11\u202fAM to 7\u202fPM', 'Thursday, 11\u202fAM to 7\u202fPM', 'Friday, 11\u202fAM to 7\u202fPM', 'Saturday, 11\u202fAM to 7\u202fPM.']",https://lh5.googleusercontent.com/p/AF1QipO1HUSZj_770oBkqEFG6qrgxq18OGJtc8sWl2ql=w408-h306-k-no
31,90,기와집순두부 조안본점,"133 Bukhangang-ro, Joan-myeon, Namyangju-si, Gyeonggi-do",0315769009,3.9,37.5372294,127.3024064,"['Sunday, 10:30\u202fAM to 8:30\u202fPM', 'Monday, 10:30\u202fAM to 8:30\u202fPM', 'Tuesday, 10:30\u202fAM to 8:30\u202fPM', 'Wednesday, 10:30\u202fAM to 8:30\u202fPM', 'Thursday, 10:30\u202fAM to 8:30\u202fPM', 'Friday, 10:30\u202fAM to 8:30\u202fPM', 'Saturday, 10:30\u202fAM to 8:30\u202fPM.']",https://lh5.googleusercontent.com/p/AF1QipPcpLd0YSCmxoqOalcoNSwiCm85z4tbzB2wgeif=w426-h240-k-no
31,91,송전매운탕,"245 Songjeon-ri, Idong-myeon, Cheoin-gu, Yongin-si, Gyeonggi-do",0313362566,4.2,37.1355358,127.2020154,"['Sunday, 10:30\u202fAM to 9\u202fPM', 'Monday, 10:30\u202fAM to 9\u202fPM', 'Tuesday, 10:30\u202fAM to 9\u202fPM', 'Wednesday, 10:30\u202fAM to 9\u202fPM', 'Thursday, 10:30\u202fAM to 9\u202fPM', 'Friday, 10:30\u202fAM to 9\u202fPM', 'Saturday, 10:30\u202fAM to 9\u202fPM.']",https://lh5.googleusercontent.com/p/AF1QipPPHzL4Utirx_W3c0QqR8i3noQMELZdE3hpm59z=w408-h306-k-no
31,92,Gimnejib,"15 Jungangsijang-ro 25beon-gil, Pyeongtaek-si, Gyeonggi-do",0316663648,4.2,37.0808963,127.0527535,"['Sunday, 11:10\u202fAM to 10\u202fPM', 'Monday, Closed', 'Tuesday, 11:10\u202fAM to 10\u202fPM', 'Wednesday, 11:10\u202fAM to 10\u202fPM', 'Thursday, 11:10\u202fAM to 10\u202fPM', 'Friday, 11:10\u202fAM to 10\u202fPM', 'Saturday, 11:10\u202fAM to 10\u202fPM.']",https://lh5.googleusercontent.com/p/AF1QipMi-As_SMlhLE_JMIhs6oc1XDN1iA1D1NazG4y0=w408-h408-k-no
31,93,숲속장어촌,"529 Sinhyeon-ri, Opo-eup, Gwangju-si, Gyeonggi-do",0317183158,4.3,37.3770891,127.1665121,"['Sunday, 11\u202fAM to 10\u202fPM', 'Monday, Closed', 'Tuesday, 11\u202fAM to 10\u202fPM', 'Wednesday, 11\u202fAM to 10\u202fPM', 'Thursday, 11\u202fAM to 10\u202fPM', 'Friday, 11\u202fAM to 10\u202fPM', 'Saturday, 11\u202fAM to 10\u202fPM.']",https://lh5.googleusercontent.com/p/AF1QipNBiSO20KJEDVu8kOod1b-85MTexSySl_lWGYDo=w426-h240-k-no
31,94,Hansoban Jjukkumi,"589-1 Cheonggyesan-ro, Seongnam-si, Gyeonggi-do",0317517500,4.1,37.4335922,127.0867507,"['Sunday, 11\u202fAM to 8:20\u202fPM', 'Monday, 11\u202fAM to 8:20\u202fPM', 'Tuesday, 11\u202fAM to 8:20\u202fPM', 'Wednesday, 11\u202fAM to 8:20\u202fPM', 'Thursday, 11\u202fAM to 8:20\u202fPM', 'Friday, 11\u202fAM to 8:20\u202fPM', 'Saturday, 11\u202fAM to 8:20\u202fPM.']",https://lh5.googleusercontent.com/p/AF1QipMLIawzLZYv4bW9vAbrZS_DI2tmxL-djD7XqEBS=w426-h240-k-no
31,95,Galilee Farm,"1196 Bangchon-ro, Tanhyeon-myeon, Paju-si, Gyeonggi-do",0319428400,4.1,37.8361296,126.7458094,"['Sunday, 10:30\u202fAM to 10\u202fPM', 'Monday, 11\u202fAM to 9\u202fPM', 'Tuesday, 11\u202fAM to 9\u202fPM', 'Wednesday, 11\u202fAM to 9\u202fPM', 'Thursday, 11\u202fAM to 9\u202fPM', 'Friday, 11\u202fAM to 9\u202fPM', 'Saturday, 10:30\u202fAM to 10\u202fPM.']",https://lh5.googleusercontent.com/p/AF1QipOIvTuyx3O3OFlF_AKTTXhZ39yaLv5con2WD7Eb=w493-h240-k-no
31,96,새말해장국,"7 Eungye-dong, Osan-si, Gyeonggi-do",0313735929,4.2,37.160656,127.077606,"['Sunday, 6\u202fAM to 10\u202fPM', 'Monday, 6\u202fAM to 10\u202fPM', 'Tuesday, 6\u202fAM to 10\u202fPM', 'Wednesday, 6\u202fAM to 10\u202fPM', 'Thursday, 6\u202fAM to 10\u202fPM', 'Friday, 6\u202fAM to 10\u202fPM', 'Saturday, 6\u202fAM to 10\u202fPM.']",https://lh5.googleusercontent.com/p/AF1QipPKs0met2-h75rupr36csvsOhILjTfC2SKtb6Bi=w408-h306-k-no
31,97,한터시골농장,"Gyeonggi-do, Yongin-si, Yangji-myeon, Daedae-ri, 765 KR",0313396600,4.0,37.2612927,127.2803653,"['Sunday, 10\u202fAM to 9:30\u202fPM', 'Monday, 10\u202fAM to 12\u202fAM', 'Tuesday, 12 to 9:30\u202fAM, 10\u202fAM to 9:30\u202fPM', 'Wednesday, 10\u202fAM to 9:30\u202fPM', 'Thursday, 10\u202fAM to 9:30\u202fPM', 'Friday, 10\u202fAM to 9:30\u202fPM', 'Saturday, 10\u202fAM to 9:30\u202fPM.']",https://lh5.googleusercontent.com/p/AF1QipNxlMvS8RRZo29qamuzvpXZMRlN9sZfZjL0yUrV=w408-h306-k-no
31,98,Golmogjib,"160-19 Yeonghwa-dong, Jangan-gu, Suwon-si, Gyeonggi-do",0312426059,4.0,37.2910691,127.0143904,"['Sunday, 11\u202fAM to 9:30\u202fPM', 'Monday, 11\u202fAM to 9:30\u202fPM', 'Tuesday, 11\u202fAM to 9:30\u202fPM', 'Wednesday, 11\u202fAM to 9:30\u202fPM', 'Thursday, 11\u202fAM to 9:30\u202fPM', 'Friday, 11\u202fAM to 9:30\u202fPM', 'Saturday, 11\u202fAM to 9:30\u202fPM.']",https://lh5.googleusercontent.com/p/AF1QipP2i7ik0XlTrHxyubz2UAoxOV0tAo64R8VPmc-R=w426-h240-k-no
31,99,한성치킨,"85 Seongmo-ro 73beon-gil, Yangchon-eup, Gimpo-si, Gyeonggi-do",0319872744,4.2,37.6495052,126.6427931,['No Business Hours Available'],https://lh5.googleusercontent.com/p/AF1QipNLF9hqUvYuVmCG8JeWZcYGTIkJhd1Fos5hlguf=w408-h306-k-no
31,100,쉐프온테라스,"67 Wi city-ro, Siksa-dong, Ilsandong-gu, Goyang-si, Gyeonggi-do",No Phone Number,4.4,37.67808,126.810845,"['Sunday, 11:30\u202fAM to 10\u202fPM', 'Monday, 11:30\u202fAM to 10\u202fPM', 'Tuesday, 11:30\u202fAM to 10\u202fPM', 'Wednesday, 11:30\u202fAM to 10\u202fPM', 'Thursday, 11:30\u202fAM to 10\u202fPM', 'Friday, 11:30\u202fAM to 10\u202fPM', 'Saturday, 11:30\u202fAM to 10\u202fPM.']",https://lh5.googleusercontent.com/p/AF1QipPwLLCx4c_u702Um4ZLvkH8esNJKHLN2wUyg5zD=w408-h544-k-no
31,101,Gogiri Makguksu,"157 Leejongmu-ro, Suji-gu, Yongin-si, Gyeonggi-do",050713341107,4.2,37.3599874,127.040088,"['Sunday, 10:40\u202fAM to 9\u202fPM', 'Monday, 11\u202fAM to 9\u202fPM', 'Tuesday, Closed', 'Wednesday, 11\u202fAM to 9\u202fPM', 'Thursday, 11\u202fAM to 9\u202fPM', 'Friday, 11\u202fAM to 9\u202fPM', 'Saturday, 10:40\u202fAM to 9\u202fPM.']",https://lh5.googleusercontent.com/p/AF1QipN2H-v35_gxsb3HsVDhuvzyvA5rmex_FPqWEJ5E=w428-h240-k-no
31,102,황주생고기,"823-3 생연2동 Dongducheon-si, Gyeonggi-do",0318652026,4.2,37.9050283,127.0519203,"['Sunday, 10:30\u202fAM to 11:30\u202fPM', 'Monday, 10:30\u202fAM to 11:30\u202fPM', 'Tuesday, 10:30\u202fAM to 11:30\u202fPM', 'Wednesday, 10\u202fAM to 11:30\u202fPM', 'Thursday, 10:30\u202fAM to 11:15\u202fPM', 'Friday, 10:30\u202fAM to 11\u202fPM', 'Saturday, 10:30\u202fAM to 11:30\u202fPM.']",https://lh5.googleusercontent.com/p/AF1QipMlc_TDkHseAuHumzCbgTZdU5yDaOj6kPRigwU=w408-h306-k-no
31,103,Yumyeong Galmaegi,"469 Yanghyeon-ro, Jungwon-gu, Seongnam-si, Gyeonggi-do",0317522393,3.9,37.4169827,127.1343744,"['Sunday, 10:30\u202fAM to 10\u202fPM', 'Monday, Closed', 'Tuesday, 10\u202fAM to 10\u202fPM', 'Wednesday, 10\u202fAM to 10\u202fPM', 'Thursday, 10\u202fAM to 10\u202fPM', 'Friday, 10\u202fAM to 10\u202fPM', 'Saturday, 10\u202fAM to 10\u202fPM.']",https://lh5.googleusercontent.com/p/AF1QipPcAND0McpuC4wAxUb9Qy6v1yrxbccG36A2_KT-=w408-h544-k-no
31,104,Saengpotan,"56-3 Gumi-dong, Bundang-gu, Seongnam-si, Gyeonggi-do",0317141880,4.4,37.3468175,127.1113601,"['Sunday, 12 to 9:30\u202fPM', 'Monday, Closed', 'Tuesday, 3 to 9:30\u202fPM', 'Wednesday, 3 to 9:30\u202fPM', 'Thursday, 3 to 9:30\u202fPM', 'Friday, 3 to 9:30\u202fPM', 'Saturday, 12 to 9:30\u202fPM.']",https://lh5.googleusercontent.com/p/AF1QipOI8O0KqdTUY87ypgEXyGe5sZTOWyVxP8qBMzo=w408-h306-k-no
31,105,평남면옥,"824-27 생연2동 Dongducheon-si, Gyeonggi-do",0318652413,3.9,37.903835,127.0511712,"['Sunday, 11\u202fAM to 9\u202fPM', 'Monday, 11\u202fAM to 9\u202fPM', 'Tuesday, 11\u202fAM to 9\u202fPM', 'Wednesday, 11\u202fAM to 9\u202fPM', 'Thursday, 11\u202fAM to 9\u202fPM', 'Friday, 11\u202fAM to 9\u202fPM', 'Saturday, 11\u202fAM to 9\u202fPM.']",https://lh5.googleusercontent.com/p/AF1QipOWmbkt7VGBXIQp_1duTakiDIIQraBR5S0CF1cC=w408-h306-k-no
31,106,Dongison Mandu Dumplings,"376-2 Jikdong-ri, Soheul-eup, Pocheon-si, Gyeonggi-do",0315416870,4.0,37.7737275,127.1583333,"['Sunday, 11\u202fAM to 8\u202fPM', 'Monday, 11\u202fAM to 8\u202fPM', 'Tuesday, 11\u202fAM to 8\u202fPM', 'Wednesday, 11\u202fAM to 8\u202fPM', 'Thursday, 11\u202fAM to 8\u202fPM', 'Friday, 11\u202fAM to 8\u202fPM', 'Saturday, 11\u202fAM to 8\u202fPM.']",https://lh5.googleusercontent.com/p/AF1QipPfzxm7k6C-lPLOi8cOmYPFjAbv38WxFkszJyn9=w408-h306-k-no
31,107,Ola! Baegun Lake,"25 Uiil-ro, Hagui-dong, Uiwang-si, Gyeonggi-do",0314261008,4.1,37.3743067,127.0061923,"['Sunday, 11:30\u202fAM to 10\u202fPM', 'Monday, 11:30\u202fAM to 10\u202fPM', 'Tuesday, 11:30\u202fAM to 10\u202fPM', 'Wednesday, 11:30\u202fAM to 10\u202fPM', 'Thursday, 11:30\u202fAM to 10\u202fPM', 'Friday, 11:30\u202fAM to 10\u202fPM', 'Saturday, 11:30\u202fAM to 10\u202fPM.']",https://lh5.googleusercontent.com/p/AF1QipMQrWj4twMDqxyI2bfVockUB0S3dxzqqFmwpN8U=w426-h240-k-no
31,108,Boksoungwon,"Gyeonggi-do, Bucheon-si, Bucheon-ro 122beon-gil, 16 KR",0326114278,4.1,37.4949732,126.7859548,"['Sunday, Closed', 'Monday, Closed', 'Tuesday, Closed', 'Wednesday, Closed', 'Thursday, Closed', 'Friday, Closed', 'Saturday, Closed.']",https://lh5.googleusercontent.com/p/AF1QipNk5jS1hei1AmiaNsDd_kdRlEzaaKTugHExrd9i=w408-h306-k-no
31,109,초리골초계탕,"110 Chorigol-gil, Beobwon-eup, Paju-si, Gyeonggi-do",0319585250,3.5,37.8510742,126.8895676,"['Sunday, 11\u202fAM to 5\u202fPM', 'Monday, 11\u202fAM to 5\u202fPM', 'Tuesday, 11\u202fAM to 5\u202fPM', 'Wednesday, Closed', 'Thursday, 11\u202fAM to 5\u202fPM', 'Friday, 11\u202fAM to 5\u202fPM', 'Saturday, 11\u202fAM to 5\u202fPM.']",https://lh5.googleusercontent.com/p/AF1QipNNkzJhFZFInQMxOnXWJLgpaRuqqGoi0K1a1LXK=w408-h544-k-no
