areatype,index,name,address,phone_number,average_rating,latitude,longitude,business_hours,image_url
38,1,Geumbin Hoegwan,"8 Jangmyeong 4-gil, Suncheon-si, Jeollanam-do",0617445553,4.0,34.9515353,127.488053,"['Sunday, 11\u202fAM to 9\u202fPM', 'Monday, 11\u202fAM to 9\u202fPM', 'Tuesday, Closed', 'Wednesday, 11\u202fAM to 9\u202fPM', 'Thursday, 11\u202fAM to 9\u202fPM', 'Friday, 11\u202fAM to 9\u202fPM', 'Saturday, 11\u202fAM to 9\u202fPM.']",https://lh5.googleusercontent.com/p/AF1QipMXHxWfOkexPeid5Bezk_FBzf__AYl6ualr5Rx_=w408-h408-k-no
38,2,Hwangso Restaurant,"2 Bongsannam 3-gil, Yeosu-si, Jeollanam-do",0616428007,3.7,34.7342095,127.7200354,"['Sunday, 8:30\u202fAM to 8:20\u202fPM', 'Monday, 8:30\u202fAM to 8:20\u202fPM', 'Tuesday, 8:30\u202fAM to 8:20\u202fPM', 'Wednesday, 8:30\u202fAM to 8:20\u202fPM', 'Thursday, 8:30\u202fAM to 8:20\u202fPM', 'Friday, 8:30\u202fAM to 8:20\u202fPM', 'Saturday, 8:30\u202fAM to 8:20\u202fPM.']",https://lh5.googleusercontent.com/p/AF1QipOpkIUiirDAsuaxpn-S6R-eBDhUjLIRFLctGmW8=w408-h408-k-no
38,3,Bokchun Restaurant,"5-8 Gyodongnam 1-gil, Yeosu-si, Jeollanam-do",0616625260,4.2,34.7395717,127.7340793,"['Sunday, 9\u202fAM to 8\u202fPM', 'Monday, Closed', 'Tuesday, 9\u202fAM to 8\u202fPM', 'Wednesday, 9\u202fAM to 8\u202fPM', 'Thursday, 9\u202fAM to 8\u202fPM', 'Friday, 9\u202fAM to 8\u202fPM', 'Saturday, 9\u202fAM to 8\u202fPM.']",https://lh5.googleusercontent.com/p/AF1QipN7d7OeX0uTk-uBXDQxm3HAVZRJ7_Ahai2ktD8Q=w408-h306-k-no
38,4,맛나게장,"66-10 Singi-dong, Yeosu-si, Jeollanam-do",0616844992,3.9,34.7608566,127.6706451,"['Sunday, 10\u202fAM to 8\u202fPM', 'Monday, 10\u202fAM to 8\u202fPM', 'Tuesday, 10\u202fAM to 8\u202fPM', 'Wednesday, Closed', 'Thursday, 10\u202fAM to 8\u202fPM', 'Friday, 10\u202fAM to 8\u202fPM', 'Saturday, 10\u202fAM to 8\u202fPM.']",https://lh5.googleusercontent.com/p/AF1QipNU2FQ-_jFMfX6PRvFrOLJ9nrUGlToggnSWL3Zc=w426-h240-k-no
38,5,7공주식당여천점,"193-2 Hak-dong, Yeosu-si, Jeollanam-do",No Phone Number,4.1,34.7589952,127.6569997,"['Sunday, 11\u202fAM to 9\u202fPM', 'Monday, 11\u202fAM to 9\u202fPM', 'Tuesday, 11\u202fAM to 9\u202fPM', 'Wednesday, 11\u202fAM to 9\u202fPM', 'Thursday, 11\u202fAM to 9\u202fPM', 'Friday, 11\u202fAM to 9\u202fPM', 'Saturday, 11\u202fAM to 9\u202fPM.']",https://lh5.googleusercontent.com/p/AF1QipOGdiY2z72_IbohLDjMDa-asISoICFIAyhj23sP=w426-h240-k-no
38,6,새수궁가든,"937 Hahan-ri, Jukgok-myeon, Gokseong-gun, Jeollanam-do",0613628352,4.4,35.1913561,127.3752731,"['Sunday, 11\u202fAM to 7\u202fPM', 'Monday, 11\u202fAM to 7\u202fPM', 'Tuesday, 11\u202fAM to 7\u202fPM', 'Wednesday, 11\u202fAM to 7\u202fPM', 'Thursday, 11\u202fAM to 7\u202fPM', 'Friday, 11\u202fAM to 7\u202fPM', 'Saturday, 11\u202fAM to 7\u202fPM.']",https://lh5.googleusercontent.com/p/AF1QipPqTyuIxBWzb7cexknzfJBRueO75u_i537xpAFT=w408-h306-k-no
38,7,신안뻘낙지식당,"409 Honam-dong, Mokpo-si, Jeollanam-do",0612438181,3.7,34.7963618,126.3860628,"['Sunday, 9:30\u202fAM to 9:30\u202fPM', 'Monday, 9:30\u202fAM to 9:30\u202fPM', 'Tuesday, 9:30\u202fAM to 9:30\u202fPM', 'Wednesday, 9:30\u202fAM to 9:30\u202fPM', 'Thursday, 9:30\u202fAM to 9:30\u202fPM', 'Friday, 9:30\u202fAM to 9:30\u202fPM', 'Saturday, 9:30\u202fAM to 9:30\u202fPM.']",https://lh5.googleusercontent.com/p/AF1QipPIPVdth8RrlBM8_F-tCbPS2OC4fbr7jOBiZ6DG=w426-h240-k-no
38,8,청자횟집,Mokpo-si,0612420633,4.1,34.7859432,126.38521,"['Sunday, 11:30\u202fAM to 9\u202fPM', 'Monday, 11:30\u202fAM to 9\u202fPM', 'Tuesday, 11:30\u202fAM to 9\u202fPM', 'Wednesday, 11:30\u202fAM to 9\u202fPM', 'Thursday, 11:30\u202fAM to 9\u202fPM', 'Friday, 11:30\u202fAM to 9\u202fPM', 'Saturday, 11:30\u202fAM to 9\u202fPM.']",https://lh5.googleusercontent.com/p/AF1QipNy4l74jGdvlvRFUFlxEwBNh46nCX9OtZw71jJh=w426-h240-k-no
38,9,Clean Crab Village,"273-36 Bongsan-dong, Yeosu-si, Jeollanam-do",0616437855,4.0,34.7330669,127.722019,"['Sunday, 7\u202fAM to 9\u202fPM', 'Monday, 7\u202fAM to 9\u202fPM', 'Tuesday, 7\u202fAM to 9\u202fPM', 'Wednesday, 7\u202fAM to 9\u202fPM', 'Thursday, 7\u202fAM to 9\u202fPM', 'Friday, 7\u202fAM to 9\u202fPM', 'Saturday, 7\u202fAM to 9\u202fPM.']",https://lh5.googleusercontent.com/p/AF1QipOcWnqXeSYIAdsbMQghoiyAPQ7eMkr4jTNbyI0O=w408-h305-k-no
38,10,진우네집국수,"211-34 Gaeksa-ri, Damyang-eup, Damyang-gun, Jeollanam-do",0613815344,3.3,35.3241249,126.9843142,"['Sunday, 9\u202fAM to 8\u202fPM', 'Monday, 9\u202fAM to 8\u202fPM', 'Tuesday, 9\u202fAM to 8\u202fPM', 'Wednesday, 9\u202fAM to 8\u202fPM', 'Thursday, 9\u202fAM to 8\u202fPM', 'Friday, 9\u202fAM to 8\u202fPM', 'Saturday, 9\u202fAM to 8\u202fPM.']",https://lh5.googleusercontent.com/p/AF1QipN7CROhv8fvqnRqF_WAdC8j1Ny_vTC5jcA5SZ9o=w408-h306-k-no
38,11,고력당,"18-28 Wangji 3-gil, Suncheon-si, Jeollanam-do",0617270013,4.4,34.9705659,127.5261694,"['Sunday, 11:30\u202fAM to 3\u202fPM, 5 to 9\u202fPM', 'Monday, 11:30\u202fAM to 3\u202fPM, 5 to 9\u202fPM', 'Tuesday, 11:30\u202fAM to 3\u202fPM, 5 to 9\u202fPM', 'Wednesday, 11:30\u202fAM to 3\u202fPM, 5 to 9\u202fPM', 'Thursday, 11:30\u202fAM to 3\u202fPM, 5 to 9\u202fPM', 'Friday, 11:30\u202fAM to 3\u202fPM, 5 to 9\u202fPM', 'Saturday, 11:30\u202fAM to 3\u202fPM, 5 to 9\u202fPM.']",https://lh5.googleusercontent.com/p/AF1QipPvY_kXT3fgFUv_cDBt862U8th5xjLti9BPFixI=w408-h408-k-no
38,12,인동주마을,"5 Boksan-gil 12beon-gil, Mokpo-si, Jeollanam-do",0612844068,4.0,34.8038645,126.4367159,"['Sunday, 10:30\u202fAM to 10\u202fPM', 'Monday, 10:30\u202fAM to 10\u202fPM', 'Tuesday, 10:30\u202fAM to 10\u202fPM', 'Wednesday, 10:30\u202fAM to 10\u202fPM', 'Thursday, 10:30\u202fAM to 10\u202fPM', 'Friday, 10:30\u202fAM to 10\u202fPM', 'Saturday, 10:30\u202fAM to 10\u202fPM.']",https://lh5.googleusercontent.com/p/AF1QipOdYgmIHNED7SNx_ATUNUkJaiZ7NHVQ-UM_tSFi=w408-h306-k-no
38,13,강변장어구이,"436 Suncheonman-gil, Suncheon-si, Jeollanam-do",0617424233,4.1,34.8925937,127.5089489,"['Sunday, 10\u202fAM to 9\u202fPM', 'Monday, 10\u202fAM to 9\u202fPM', 'Tuesday, 10\u202fAM to 9\u202fPM', 'Wednesday, 10\u202fAM to 9\u202fPM', 'Thursday, 10\u202fAM to 9\u202fPM', 'Friday, 10\u202fAM to 9\u202fPM', 'Saturday, 10\u202fAM to 9\u202fPM.']",https://lh5.googleusercontent.com/p/AF1QipPxIesmTSnk9XqEplNI7ENJceXNlmgQIMSWSVX-=w408-h306-k-no
38,14,Central Restaurant,Kohung,0618327757,3.4,34.5104913,127.3210731,['No Business Hours Available'],https://lh5.googleusercontent.com/p/AF1QipP5nT57i9asVECG-XQFguFFPR2gidJZ-DVZfWel=w408-h306-k-no
38,15,뜰채,"538-78 Jukgyo-dong, Mokpo-si, Jeollanam-do",No Phone Number,3.7,34.7996877,126.3679562,"['Sunday, 10:30\u202fAM to 9\u202fPM', 'Monday, Closed', 'Tuesday, 10:30\u202fAM to 9\u202fPM', 'Wednesday, 10:30\u202fAM to 9\u202fPM', 'Thursday, 10:30\u202fAM to 9\u202fPM', 'Friday, 10:30\u202fAM to 9\u202fPM', 'Saturday, 10:30\u202fAM to 9\u202fPM.']",https://lh5.googleusercontent.com/p/AF1QipOXDhx6OtpUdXZ-teWprOlLarDqHRgVqIat_Pu2=w408-h544-k-no
38,16,덕인갈비,"85-2 Damju-ri, Damyang-eup, Damyang-gun, Jeollanam-do",No Phone Number,4.3,35.3211303,126.9817234,"['Sunday, 11\u202fAM to 9\u202fPM', 'Monday, 11\u202fAM to 9\u202fPM', 'Tuesday, 11\u202fAM to 9\u202fPM', 'Wednesday, 11\u202fAM to 9\u202fPM', 'Thursday, 11\u202fAM to 9\u202fPM', 'Friday, 11\u202fAM to 9\u202fPM', 'Saturday, 11\u202fAM to 9\u202fPM.']",https://lh5.googleusercontent.com/p/AF1QipOgWRuonIX4kyxRFS9HKK32HOh1RM9YvN22S1Dq=w408-h306-k-no
38,17,Ssanggyo Sutbul Galbi,"212 Songgangjeong-ro, Bongsan-myeon, Damyang-gun, Jeollanam-do",050713980014,4.2,35.2532105,126.9521294,"['Sunday, 11\u202fAM to 8:20\u202fPM', 'Monday, 11\u202fAM to 8:20\u202fPM', 'Tuesday, 11\u202fAM to 8:20\u202fPM', 'Wednesday, 11\u202fAM to 8:20\u202fPM', 'Thursday, 11\u202fAM to 8:20\u202fPM', 'Friday, 11\u202fAM to 8:20\u202fPM', 'Saturday, 11\u202fAM to 8:20\u202fPM.']",https://lh5.googleusercontent.com/p/AF1QipN-fINM_9n1Hu6U3h2sjcOKikn_-d1GpKJbRELx=w426-h240-k-no
38,18,미로횟집,"Jeollanam-do, Yeosu-si, Sicheongseo 3-gil, 18 KR",0616823772,4.3,34.7576472,127.6567602,"['Sunday, Closed', 'Monday, 5 to 10\u202fPM', 'Tuesday, 5 to 10\u202fPM', 'Wednesday, 5 to 10\u202fPM', 'Thursday, 5 to 10\u202fPM', 'Friday, 5 to 10\u202fPM', 'Saturday, 5 to 10\u202fPM.']",https://lh5.googleusercontent.com/p/AF1QipMglXqtGoZn3TtfJY036XJHlsYkz2I--YR_XvdW=w408-h544-k-no
38,19,서우담횟집,"130-46 Namsan-ro, Jindo-eup, Jindo-gun, Jeollanam-do",0615449494,4.0,34.4771652,126.268257,"['Sunday, 10:30\u202fAM to 9\u202fPM', 'Monday, 10:30\u202fAM to 9\u202fPM', 'Tuesday, 10:30\u202fAM to 9\u202fPM', 'Wednesday, 10:30\u202fAM to 9\u202fPM', 'Thursday, 10:30\u202fAM to 9\u202fPM', 'Friday, 10:30\u202fAM to 9\u202fPM', 'Saturday, 10:30\u202fAM to 9\u202fPM.']",https://lh5.googleusercontent.com/p/AF1QipOIOfKeefhgApeZfLuFtVl6UE45MNvcR6-dttXl=w408-h306-k-no
38,20,해남해장국,"3 Samhak-ro 16beon-gil, 목원동 Mokpo-si, Jeollanam-do",0612440268,3.6,34.7898966,126.3875318,"['Sunday, 7\u202fAM to 10\u202fPM', 'Monday, 7\u202fAM to 10\u202fPM', 'Tuesday, 7\u202fAM to 10\u202fPM', 'Wednesday, 7\u202fAM to 10\u202fPM', 'Thursday, 7\u202fAM to 10\u202fPM', 'Friday, 7\u202fAM to 10\u202fPM', 'Saturday, 7\u202fAM to 10\u202fPM.']",https://lh5.googleusercontent.com/p/AF1QipOSywyXrjsx855PrHJtqeWjxLphfrieLTU_4-Nf=w408-h306-k-no
38,21,홍어1번지,Naju,0613327444,4.0,34.9997587,126.7104458,"['Sunday, 10:30\u202fAM to 9\u202fPM', 'Monday, Closed', 'Tuesday, 10:30\u202fAM to 9\u202fPM', 'Wednesday, 10:30\u202fAM to 9\u202fPM', 'Thursday, 10:30\u202fAM to 9\u202fPM', 'Friday, 10:30\u202fAM to 9\u202fPM', 'Saturday, 10:30\u202fAM to 9\u202fPM.']",https://lh5.googleusercontent.com/p/AF1QipOoVej3TMVXzdHmFzWE06y64TVWP18-ueLha2n1=w426-h240-k-no
38,22,삼학집,"200-3 Isunsingwangjang-ro, Yeosu-si, Jeollanam-do",0616620261,3.5,34.7390964,127.7452481,"['Sunday, 9\u202fAM to 9\u202fPM', 'Monday, 9\u202fAM to 9\u202fPM', 'Tuesday, 9\u202fAM to 9\u202fPM', 'Wednesday, 9\u202fAM to 9\u202fPM', 'Thursday, 9\u202fAM to 9\u202fPM', 'Friday, 9\u202fAM to 9\u202fPM', 'Saturday, 9\u202fAM to 9\u202fPM.']",https://lh5.googleusercontent.com/p/AF1QipPC3VVcHk0mbcmua8EGxOwiWrhSJrAOJUrPAeqx=w408-h272-k-no
38,23,무안식당,"187-4 Seongnae-ri, Muan-eup, Muan-gun, Jeollanam-do",0614531919,3.7,34.9904276,126.4767307,"['Sunday, 11\u202fAM to 9\u202fPM', 'Monday, 11\u202fAM to 9\u202fPM', 'Tuesday, 11\u202fAM to 9\u202fPM', 'Wednesday, 11\u202fAM to 9\u202fPM', 'Thursday, 11\u202fAM to 9\u202fPM', 'Friday, 11\u202fAM to 9\u202fPM', 'Saturday, 11\u202fAM to 9\u202fPM.']",https://lh5.googleusercontent.com/p/AF1QipM-bliZzN8YHumQGreaU9nkofk0VRMIypyfUgVN=w408-h905-k-no
38,24,어촌마을,신월동 510-1번지 1층 양천구 서울특별시 KR,026908658,4.2,37.5222575,126.844042,"['Sunday, 11\u202fAM to 9:30\u202fPM', 'Monday, 11\u202fAM to 9:30\u202fPM', 'Tuesday, 11\u202fAM to 9:30\u202fPM', 'Wednesday, 11\u202fAM to 9:30\u202fPM', 'Thursday, 11\u202fAM to 9:30\u202fPM', 'Friday, 11\u202fAM to 9:30\u202fPM', 'Saturday, 11\u202fAM to 9:30\u202fPM.']",https://lh5.googleusercontent.com/p/AF1QipOwdFv16h--l6UBb8Jhor8McsE155xyeC2_2jXA=w408-h306-k-no
38,25,수복식당,"42 Geonsan-ro, Jangheung-eup, Jangheung-gun, Jeollanam-do",0618638881,4.1,34.6803074,126.9082037,"['Sunday, 10\u202fAM to 10\u202fPM', 'Monday, 10\u202fAM to 10\u202fPM', 'Tuesday, 10\u202fAM to 10\u202fPM', 'Wednesday, 10\u202fAM to 10\u202fPM', 'Thursday, 10\u202fAM to 10\u202fPM', 'Friday, 10\u202fAM to 10\u202fPM', 'Saturday, 10\u202fAM to 10\u202fPM.']",https://lh5.googleusercontent.com/p/AF1QipOhLRK8WytknVfJQCU5dzcQHGTeMEWADXreZ-mg=w408-h306-k-no
38,26,아나고,"1095-7 옥암동 Mokpo-si, Jeollanam-do",0612834355,4.2,34.8000812,126.4377325,"['Sunday, 11:30\u202fAM to 10\u202fPM', 'Monday, 11:30\u202fAM to 10\u202fPM', 'Tuesday, 11:30\u202fAM to 10\u202fPM', 'Wednesday, 11:30\u202fAM to 10\u202fPM', 'Thursday, 11:30\u202fAM to 10\u202fPM', 'Friday, 11:30\u202fAM to 10\u202fPM', 'Saturday, 11:30\u202fAM to 10\u202fPM.']",https://lh5.googleusercontent.com/p/AF1QipMxUYUHXVw6agkRxkKaXXPBqJhvVG19nYFrxlSS=w426-h240-k-no
38,27,장원회관,"Jeollanam-do, Gwangyang-si, Gwangyang-eup, Eumnae-ri, 239-32 KR",0617616006,4.2,34.9757074,127.5852943,"['Sunday, 11\u202fAM to 9:30\u202fPM', 'Monday, 11\u202fAM to 9:30\u202fPM', 'Tuesday, 11\u202fAM to 9:30\u202fPM', 'Wednesday, 11\u202fAM to 9:30\u202fPM', 'Thursday, 11\u202fAM to 9:30\u202fPM', 'Friday, 11\u202fAM to 9:30\u202fPM', 'Saturday, 11\u202fAM to 9:30\u202fPM.']",https://lh5.googleusercontent.com/p/AF1QipPMJhqkROagOxbogNixxflGBTFH3LU6s823k4k7=w408-h306-k-no
38,28,성내식당,"75 Cheonhoyet-gil, Gangdong-gu, Seoul",024879459,4.4,37.53559,127.1248056,"['Sunday, 11:30\u202fAM to 9:30\u202fPM', 'Monday, 11:30\u202fAM to 9:30\u202fPM', 'Tuesday, 11:30\u202fAM to 9:30\u202fPM', 'Wednesday, 11:30\u202fAM to 9:30\u202fPM', 'Thursday, 11:30\u202fAM to 9:30\u202fPM', 'Friday, 11:30\u202fAM to 9:30\u202fPM', 'Saturday, 11:30\u202fAM to 9:30\u202fPM.']",https://lh5.googleusercontent.com/p/AF1QipOhGexvvKBeZOOclluHwfwfDx6aOLGiZXBN66OS=w408-h306-k-no
38,29,Hamnam Myeonok,"435 Jungang-dong, Yeosu-si, Jeollanam-do",0616622581,3.6,34.740138,127.7365006,"['Sunday, 10\u202fAM to 9\u202fPM', 'Monday, 10\u202fAM to 9\u202fPM', 'Tuesday, 10\u202fAM to 9\u202fPM', 'Wednesday, 10\u202fAM to 9\u202fPM', 'Thursday, 10\u202fAM to 9\u202fPM', 'Friday, 10\u202fAM to 9\u202fPM', 'Saturday, 10\u202fAM to 9\u202fPM.']",https://lh5.googleusercontent.com/p/AF1QipOKcjNFM4ZG5XrBcbiIxjWaE0C4iwIfI2BHAwzF=w408-h306-k-no
38,30,Awabi,"494-17 Geumseong-ri, Dolsan-eup, Yeosu-si, Jeollanam-do",0616442211,4.4,34.5937947,127.7666404,"['Sunday, Closed', 'Monday, 12 to 7\u202fPM', 'Tuesday, 12 to 7\u202fPM', 'Wednesday, 12 to 7\u202fPM', 'Thursday, 12 to 7\u202fPM', 'Friday, 12 to 7\u202fPM', 'Saturday, 12 to 7\u202fPM.']",https://lh5.googleusercontent.com/p/AF1QipPIngrDTV1oJr-kQmYHAai6VL6TUZ-oONrw449e=w408-h306-k-no
38,31,송학낙지회관,"971-1 Sang-dong, Mokpo-si, Jeollanam-do",0612836707,3.9,34.7984701,126.4221784,"['Sunday, 11\u202fAM to 9\u202fPM', 'Monday, 11\u202fAM to 9\u202fPM', 'Tuesday, 11\u202fAM to 9\u202fPM', 'Wednesday, 11\u202fAM to 9\u202fPM', 'Thursday, 11\u202fAM to 9\u202fPM', 'Friday, 11\u202fAM to 9\u202fPM', 'Saturday, 11\u202fAM to 9\u202fPM.']",https://lh5.googleusercontent.com/p/AF1QipPzxNHhg_MYDHQtBkyY6d3ayjgJG7A60srTCfnm=w426-h240-k-no
38,32,수림정,"154 Jingak-ro, Hwasun-eup, Hwasun-gun, Jeollanam-do",0613746560,3.9,35.0647222,126.9875,"['Sunday, 11:30\u202fAM to 9:30\u202fPM', 'Monday, 11:30\u202fAM to 9:30\u202fPM', 'Tuesday, 11:30\u202fAM to 9:30\u202fPM', 'Wednesday, 11:30\u202fAM to 9:30\u202fPM', 'Thursday, 11:30\u202fAM to 9:30\u202fPM', 'Friday, 11:30\u202fAM to 9:30\u202fPM', 'Saturday, 11:30\u202fAM to 9:30\u202fPM.']",https://lh5.googleusercontent.com/p/AF1QipMUI1n9GWfJ0i6-bWMFm1isE-gx0YeWJixXK-zR=w426-h240-k-no
38,33,61호 명태전,"Palma-ro, Suncheon-si, Jeollanam-do",01066222283,4.0,34.9456799,127.4953336,"['Sunday, 11\u202fAM to 9\u202fPM', 'Monday, 11\u202fAM to 9\u202fPM', 'Tuesday, 11\u202fAM to 9\u202fPM', 'Wednesday, 11\u202fAM to 9\u202fPM', 'Thursday, 11\u202fAM to 9\u202fPM', 'Friday, 11\u202fAM to 9\u202fPM', 'Saturday, 11\u202fAM to 9\u202fPM.']",https://lh5.googleusercontent.com/p/AF1QipM6ofGC0qep6Zb4jYVHgQQ8RKugpMCAlBsMQU_q=w408-h306-k-no
38,34,남흥회관,"51-1 Jangcheon-dong, Suncheon-si, Jeollanam-do",0617430502,4.3,34.9513233,127.4867201,"['Sunday, 11\u202fAM to 10\u202fPM', 'Monday, 11\u202fAM to 10\u202fPM', 'Tuesday, 11\u202fAM to 10\u202fPM', 'Wednesday, 11\u202fAM to 10\u202fPM', 'Thursday, 11\u202fAM to 10\u202fPM', 'Friday, 11\u202fAM to 10\u202fPM', 'Saturday, 11\u202fAM to 10\u202fPM.']",https://lh5.googleusercontent.com/p/AF1QipP0JUYJ_ejL_KmhLGj1VQCbi7h7crEvN463F2Wg=w408-h306-k-no
38,35,Gyeongdo Hoegwan,"2-2 Daegyeongdo-gil, Gyeongho-dong, Yeosu-si, Jeollanam-do",0616660044,4.0,34.7217169,127.7218834,"['Sunday, 11\u202fAM to 9:30\u202fPM', 'Monday, 11\u202fAM to 9:30\u202fPM', 'Tuesday, 11\u202fAM to 9:30\u202fPM', 'Wednesday, 11\u202fAM to 9:30\u202fPM', 'Thursday, 11\u202fAM to 9:30\u202fPM', 'Friday, 11\u202fAM to 9:30\u202fPM', 'Saturday, 11\u202fAM to 9:30\u202fPM.']",https://lh5.googleusercontent.com/p/AF1QipOnxSt8pmqW-zhtpynXDU_wL-QDKSpCOGfmBdcp=w408-h306-k-no
38,36,봉성식당,Gurve,0617827262,4.3,35.208954,127.4686921,"['Sunday, Closed', 'Monday, 8\u202fAM to 8\u202fPM', 'Tuesday, 8\u202fAM to 8\u202fPM', 'Wednesday, 8\u202fAM to 8\u202fPM', 'Thursday, 8\u202fAM to 8\u202fPM', 'Friday, 8\u202fAM to 8\u202fPM', 'Saturday, 8\u202fAM to 8\u202fPM.']",https://lh5.googleusercontent.com/p/AF1QipMQlm5Yz1uczTs0sYyWAL_xdLrsgkGTkAdQLYid=w408-h544-k-no
38,37,호산정,"627-2 Yeondong-ri, Haenam-eup, Haenam-gun, Jeollanam-do",0615348844,4.3,34.5525213,126.6043154,"['Sunday, 11\u202fAM to 9\u202fPM', 'Monday, 11\u202fAM to 9\u202fPM', 'Tuesday, 11\u202fAM to 9\u202fPM', 'Wednesday, 11\u202fAM to 9\u202fPM', 'Thursday, 11\u202fAM to 9\u202fPM', 'Friday, 11\u202fAM to 9\u202fPM', 'Saturday, 11\u202fAM to 9\u202fPM.']",https://lh5.googleusercontent.com/p/AF1QipPIIhtF47poMFRxQIr7Dk2O2medfCSjripA3VOx=w408-h274-k-no
38,38,담양애꽃,"Jeollanam-do, Damyang-gun, Bongsan-myeon, Gigok-ri, 293-1 KR",No Phone Number,4.2,35.2729502,126.9729632,"['Sunday, 11\u202fAM to 8:50\u202fPM', 'Monday, 11:20\u202fAM to 8:50\u202fPM', 'Tuesday, 11:20\u202fAM to 3\u202fPM', 'Wednesday, Closed', 'Thursday, 11:20\u202fAM to 8:50\u202fPM', 'Friday, 11:20\u202fAM to 8:50\u202fPM', 'Saturday, 11\u202fAM to 8:50\u202fPM.']",https://lh5.googleusercontent.com/p/AF1QipMVNnJmMoD-nFg0iS-BRIUgVAvD5PczYDAo4WQ_=w408-h306-k-no
38,39,순심원,"442-2 Gyo-dong, Yeosu-si, Jeollanam-do",0619205482,3.4,34.7397818,127.7344354,"['Sunday, 11\u202fAM to 8\u202fPM', 'Monday, 11\u202fAM to 8\u202fPM', 'Tuesday, 11\u202fAM to 8\u202fPM', 'Wednesday, 11\u202fAM to 8\u202fPM', 'Thursday, 11\u202fAM to 3\u202fPM', 'Friday, Closed', 'Saturday, 11\u202fAM to 8\u202fPM.']",https://lh5.googleusercontent.com/p/AF1QipO33YPgV-Du16jPB6euuMryR5F8h4_8jSv8Trwy=w408-h408-k-no
38,40,Yudal Kongmul Bean Noodle,"11-5 Daean-dong, Mokpo-si, Jeollanam-do",0612445234,4.2,34.7923435,126.3843962,"['Sunday, 8\u202fAM to 6\u202fPM', 'Monday, 8\u202fAM to 6\u202fPM', 'Tuesday, Closed', 'Wednesday, 8\u202fAM to 6\u202fPM', 'Thursday, 8\u202fAM to 6\u202fPM', 'Friday, 8\u202fAM to 6\u202fPM', 'Saturday, 8\u202fAM to 6\u202fPM.']",https://lh5.googleusercontent.com/p/AF1QipM4q5am9RzV1WjhRg2oPtmCEqMZqVaG_FpQ8hGj=w408-h306-k-no
38,41,다다한정식,"89 Yeomun 1-ro, Yeosu-si, Jeollanam-do",0616520061,3.6,34.7564937,127.7023463,"['Sunday, 11:30\u202fAM to 3\u202fPM, 5 to 9\u202fPM', 'Monday, 11:30\u202fAM to 3\u202fPM, 5 to 9\u202fPM', 'Tuesday, 11:30\u202fAM to 3\u202fPM, 5 to 9\u202fPM', 'Wednesday, 11:30\u202fAM to 3\u202fPM, 5 to 9\u202fPM', 'Thursday, 11:30\u202fAM to 3\u202fPM, 5 to 9\u202fPM', 'Friday, 11:30\u202fAM to 3\u202fPM, 5 to 9\u202fPM', 'Saturday, 11:30\u202fAM to 3\u202fPM, 5 to 9\u202fPM.']",https://lh5.googleusercontent.com/p/AF1QipN07ReNJq3uBKDzGb5zdYUbWnhIAGkuOCs383Xd=w408-h306-k-no
38,42,돌실숯불회관,"212-6 Seokgok-ri, Seokgok-myeon, Gokseong-gun",0613631457,4.1,35.1316727,127.2536682,"['Sunday, 10:30\u202fAM to 7\u202fPM', 'Monday, 10\u202fAM to 7\u202fPM', 'Tuesday, 10:30\u202fAM to 7\u202fPM', 'Wednesday, 10\u202fAM to 7\u202fPM', 'Thursday, 10\u202fAM to 7\u202fPM', 'Friday, 10:30\u202fAM to 7\u202fPM', 'Saturday, 10:30\u202fAM to 7\u202fPM.']",https://lh5.googleusercontent.com/p/AF1QipOkLQdhc-7NAwz2ynT9aIm3xeTgiYjIXmyNrwSt=w408-h306-k-no
38,43,홍길동선어회,Mokpo-si,0612838540,4.4,34.8007257,126.4229451,"['Sunday, 11\u202fAM to 9\u202fPM', 'Monday, 11\u202fAM to 9\u202fPM', 'Tuesday, 11\u202fAM to 9\u202fPM', 'Wednesday, 11\u202fAM to 9\u202fPM', 'Thursday, 11\u202fAM to 9\u202fPM', 'Friday, 11\u202fAM to 9\u202fPM', 'Saturday, 11\u202fAM to 9\u202fPM.']",https://lh5.googleusercontent.com/p/AF1QipN_Jggtt1vDe1vm_l6EBD30S-3U9PNoumcg__oM=w408-h544-k-no
38,44,Daedae Seonchangjip,"572-1 Daedae-dong, Suncheon-si, Jeollanam-do",0617413157,4.0,34.8894497,127.5090459,"['Sunday, 8:30\u202fAM to 9\u202fPM', 'Monday, 8:30\u202fAM to 9\u202fPM', 'Tuesday, 8:30\u202fAM to 9\u202fPM', 'Wednesday, 8:30\u202fAM to 9\u202fPM', 'Thursday, 8:30\u202fAM to 9\u202fPM', 'Friday, 8:30\u202fAM to 9\u202fPM', 'Saturday, 8:30\u202fAM to 9\u202fPM.']",https://lh5.googleusercontent.com/p/AF1QipO_1U1qzrPy3icvHF7L7y67InoLvjlzoImLA0cl=w408-h307-k-no
38,45,Haetae Sikdang,"6 Seoseongan-gil, Gangjin-eup, Gangjin-gun, Jeollanam-do",0614342486,3.4,34.6391682,126.7672317,"['Sunday, 11\u202fAM to 10\u202fPM', 'Monday, 11\u202fAM to 10\u202fPM', 'Tuesday, 11\u202fAM to 10\u202fPM', 'Wednesday, 11\u202fAM to 10\u202fPM', 'Thursday, 11\u202fAM to 10\u202fPM', 'Friday, 11\u202fAM to 10\u202fPM', 'Saturday, 11\u202fAM to 10\u202fPM.']",https://lh5.googleusercontent.com/p/AF1QipMulvlbWhMT0lupog_53F5hBnEsXDckWL1axb-d=w408-h306-k-no
38,46,Gungjeon,"26 Okju-gil, Jindo-eup, Jindo-gun, Jeollanam-do",0615441500,3.5,34.4833742,126.2654571,"['Sunday, 11\u202fAM to 9\u202fPM', 'Monday, 11\u202fAM to 9\u202fPM', 'Tuesday, 11\u202fAM to 9\u202fPM', 'Wednesday, 11\u202fAM to 9\u202fPM', 'Thursday, 11\u202fAM to 9\u202fPM', 'Friday, 11\u202fAM to 9\u202fPM', 'Saturday, 11\u202fAM to 9\u202fPM.']",https://lh5.googleusercontent.com/p/AF1QipNcTMDHm2Znmm0uii9ZxTKjRfIf3jeZ74XrvPX-=w408-h306-k-no
38,47,당골식당,"85 Jwasa-ri, Sandong-myeon, Gurye-gun, Jeollanam-do",0617831689,4.2,35.314113,127.486992,"['Sunday, 12 to 8\u202fPM', 'Monday, 12 to 8\u202fPM', 'Tuesday, 9\u202fAM to 10\u202fPM', 'Wednesday, 12 to 8\u202fPM', 'Thursday, 12 to 8\u202fPM', 'Friday, 12 to 8\u202fPM', 'Saturday, 12 to 8\u202fPM.']",https://lh5.googleusercontent.com/p/AF1QipP09VaAgidPOWiWHfCJKiu6RRXp3VAJfUZa3csd=w408-h306-k-no
38,48,Rotary Restaurant,"2-1 Seogyo 3-gil, Yeosu-si, Jeollanam-do",0616422156,4.3,34.7414852,127.7275584,"['Sunday, 8\u202fAM to 7\u202fPM', 'Monday, 8\u202fAM to 7\u202fPM', 'Tuesday, 8\u202fAM to 7\u202fPM', 'Wednesday, 8\u202fAM to 7\u202fPM', 'Thursday, 8\u202fAM to 7\u202fPM', 'Friday, 8\u202fAM to 7\u202fPM', 'Saturday, 8\u202fAM to 7\u202fPM.']",https://lh5.googleusercontent.com/p/AF1QipNYIQ_8YjjffNr--zaurUo5-NRe2QKpTO4txfU-=w408-h544-k-no
38,49,옛날진미국수,"26 Gaeksa 3-gil, Damyang-eup, Damyang-gun, Jeollanam-do",0613820984,3.7,35.3241922,126.9837691,"['Sunday, 10\u202fAM to 7\u202fPM', 'Monday, 10\u202fAM to 7\u202fPM', 'Tuesday, 10\u202fAM to 7\u202fPM', 'Wednesday, 10\u202fAM to 7\u202fPM', 'Thursday, 10\u202fAM to 7\u202fPM', 'Friday, 10\u202fAM to 7\u202fPM', 'Saturday, 10\u202fAM to 7\u202fPM.']",https://lh5.googleusercontent.com/p/AF1QipPEs1KDY-nvKdfpjb-62XwKBqmshfKv-jYPJ4xl=w408-h306-k-no
38,50,Daesupgol Nongwon,"54 Hakdong-gil, Suncheon-si, Jeollanam-do",0617411804,4.3,34.9044743,127.5076877,"['Sunday, 11:30\u202fAM to 9:30\u202fPM', 'Monday, 11:30\u202fAM to 9:30\u202fPM', 'Tuesday, 11:30\u202fAM to 9:30\u202fPM', 'Wednesday, 11:30\u202fAM to 9:30\u202fPM', 'Thursday, 11:30\u202fAM to 9:30\u202fPM', 'Friday, 11:30\u202fAM to 9:30\u202fPM', 'Saturday, 11:30\u202fAM to 9:30\u202fPM.']",https://lh5.googleusercontent.com/p/AF1QipMeR4RT16BfIeSdjGxnL6aPUeymzBOyDDRxCEZ-=w408-h724-k-no
38,51,삼거리농원,"334-5 Yeondong-ri, Bongsan-myeon, Damyang-gun, Jeollanam-do",0613813309,3.9,35.2666254,126.9608546,"['Sunday, 11\u202fAM to 2\u202fPM, 5 to 9\u202fPM', 'Monday, Closed', 'Tuesday, 11\u202fAM to 9\u202fPM', 'Wednesday, 11\u202fAM to 9\u202fPM', 'Thursday, 11\u202fAM to 9\u202fPM', 'Friday, 11\u202fAM to 9\u202fPM', 'Saturday, 11\u202fAM to 9\u202fPM.']",https://lh5.googleusercontent.com/p/AF1QipMdtjPbrR0ZSgFlRi3bakOLEB97SRFf4YJsilAt=w426-h240-k-no
38,52,창평 원조 시장국밥,"209-1 Changpyeong-ri, Changpyeong-myeon, Damyang-gun, Jeollanam-do",0613834424,4.3,35.2380666,127.0148893,"['Sunday, 8:30\u202fAM to 8:30\u202fPM', 'Monday, 8:30\u202fAM to 8:30\u202fPM', 'Tuesday, 8:30\u202fAM to 8:30\u202fPM', 'Wednesday, 8:30\u202fAM to 8:30\u202fPM', 'Thursday, 8:30\u202fAM to 8:30\u202fPM', 'Friday, 8:30\u202fAM to 8:30\u202fPM', 'Saturday, 8:30\u202fAM to 8:30\u202fPM.']",https://lh5.googleusercontent.com/p/AF1QipOixrkcu2pdhWeNdM90hueexTreilzr6t5PehU=w408-h306-k-no
38,53,Sooingwan,Gangjin,0614321027,3.9,34.7142643,126.8156433,"['Sunday, 11\u202fAM to 7\u202fPM', 'Monday, 11\u202fAM to 7\u202fPM', 'Tuesday, 11\u202fAM to 7\u202fPM', 'Wednesday, Closed', 'Thursday, 11\u202fAM to 7\u202fPM', 'Friday, 11\u202fAM to 7\u202fPM', 'Saturday, 11\u202fAM to 7\u202fPM.']",https://lh5.googleusercontent.com/p/AF1QipM_0A0xSttf5KPL5AMCQDI3OMGvAbUtRC75grn0=w408-h306-k-no
38,54,Myeongdong Gejang,"Jeollanam-do, Yeosu-si, Bongsan-dong, 봉산동 273-8",0616423735,3.9,34.732652,127.721666,['No Business Hours Available'],https://lh5.googleusercontent.com/p/AF1QipNRjdP_o4fu2Re4sgQU6rub9eO2X8dUNAAVAfBC=w408-h306-k-no
38,55,죽림원,"Gasan-gil, Damyang-gun",0613831292,3.4,35.3367537,126.9481996,"['Sunday, 11\u202fAM to 9\u202fPM', 'Monday, 11\u202fAM to 9\u202fPM', 'Tuesday, 11\u202fAM to 9\u202fPM', 'Wednesday, 11\u202fAM to 9\u202fPM', 'Thursday, 11\u202fAM to 9\u202fPM', 'Friday, 11\u202fAM to 9\u202fPM', 'Saturday, 11\u202fAM to 9\u202fPM.']",https://lh5.googleusercontent.com/p/AF1QipN57k_3CBikn-t9_nDGUqrUhsDMmkdvPSWONaLN=w408-h306-k-no
38,56,선유식당,Hampyeong,0613244005,3.9,35.0628861,126.5239698,"['Sunday, 10:30\u202fAM to 8:30\u202fPM', 'Monday, 10:30\u202fAM to 8:30\u202fPM', 'Tuesday, 10:30\u202fAM to 8:30\u202fPM', 'Wednesday, 10:30\u202fAM to 8:30\u202fPM', 'Thursday, 10:30\u202fAM to 8:30\u202fPM', 'Friday, 10:30\u202fAM to 8:30\u202fPM', 'Saturday, 8\u202fAM to 9\u202fPM.']",https://lh5.googleusercontent.com/p/AF1QipOqDsbCQ531NSqV0k8_DFjOXE05FA-92kvwSoSd=w408-h306-k-no
38,57,골목식당,"648-41 Beopseong-ri, Beopseong-myeon, Yeonggwang-gun, Jeollanam-do",0613564270,3.9,35.3617089,126.4449681,"['Sunday, 10\u202fAM to 8\u202fPM', 'Monday, 10\u202fAM to 8\u202fPM', 'Tuesday, 10\u202fAM to 8\u202fPM', 'Wednesday, 10\u202fAM to 8\u202fPM', 'Thursday, 10\u202fAM to 8\u202fPM', 'Friday, 10\u202fAM to 8\u202fPM', 'Saturday, 10\u202fAM to 8\u202fPM.']",https://lh5.googleusercontent.com/p/AF1QipPFamjO4w0c-7_lVGnKjX1gqsrHwfMPaGowVeaU=w506-h240-k-no
38,58,쌍암기사식당,"444-1 Seopyeong-ri, Seungju-eup, Suncheon-si, Jeollanam-do",0617545027,3.7,35.0119924,127.3858403,"['Sunday, 7\u202fAM to 8\u202fPM', 'Monday, 7\u202fAM to 8\u202fPM', 'Tuesday, 7\u202fAM to 8\u202fPM', 'Wednesday, 7\u202fAM to 8\u202fPM', 'Thursday, 7\u202fAM to 8\u202fPM', 'Friday, 7\u202fAM to 8\u202fPM', 'Saturday, 7\u202fAM to 8\u202fPM.']",https://lh5.googleusercontent.com/p/AF1QipMtLzP6Ltwv9aRkAsHd45k0zG0hO8u5nSPilmMA=w408-h306-k-no
38,59,평화식당,"34 Byeollyangjang-gil, Byeollyang-myeon, Suncheon-si, Jeollanam-do",No Phone Number,4.0,34.8737928,127.451825,['No Business Hours Available'],https://lh5.googleusercontent.com/p/AF1QipMF92edydObTFyYch9zCSgBAJUX2vfZzNb-8olH=w408-h544-k-no
38,60,오케이목장가든,"Jeollanam-do, Hwasun-gun, Hwasun-eup, Anyangsan-ro, 72 KR",0613729433,4.0,35.0705738,126.999455,"['Sunday, 11:30\u202fAM to 9\u202fPM', 'Monday, Closed', 'Tuesday, 11:30\u202fAM to 9\u202fPM', 'Wednesday, 11:30\u202fAM to 8:30\u202fPM', 'Thursday, 11:30\u202fAM to 9\u202fPM', 'Friday, 11:30\u202fAM to 9\u202fPM', 'Saturday, 11:30\u202fAM to 8:30\u202fPM.']",https://lh5.googleusercontent.com/p/AF1QipMSWKHIxFTd7SaJrrhTu9-Fx3R9CfsXtyTBGjge=w408-h306-k-no
38,61,산골식당,"450-18 중계4동 Nowon-gu, Seoul",No Phone Number,4.2,37.6575977,127.0743545,"['Sunday, 11\u202fAM to 9\u202fPM', 'Monday, 11\u202fAM to 9\u202fPM', 'Tuesday, 11\u202fAM to 9\u202fPM', 'Wednesday, 11\u202fAM to 9\u202fPM', 'Thursday, 11\u202fAM to 9\u202fPM', 'Friday, 11\u202fAM to 9\u202fPM', 'Saturday, 11\u202fAM to 9\u202fPM.']",https://lh5.googleusercontent.com/p/AF1QipP07LVSeAuMgwOQKLQl9fVsa3J5Rl4lOiMnYmxu=w408-h306-k-no
38,62,Seongyeong Restaurant,"2 Haean-ro 57beon-gil, Mokpo-si, Jeollanam-do",0612425653,4.1,34.780769,126.3708437,"['Sunday, 10:30\u202fAM to 9\u202fPM', 'Monday, Closed', 'Tuesday, 10:30\u202fAM to 9\u202fPM', 'Wednesday, 10:30\u202fAM to 9\u202fPM', 'Thursday, 10:30\u202fAM to 9\u202fPM', 'Friday, 10:30\u202fAM to 9\u202fPM', 'Saturday, 10:30\u202fAM to 9\u202fPM.']",https://lh5.googleusercontent.com/p/AF1QipNCJdFC_OALA0zqjeGuwhtAJqZeHPN9mfhRzxTD=w408-h544-k-no
38,63,만나숯불갈비,"379-22 Geonsan-ri, Jangheung-eup, Jangheung-gun, Jeollanam-do",0618641818,4.3,34.6777168,126.9081209,['No Business Hours Available'],https://lh5.googleusercontent.com/p/AF1QipOjqAhWKaN4z9mYBvqtHn0_skPcXemxjbUsZQ9e=w426-h240-k-no
38,64,제일회식당,"13 Mangun-ro, Mangun-myeon, Muan-gun, Jeollanam-do",0614521139,4.0,35.0134511,126.3917214,"['Sunday, 11\u202fAM to 7\u202fPM', 'Monday, 11\u202fAM to 7\u202fPM', 'Tuesday, 11\u202fAM to 7\u202fPM', 'Wednesday, 11\u202fAM to 7\u202fPM', 'Thursday, 11\u202fAM to 7\u202fPM', 'Friday, 11\u202fAM to 7\u202fPM', 'Saturday, 11\u202fAM to 7\u202fPM.']",https://lh5.googleusercontent.com/p/AF1QipO0UC5jZrhlyj0BV_gyp3R5H4Hl1fz8cVnlFMo=w513-h240-k-no
38,65,Naju Gomtang Hayanjip,"6-1 Geumseonggwan-gil, Naju-si, Jeollanam-do",0613334292,4.2,35.0322553,126.717075,"['Sunday, 8\u202fAM to 8\u202fPM', 'Monday, 8\u202fAM to 8\u202fPM', 'Tuesday, 8\u202fAM to 8\u202fPM', 'Wednesday, 8\u202fAM to 8\u202fPM', 'Thursday, 8\u202fAM to 8\u202fPM', 'Friday, 8\u202fAM to 8\u202fPM', 'Saturday, 8\u202fAM to 8\u202fPM.']",https://lh5.googleusercontent.com/p/AF1QipMwX4P4stNpu9QFwy7FoBOl5Qnip-rQ59pVqTOy=w426-h240-k-no
38,66,대한식당,Gwangyang-si,0617630095,4.4,34.9761075,127.5856754,"['Sunday, 10:30\u202fAM to 10\u202fPM', 'Monday, 10:30\u202fAM to 10\u202fPM', 'Tuesday, 10:30\u202fAM to 10\u202fPM', 'Wednesday, 10:30\u202fAM to 10\u202fPM', 'Thursday, 10:30\u202fAM to 10\u202fPM', 'Friday, 10:30\u202fAM to 10\u202fPM', 'Saturday, 10:30\u202fAM to 10\u202fPM.']",https://lh5.googleusercontent.com/p/AF1QipORv1YAM612qcmnP7WlD3zmLzwI5UUp1ViLeItH=w408-h272-k-no
38,67,Gomjib Galbi,"14 Honam-ro 58beon-gil, Mokpo-si, Jeollanam-do",0612445089,3.5,34.7933297,126.3845276,"['Sunday, 11:30\u202fAM to 9\u202fPM', 'Monday, 11:30\u202fAM to 9\u202fPM', 'Tuesday, Closed', 'Wednesday, 11:30\u202fAM to 9\u202fPM', 'Thursday, 11:30\u202fAM to 9\u202fPM', 'Friday, 11:30\u202fAM to 9\u202fPM', 'Saturday, 11:30\u202fAM to 9\u202fPM.']",https://lh5.googleusercontent.com/p/AF1QipMEITbIXNPyFkvq5ArWcb2O2DBcik6VRd2m0_aH=w408-h306-k-no
38,68,송치마을,"98 Songchian-gil, Suncheon-si, Jeollanam-do",0617554150,3.9,35.0607925,127.4221349,"['Sunday, 11\u202fAM to 9\u202fPM', 'Monday, 11\u202fAM to 9\u202fPM', 'Tuesday, Closed', 'Wednesday, 11\u202fAM to 9\u202fPM', 'Thursday, 11\u202fAM to 9\u202fPM', 'Friday, 11\u202fAM to 9\u202fPM', 'Saturday, 11\u202fAM to 9\u202fPM.']",https://lh5.googleusercontent.com/p/AF1QipNJNiS1KxvwXm6hyuuBceiKEDJVc1CaPXU3tpGo=w426-h240-k-no
38,69,곡성 한일순대국밥,Gorseong,0613638859,4.3,35.2795011,127.2984568,"['Sunday, 6\u202fAM to 3\u202fPM', 'Monday, 6\u202fAM to 3\u202fPM', 'Tuesday, 6\u202fAM to 3\u202fPM', 'Wednesday, 6\u202fAM to 3\u202fPM', 'Thursday, 6\u202fAM to 3\u202fPM', 'Friday, 6\u202fAM to 3\u202fPM', 'Saturday, 6\u202fAM to 3\u202fPM.']",https://lh5.googleusercontent.com/p/AF1QipPR2UZrpURv-oq-t9eEwd4NN3EuvsIULJ19mT4j=w426-h240-k-no
38,70,독천식당,"7-3 Honam-dong, Mokpo-si, Jeollanam-do",0612426528,3.7,34.7939685,126.3856149,"['Sunday, 10:30\u202fAM to 3\u202fPM, 5 to 9\u202fPM', 'Monday, 10:30\u202fAM to 3\u202fPM, 5 to 9\u202fPM', 'Tuesday, 10:30\u202fAM to 3\u202fPM, 5 to 9\u202fPM', 'Wednesday, 10:30\u202fAM to 3\u202fPM, 5 to 9\u202fPM', 'Thursday, 10:30\u202fAM to 3\u202fPM, 5 to 9\u202fPM', 'Friday, 10:30\u202fAM to 3\u202fPM, 5 to 9\u202fPM', 'Saturday, 10:30\u202fAM to 3\u202fPM, 5 to 9\u202fPM.']",https://lh5.googleusercontent.com/p/AF1QipNchIzj8_2TmEUHveH1KzFlqVzI7_rlcf0q0iSm=w408-h306-k-no
38,71,한상근대통밥집,Damyang,0613821999,3.3,35.3335438,126.9648542,"['Sunday, 11\u202fAM to 8\u202fPM', 'Monday, 11\u202fAM to 8\u202fPM', 'Tuesday, 11\u202fAM to 8\u202fPM', 'Wednesday, 11\u202fAM to 8\u202fPM', 'Thursday, 11\u202fAM to 8\u202fPM', 'Friday, 11\u202fAM to 8\u202fPM', 'Saturday, 11\u202fAM to 8\u202fPM.']",https://lh5.googleusercontent.com/p/AF1QipPzN7y53Cgn5vGVXMhlmbcUN1qU3e0BUdVGgK5H=w426-h240-k-no
38,72,바다동산,"Jeollanam-do, Haenam-gun, 송지면 땅끝마을길 52",0615323004,3.5,34.2992809,126.5272637,"['Sunday, 8\u202fAM to 9\u202fPM', 'Monday, 8\u202fAM to 9\u202fPM', 'Tuesday, 8\u202fAM to 9\u202fPM', 'Wednesday, 8\u202fAM to 9\u202fPM', 'Thursday, 8\u202fAM to 9\u202fPM', 'Friday, 8\u202fAM to 9\u202fPM', 'Saturday, 8\u202fAM to 9\u202fPM.']",https://lh5.googleusercontent.com/p/AF1QipMD8T0k-fVW0AxtdQ2g4cy6ms6LzB02d3DWb7O5=w408-h306-k-no
38,73,청룡식당,"1191-28 Sina-ri, Jinwol-myeon, Gwangyang-si, Jeollanam-do",0617722400,4.2,34.9856374,127.7724632,"['Sunday, 9\u202fAM to 7\u202fPM', 'Monday, 9\u202fAM to 7\u202fPM', 'Tuesday, 9\u202fAM to 7\u202fPM', 'Wednesday, 9\u202fAM to 7\u202fPM', 'Thursday, 9\u202fAM to 7\u202fPM', 'Friday, 9\u202fAM to 7\u202fPM', 'Saturday, 9\u202fAM to 7\u202fPM.']",https://lh5.googleusercontent.com/p/AF1QipPtKG9-k-ep96j0z9cdbgvzdTHQHiJw42DmbEal=w408-h306-k-no
38,74,벌교우렁집,"54-1 Beolgyo-ri, Beolgyo-eup, Boseong-gun, Jeollanam-do",0618577613,3.9,34.8512013,127.3359798,"['Sunday, 10\u202fAM to 9\u202fPM', 'Monday, 10\u202fAM to 9\u202fPM', 'Tuesday, 10\u202fAM to 9\u202fPM', 'Wednesday, 10\u202fAM to 9\u202fPM', 'Thursday, 10\u202fAM to 9\u202fPM', 'Friday, 10\u202fAM to 9\u202fPM', 'Saturday, 10\u202fAM to 9\u202fPM.']",https://lh5.googleusercontent.com/p/AF1QipNFBRdacwrX-g77xbEHp03WMcT0XhLEIzCUlqv3=w408-h544-k-no
38,75,Geonbong Gukbap Main,"65 Jangpyeong-ro, Suncheon-si, Jeollanam-do",0617520900,3.7,34.9456594,127.4939715,"['Sunday, 7\u202fAM to 9\u202fPM', 'Monday, 7\u202fAM to 9\u202fPM', 'Tuesday, 7\u202fAM to 9\u202fPM', 'Wednesday, 7\u202fAM to 9\u202fPM', 'Thursday, 7\u202fAM to 9\u202fPM', 'Friday, 7\u202fAM to 9\u202fPM', 'Saturday, 7\u202fAM to 9\u202fPM.']",https://lh5.googleusercontent.com/p/AF1QipMYjn5s7bAJUsDqLhEgKUI7k3hCPZ_gz9p0ezOE=w408-h271-k-no
38,76,지민이네,"Jeollanam-do, Mokpo-si, Goha-daero, 641-21 지민이네 활어회 플라자 27호",0612724988,3.8,34.806347,126.3658386,"['Sunday, 11\u202fAM to 9\u202fPM', 'Monday, 11\u202fAM to 9\u202fPM', 'Tuesday, 11\u202fAM to 9\u202fPM', 'Wednesday, 11\u202fAM to 9\u202fPM', 'Thursday, 11\u202fAM to 9\u202fPM', 'Friday, 11\u202fAM to 9\u202fPM', 'Saturday, 11\u202fAM to 9\u202fPM.']",https://lh5.googleusercontent.com/p/AF1QipNvLj3J4enZqEd3ElbdggFhq6447cQ0tEu14UK_=w408-h306-k-no
38,77,승달가든,"141-5 Seongnae-ri, Muan-eup, Muan-gun, Jeollanam-do",0614543400,4.2,34.990587,126.4775297,"['Sunday, 9\u202fAM to 10\u202fPM', 'Monday, 9\u202fAM to 10\u202fPM', 'Tuesday, 9\u202fAM to 10\u202fPM', 'Wednesday, 9\u202fAM to 10\u202fPM', 'Thursday, 9\u202fAM to 10\u202fPM', 'Friday, 9\u202fAM to 10\u202fPM', 'Saturday, 9\u202fAM to 10\u202fPM.']",https://lh5.googleusercontent.com/p/AF1QipPGSV-eR89wvqOrHi-96Dmo09Bo8O4CB2Dty6hW=w408-h306-k-no
38,78,목리장어센터,"31-1 Mok-ri, Gangjin-eup, Gangjin-gun, Jeollanam-do",0614329292,4.2,34.6338566,126.7806763,"['Sunday, 11:30\u202fAM to 9\u202fPM', 'Monday, 11:30\u202fAM to 9\u202fPM', 'Tuesday, 11:30\u202fAM to 9\u202fPM', 'Wednesday, 11:30\u202fAM to 9\u202fPM', 'Thursday, 11:30\u202fAM to 9\u202fPM', 'Friday, 11:30\u202fAM to 9\u202fPM', 'Saturday, 11:30\u202fAM to 9\u202fPM.']",https://lh5.googleusercontent.com/p/AF1QipMLr6H0z5XPCWmMKXUORnkwnDfJhnHa_WCNygoj=w408-h544-k-no
38,79,장터,"23 Yeongsan-ro 40beon-gil, Mokpo-si, Jeollanam-do",0612448880,3.7,34.7848582,126.3834138,"['Sunday, 11:30\u202fAM to 9\u202fPM', 'Monday, 11:30\u202fAM to 9\u202fPM', 'Tuesday, 11:30\u202fAM to 9\u202fPM', 'Wednesday, 11:30\u202fAM to 9\u202fPM', 'Thursday, 11:30\u202fAM to 9\u202fPM', 'Friday, 11:30\u202fAM to 9\u202fPM', 'Saturday, 11:30\u202fAM to 9\u202fPM.']",https://lh5.googleusercontent.com/p/AF1QipP6iWBrLcf11oHGkVQIs0xhl5Bq1kfwDmgZ1TVk=w408-h306-k-no
38,80,Yaksu Chicken House,"907 Bongsan-dong, Yeosu-si, Jeollanam-do",0616428500,3.9,34.7386351,127.7132322,"['Sunday, 11:30\u202fAM to 8\u202fPM', 'Monday, 11:30\u202fAM to 8\u202fPM', 'Tuesday, 11:30\u202fAM to 8\u202fPM', 'Wednesday, 11:30\u202fAM to 8\u202fPM', 'Thursday, 11:30\u202fAM to 8\u202fPM', 'Friday, 11:30\u202fAM to 8\u202fPM', 'Saturday, 11:30\u202fAM to 8\u202fPM.']",https://lh5.googleusercontent.com/p/AF1QipNDxOToFFP8YLKGitwq71DltGDHk7-SzZyFIxHz=w426-h240-k-no
38,81,목포홍어집,"18 Donhwamun-ro 11da-gil, Jongno District, Seoul",027479022,4.1,37.5731476,126.9907196,"['Sunday, Closed', 'Monday, 5:30 to 11\u202fPM', 'Tuesday, 5:30 to 11\u202fPM', 'Wednesday, 5:30 to 11\u202fPM', 'Thursday, 5:30 to 11\u202fPM', 'Friday, 5:30 to 11\u202fPM', 'Saturday, 5:30 to 11\u202fPM.']",https://lh5.googleusercontent.com/p/AF1QipNgypVy21iHRoTZ47X-fI0cOKAJotYalXtUhKo6=w408-h408-k-no
38,82,영란횟집,"42-1 Beonhwa-ro, Mokpo-si, Jeollanam-do",0612437311,3.9,34.7861393,126.3840897,"['Sunday, 10\u202fAM to 10\u202fPM', 'Monday, 10\u202fAM to 10\u202fPM', 'Tuesday, 10\u202fAM to 10\u202fPM', 'Wednesday, 10\u202fAM to 10\u202fPM', 'Thursday, 10\u202fAM to 10\u202fPM', 'Friday, 10\u202fAM to 10\u202fPM', 'Saturday, 10\u202fAM to 10\u202fPM.']",https://lh5.googleusercontent.com/p/AF1QipNVp5dKrk9665Xf1N_6zPSYcBYCFQLLMsSnqfnG=w408-h306-k-no
38,83,둥지식당,"349-2 Dongseong-ri, Gangjin-eup, Gangjin-gun, Jeollanam-do",0614332080,4.2,34.6411611,126.7700938,"['Sunday, 11:30\u202fAM to 9\u202fPM', 'Monday, 11:30\u202fAM to 9\u202fPM', 'Tuesday, 11:30\u202fAM to 9\u202fPM', 'Wednesday, 11:30\u202fAM to 9\u202fPM', 'Thursday, 11:30\u202fAM to 9\u202fPM', 'Friday, 11:30\u202fAM to 9\u202fPM', 'Saturday, 11:30\u202fAM to 9\u202fPM.']",https://lh5.googleusercontent.com/p/AF1QipM5kaZj4-EAGidm_rqDr7wo_Vcr-HfexqDbfxRc=w493-h240-k-no
38,84,Jinnam Restaurant,Yeosu,0616636965,3.0,34.7407439,127.7360333,"['Sunday, 10\u202fAM to 8:30\u202fPM', 'Monday, 10\u202fAM to 8:30\u202fPM', 'Tuesday, 10\u202fAM to 8:30\u202fPM', 'Wednesday, 10\u202fAM to 8:30\u202fPM', 'Thursday, 10\u202fAM to 8:30\u202fPM', 'Friday, 10\u202fAM to 8:30\u202fPM', 'Saturday, 10\u202fAM to 8:30\u202fPM.']",https://lh5.googleusercontent.com/p/AF1QipOaQBAQESs7KfhJ1gKH26zxCaEy8Q962a-xZKYt=w408-h272-k-no
38,85,중앙횟집,"1-65 Manho-dong, Mokpo-si, Jeollanam-do",0612425040,4.1,34.7861098,126.3843767,"['Sunday, 11\u202fAM to 10\u202fPM', 'Monday, 11\u202fAM to 10\u202fPM', 'Tuesday, 11\u202fAM to 10\u202fPM', 'Wednesday, 11\u202fAM to 10\u202fPM', 'Thursday, 11\u202fAM to 10\u202fPM', 'Friday, 11\u202fAM to 10\u202fPM', 'Saturday, 11\u202fAM to 10\u202fPM.']",https://lh5.googleusercontent.com/p/AF1QipN2k_9QQ9xAvJx5wMz2Qm6vWuCqtNorLxzzW03G=w408-h408-k-no
38,86,천일식당,Haenam,0615351001,3.6,34.570558,126.5993538,"['Sunday, 9:30\u202fAM to 9\u202fPM', 'Monday, 9:30\u202fAM to 9\u202fPM', 'Tuesday, 9:30\u202fAM to 9\u202fPM', 'Wednesday, 9:30\u202fAM to 9\u202fPM', 'Thursday, 9:30\u202fAM to 9\u202fPM', 'Friday, 9:30\u202fAM to 9\u202fPM', 'Saturday, 9:30\u202fAM to 9\u202fPM.']",https://lh5.googleusercontent.com/p/AF1QipNEmB1wgPjGnnarY_nKHklxHdxrVCweOZyzgBcg=w426-h240-k-no
38,87,해촌,Mokpo-si,0612837011,4.0,34.7968333,126.4346667,"['Sunday, 11\u202fAM to 8:30\u202fPM', 'Monday, 11\u202fAM to 8:30\u202fPM', 'Tuesday, 11\u202fAM to 8:30\u202fPM', 'Wednesday, 11\u202fAM to 8:30\u202fPM', 'Thursday, 11\u202fAM to 8:30\u202fPM', 'Friday, 11\u202fAM to 8:30\u202fPM', 'Saturday, 11\u202fAM to 8:30\u202fPM.']",https://lh5.googleusercontent.com/p/AF1QipMyBEpCWACi9h1R94tMD77S7scFczmXnDygxtIG=w426-h240-k-no
38,88,Gubaek Restaurant,"18 Yeogaekseon terminal-gil, Yeosu-si, Jeollanam-do",0616620900,3.4,34.7387549,127.7320035,"['Sunday, 7\u202fAM to 8\u202fPM', 'Monday, 7\u202fAM to 8\u202fPM', 'Tuesday, 7\u202fAM to 8\u202fPM', 'Wednesday, 7\u202fAM to 8\u202fPM', 'Thursday, 7\u202fAM to 8\u202fPM', 'Friday, 7\u202fAM to 8\u202fPM', 'Saturday, 7\u202fAM to 8\u202fPM.']",https://lh5.googleusercontent.com/p/AF1QipNIVwjJs7liexwgFzS9Pbyff0IVaMECC7cn0UlC=w408-h544-k-no
38,89,포두식당,"1298-10 Gildu-ri, Podu-myeon, Goheung-gun, Jeollanam-do",0618345555,4.1,34.5717234,127.3404333,['No Business Hours Available'],https://lh5.googleusercontent.com/p/AF1QipMCvofGhsFfZMxXsH1Ilh3uTtuG3zZLSRbehTWx=w408-h306-k-no
38,90,동아식당,"Jeollanam-do, Gurye-gun, Gurye-eup, Bongdong-gil, 4-5 KR",0617825474,3.9,35.2090283,127.4683588,"['Sunday, 10\u202fAM to 9\u202fPM', 'Monday, 10\u202fAM to 9\u202fPM', 'Tuesday, 10\u202fAM to 9\u202fPM', 'Wednesday, 10\u202fAM to 9\u202fPM', 'Thursday, 10\u202fAM to 9\u202fPM', 'Friday, 10\u202fAM to 9\u202fPM', 'Saturday, 10\u202fAM to 9\u202fPM.']",https://lh5.googleusercontent.com/p/AF1QipM98cWhQMBqt9azo7O_PAYv3PbBUPlw_8L_A8VH=w480-h240-k-no
38,91,Gogyesan Boribap Wonjojip,"522 Jang-an-ri, Songgwang-myeon, Suncheon-si, Jeollanam-do",0617543756,4.1,34.9853782,127.3057593,"['Sunday, 10\u202fAM to 5\u202fPM', 'Monday, Closed', 'Tuesday, 10\u202fAM to 5\u202fPM', 'Wednesday, 10\u202fAM to 5\u202fPM', 'Thursday, 10\u202fAM to 5\u202fPM', 'Friday, 10\u202fAM to 5\u202fPM', 'Saturday, 10\u202fAM to 5\u202fPM.']",https://lh5.googleusercontent.com/p/AF1QipMPlb8YBp3kplGGcyplv4Qe76rM080AsdUFClOA=w408-h306-k-no
38,92,슬로시티약초밥상,Damyang,0613836312,4.0,35.239218,127.019832,"['Sunday, 9:30\u202fAM to 6\u202fPM', 'Monday, 9:30\u202fAM to 6\u202fPM', 'Tuesday, 9:30\u202fAM to 6\u202fPM', 'Wednesday, 9:30\u202fAM to 6\u202fPM', 'Thursday, 9:30\u202fAM to 6\u202fPM', 'Friday, 9:30\u202fAM to 6\u202fPM', 'Saturday, 9:30\u202fAM to 6\u202fPM.']",https://lh5.googleusercontent.com/p/AF1QipMdB96tD431-hRXV9zz6IF65nLe5s8_dcDHc6Ff=w408-h306-k-no
38,93,도라지식당,Kohung,0618352304,4.2,34.6076891,127.2828047,"['Sunday, 10:30\u202fAM to 8\u202fPM', 'Monday, 10:30\u202fAM to 8\u202fPM', 'Tuesday, 10:30\u202fAM to 8\u202fPM', 'Wednesday, 10:30\u202fAM to 8\u202fPM', 'Thursday, 10:30\u202fAM to 8\u202fPM', 'Friday, 10:30\u202fAM to 8\u202fPM', 'Saturday, 10:30\u202fAM to 8\u202fPM.']",https://lh5.googleusercontent.com/p/AF1QipNziyFxf8f-A8sZ9cOSTn9Rjn0J9blJerd7VQb6=w408-h306-k-no
38,94,나주곰탕 노안집 서울직영점,"Seoul, Gangdong-gu, Sangil-ro, 10 길 36 지식산업센터 1층",024568461,4.4,37.5510317,127.1739551,"['Sunday, Closed', 'Monday, 10\u202fAM to 9\u202fPM', 'Tuesday, 10\u202fAM to 9\u202fPM', 'Wednesday, 10\u202fAM to 9\u202fPM', 'Thursday, 10\u202fAM to 9\u202fPM', 'Friday, 10\u202fAM to 9\u202fPM', 'Saturday, 8\u202fAM to 3\u202fPM.']",https://lh5.googleusercontent.com/p/AF1QipOSX5MpIFneefFzWhMMvye5Ok1cZtW6N5LSgvui=w408-h544-k-no
38,95,Myeongjiwon,"182-2 Go-eup-ri, Goseo-myeon, Damyang-gun, Jeollanam-do",0613832577,4.4,35.2098196,126.9981138,"['Sunday, 10\u202fAM to 8\u202fPM', 'Monday, 10\u202fAM to 8\u202fPM', 'Tuesday, 10\u202fAM to 8\u202fPM', 'Wednesday, 10\u202fAM to 8\u202fPM', 'Thursday, 10\u202fAM to 8\u202fPM', 'Friday, 10\u202fAM to 8\u202fPM', 'Saturday, 10\u202fAM to 8\u202fPM.']",https://lh5.googleusercontent.com/p/AF1QipPqQaV6vBYgw5utWoq3ui350FgsgxExKEAvXnyo=w408-h272-k-no
38,96,설성식당,"334-13 Samin-ri, Byeongyeong-myeon, Gangjin-gun, Jeollanam-do",0614331282,4.1,34.712775,126.8168881,"['Sunday, 11\u202fAM to 8\u202fPM', 'Monday, Closed', 'Tuesday, 11\u202fAM to 8\u202fPM', 'Wednesday, 11\u202fAM to 8\u202fPM', 'Thursday, 11\u202fAM to 8\u202fPM', 'Friday, 11\u202fAM to 8\u202fPM', 'Saturday, 11\u202fAM to 8\u202fPM.']",https://lh5.googleusercontent.com/p/AF1QipNFCxn9YxKUCyERnX6yxaJ6PNeVMdPRwNpnqmqF=w408-h306-k-no
38,97,Yangji Ssambap,"8번지 Geumgok-gil, Suncheon-si, Jeollanam-do",0617529936,3.8,34.9550161,127.4834103,"['Sunday, 10:30\u202fAM to 9\u202fPM', 'Monday, 10:30\u202fAM to 9\u202fPM', 'Tuesday, 10:30\u202fAM to 9\u202fPM', 'Wednesday, 10:30\u202fAM to 9\u202fPM', 'Thursday, 10:30\u202fAM to 9\u202fPM', 'Friday, 10:30\u202fAM to 9\u202fPM', 'Saturday, 10:30\u202fAM to 9\u202fPM.']",https://lh5.googleusercontent.com/p/AF1QipMq-SCgOnvP7WNQ-smQkceShH80nMZaRpXYHosn=w426-h240-k-no
38,98,옥과한우촌,"983 Osan-ro, Osan-myeon, Gokseong-gun, Jeollanam-do",0613636062,4.0,35.266116,127.1222938,"['Sunday, 9\u202fAM to 10\u202fPM', 'Monday, 9\u202fAM to 10\u202fPM', 'Tuesday, 9\u202fAM to 10\u202fPM', 'Wednesday, 9\u202fAM to 10\u202fPM', 'Thursday, 9\u202fAM to 10\u202fPM', 'Friday, 9\u202fAM to 10\u202fPM', 'Saturday, 9\u202fAM to 10\u202fPM.']",https://lh5.googleusercontent.com/p/AF1QipNdGD8gvbGNmsjho4AH8tZ91dRZKVmCuHRtL5GK=w408-h306-k-no
38,99,CLB Bakery,"Jeollanam-do, Mokpo-si, Yeongsan-ro 75beon-gil, 14 KR",0612422161,4.0,34.7903906,126.3845009,"['Sunday, 8\u202fAM to 9\u202fPM', 'Monday, 8\u202fAM to 9\u202fPM', 'Tuesday, 8\u202fAM to 9\u202fPM', 'Wednesday, 8\u202fAM to 9\u202fPM', 'Thursday, 8\u202fAM to 9\u202fPM', 'Friday, 8\u202fAM to 9\u202fPM', 'Saturday, 8\u202fAM to 9\u202fPM.']",https://lh5.googleusercontent.com/p/AF1QipOdmT2p6QK-mh-CwQ-0Lnnf_JpOW0JwdifbuZAh=w408-h271-k-no
38,100,Wolseong Soju Corner,"153 Munsu-ro, Yeosu-si, Jeollanam-do",0616535252,4.4,34.7578649,127.7097719,"['Sunday, 11\u202fAM to 9\u202fPM', 'Monday, 11\u202fAM to 9\u202fPM', 'Tuesday, 11\u202fAM to 9\u202fPM', 'Wednesday, 11\u202fAM to 9\u202fPM', 'Thursday, 11\u202fAM to 9\u202fPM', 'Friday, 11\u202fAM to 9\u202fPM', 'Saturday, 11\u202fAM to 9\u202fPM.']",https://lh5.googleusercontent.com/p/AF1QipMOAI9WeMc4dJNwL2nWkgzI6UCqiVXQ13ZnxzXh=w408-h306-k-no
38,101,거봉통닭,"22 Yeonja-ro, Dongoe-dong, Suncheon-si, Jeollanam-do",0617536977,4.2,34.955104,127.4865193,"['Sunday, 12 to 11\u202fPM', 'Monday, 12 to 11\u202fPM', 'Tuesday, 12 to 11\u202fPM', 'Wednesday, 12 to 11\u202fPM', 'Thursday, 12 to 11\u202fPM', 'Friday, 12 to 11\u202fPM', 'Saturday, 12 to 11\u202fPM.']",https://lh5.googleusercontent.com/p/AF1QipPpXnu_ZvyCyOe4X9SjsJL_NPMPV1IGOasBmyxB=w408-h306-k-no
38,102,진미꽃게탕,"104-6 Hak-dong, Yeosu-si, Jeollanam-do",0616841747,4.1,34.7604709,127.6602204,"['Sunday, 9\u202fAM to 10\u202fPM', 'Monday, Closed', 'Tuesday, 9\u202fAM to 10\u202fPM', 'Wednesday, 9\u202fAM to 10\u202fPM', 'Thursday, 9\u202fAM to 10\u202fPM', 'Friday, 9\u202fAM to 10\u202fPM', 'Saturday, 9\u202fAM to 10\u202fPM.']",https://lh5.googleusercontent.com/p/AF1QipOp-26F3LqlRhHWWIyPpdNGPF3_NNSjLlExNLg=w408-h306-k-no
38,103,Jeontong Restaurant,"38-4 Goeuphyeon-gil, Goseo-myeon, Damyang-gun, Jeollanam-do",0613823111,4.0,35.2080555,126.9866665,"['Sunday, 11:30\u202fAM to 8\u202fPM', 'Monday, 11:30\u202fAM to 8\u202fPM', 'Tuesday, 11:30\u202fAM to 8\u202fPM', 'Wednesday, 11:30\u202fAM to 8\u202fPM', 'Thursday, 11:30\u202fAM to 8\u202fPM', 'Friday, 11:30\u202fAM to 8\u202fPM', 'Saturday, 11:30\u202fAM to 8\u202fPM.']",https://lh5.googleusercontent.com/p/AF1QipMYtQCZ_irVpMG2kagS1Cizxv1CHyZAm8EtqB0H=w426-h240-k-no
38,104,도리포횟집,"1 Songseok-ri, Haeje-myeon, Muan-gun, Jeollanam-do",0614546890,3.9,35.1568539,126.3464068,"['Sunday, 11\u202fAM to 9\u202fPM', 'Monday, 11\u202fAM to 9\u202fPM', 'Tuesday, 11\u202fAM to 9\u202fPM', 'Wednesday, 11\u202fAM to 9\u202fPM', 'Thursday, 11\u202fAM to 9\u202fPM', 'Friday, 11\u202fAM to 9\u202fPM', 'Saturday, 11\u202fAM to 9\u202fPM.']",https://lh5.googleusercontent.com/p/AF1QipOSErVijSHHfA_spNuWDY4pJIlGiL7OqYC5WRc9=w408-h544-k-no
38,105,송이향,"Jeollanam-do, Suncheon-si, Joryemotdeung 2-gil, 3-19 2층",0617235515,4.5,34.9517633,127.528234,"['Sunday, Closed', 'Monday, 11:30\u202fAM to 8\u202fPM', 'Tuesday, 11:30\u202fAM to 8\u202fPM', 'Wednesday, 11:30\u202fAM to 8\u202fPM', 'Thursday, 11:30\u202fAM to 8\u202fPM', 'Friday, 11:30\u202fAM to 8\u202fPM', 'Saturday, 11:30\u202fAM to 8\u202fPM.']",https://lh5.googleusercontent.com/p/AF1QipO7Yz6D_9Scos52Wf3dFOB9B_p3JpaxH-dbncPH=w408-h306-k-no
38,106,Dukkeobi Gejang,"12 Bongsannam 3-gil, Yeosu-si, Jeollanam-do",0616431880,3.9,34.733798,127.7207248,"['Sunday, 8:30\u202fAM to 8\u202fPM', 'Monday, 8:30\u202fAM to 8\u202fPM', 'Tuesday, 8:30\u202fAM to 8\u202fPM', 'Wednesday, 8:30\u202fAM to 8\u202fPM', 'Thursday, 8:30\u202fAM to 8\u202fPM', 'Friday, 8:30\u202fAM to 8\u202fPM', 'Saturday, 8:30\u202fAM to 8\u202fPM.']",https://lh5.googleusercontent.com/p/AF1QipM5m_kH33sG952cKC-dwe-axaRpy4TJZ_aLI3s6=w408-h306-k-no
38,107,Namdoyedam,"143 Damjang-ro, Wolsan-myeon, Damyang-gun, Jeollanam-do",0613817766,4.2,35.335382,126.9620796,"['Sunday, 11\u202fAM to 9\u202fPM', 'Monday, 11\u202fAM to 9\u202fPM', 'Tuesday, 11\u202fAM to 9\u202fPM', 'Wednesday, 11\u202fAM to 9\u202fPM', 'Thursday, 11\u202fAM to 9\u202fPM', 'Friday, 11\u202fAM to 9\u202fPM', 'Saturday, 11\u202fAM to 9\u202fPM.']",https://lh5.googleusercontent.com/p/AF1QipNRGhyNRn-w1y-_Ljp_cWqISmp7-2__ffQeGZEX=w426-h240-k-no
38,108,수북회관꿀꿀갈비,Damyang,0613827043,4.0,35.3034184,126.9288402,"['Sunday, 11\u202fAM to 8\u202fPM', 'Monday, 11\u202fAM to 8\u202fPM', 'Tuesday, 11\u202fAM to 8\u202fPM', 'Wednesday, Closed', 'Thursday, 11\u202fAM to 8\u202fPM', 'Friday, 11\u202fAM to 8\u202fPM', 'Saturday, 11\u202fAM to 8\u202fPM.']",https://lh5.googleusercontent.com/p/AF1QipPZ2VXPRs1UeHRwDGd8-MSOa3V5F-0Nb71pDLOu=w408-h306-k-no
38,109,서정스넥,Yeosu,0616427847,3.3,34.7413435,127.7283004,['No Business Hours Available'],https://lh5.googleusercontent.com/p/AF1QipOaKWDRNj3OyrCxPHXArmdHvH6ILYFhj8QB-O_r=w426-h240-k-no
38,110,소문난갈비탕,Kohung,0618332052,3.7,34.7797012,127.3330765,"['Sunday, 8\u202fAM to 8\u202fPM', 'Monday, 8\u202fAM to 8\u202fPM', 'Tuesday, 8\u202fAM to 8\u202fPM', 'Wednesday, 8\u202fAM to 8\u202fPM', 'Thursday, 8\u202fAM to 8\u202fPM', 'Friday, 8\u202fAM to 8\u202fPM', 'Saturday, 8\u202fAM to 8\u202fPM.']",https://lh5.googleusercontent.com/p/AF1QipOOTjYooKXVJG_Gy2LG_YoS3yIXxno-3dyPcW0w=w426-h240-k-no
38,111,수궁한정식,"430-1 Sampo-ri, Samho-eup, Yeongam-gun, Jeollanam-do",0614649652,4.0,34.7513644,126.4112917,"['Sunday, Closed', 'Monday, 9\u202fAM to 10\u202fPM', 'Tuesday, 9\u202fAM to 10\u202fPM', 'Wednesday, 9\u202fAM to 10\u202fPM', 'Thursday, 9\u202fAM to 10\u202fPM', 'Friday, 9\u202fAM to 10\u202fPM', 'Saturday, 9\u202fAM to 7:30\u202fPM.']",https://lh5.googleusercontent.com/p/AF1QipPhLvSgYv1ES094rHLPeeSDXsRDY8JZLHHPDn0=w408-h306-k-no
38,112,Hadang Food,"98 Sinheung-ro, Mokpo-si, Jeollanam-do",0612831738,4.4,34.8054098,126.4307339,"['Sunday, 11:30\u202fAM to 10\u202fPM', 'Monday, 11:30\u202fAM to 3\u202fPM, 5 to 11\u202fPM', 'Tuesday, Closed', 'Wednesday, 11:30\u202fAM to 3\u202fPM, 5 to 11\u202fPM', 'Thursday, 11:30\u202fAM to 3\u202fPM, 5 to 11\u202fPM', 'Friday, 11:30\u202fAM to 3\u202fPM, 5 to 11\u202fPM', 'Saturday, 11:30\u202fAM to 11\u202fPM.']",https://lh5.googleusercontent.com/p/AF1QipMIivETU182w8jUeajxfDrKYuZ-kzTHULlkFfPE=w408-h306-k-no
38,113,Manseon Restaurant,"2 Seosan-ro, Mokpo-si, Jeollanam-do",0612443621,4.4,34.7810718,126.3794181,"['Sunday, 10:30\u202fAM to 10\u202fPM', 'Monday, 10:30\u202fAM to 8:30\u202fPM', 'Tuesday, 10:30\u202fAM to 8:30\u202fPM', 'Wednesday, 10:30\u202fAM to 8:30\u202fPM', 'Thursday, 10:30\u202fAM to 8:30\u202fPM', 'Friday, 10:30\u202fAM to 10\u202fPM', 'Saturday, 10:30\u202fAM to 10\u202fPM.']",https://lh5.googleusercontent.com/p/AF1QipOshHzqU1aoiNo6Xq0ljfj-PVL-a_7oso86PrHj=w408-h306-k-no
38,114,Crab 1st Avenue kkotdol,"210-2 Bongsan-dong, Yeosu-si, Jeollanam-do",0616440003,4.3,34.7329706,127.7262267,"['Sunday, 10\u202fAM to 9:30\u202fPM', 'Monday, 10\u202fAM to 9:30\u202fPM', 'Tuesday, 10\u202fAM to 9:30\u202fPM', 'Wednesday, 10\u202fAM to 9:30\u202fPM', 'Thursday, 10\u202fAM to 9:30\u202fPM', 'Friday, 10\u202fAM to 9:30\u202fPM', 'Saturday, 10\u202fAM to 9:30\u202fPM.']",https://lh5.googleusercontent.com/p/AF1QipNHwrwRKe3Ma4vZ7nMZ_bO3hFFob5qvQZIhCpBw=w408-h272-k-no
38,115,우시장국밥,Jangseong-gun,0613921833,4.2,35.2897748,126.7698751,"['Sunday, 7\u202fAM to 3\u202fPM', 'Monday, 7\u202fAM to 3\u202fPM', 'Tuesday, 7\u202fAM to 3\u202fPM', 'Wednesday, 7\u202fAM to 3\u202fPM', 'Thursday, 7\u202fAM to 3\u202fPM', 'Friday, 7\u202fAM to 3\u202fPM', 'Saturday, 7\u202fAM to 3\u202fPM.']",https://lh5.googleusercontent.com/p/AF1QipNdlulBKZCbtVYWn6xJbfWbHRJDyrb6zK_tiXM1=w408-h306-k-no
38,116,여다지회마을,"557-5 Sachon-ri, Anyang-myeon, Jangheung-gun, Jeollanam-do",0618621041,4.4,34.6259152,127.0161334,"['Sunday, 10\u202fAM to 10\u202fPM', 'Monday, 10\u202fAM to 10\u202fPM', 'Tuesday, 10\u202fAM to 10\u202fPM', 'Wednesday, 10\u202fAM to 10\u202fPM', 'Thursday, 10\u202fAM to 10\u202fPM', 'Friday, 10\u202fAM to 10\u202fPM', 'Saturday, 10\u202fAM to 10\u202fPM.']",https://lh5.googleusercontent.com/p/AF1QipOBLG0p_wlR1YFC9EC0B8TQ_9VV7wdDnvbwQLD8=w408-h544-k-no
38,117,섬진강 재첩국수,"686-1 Oegok-ri, Toji-myeon, Gurye-gun, Jeollanam-do",0617832547,3.5,35.200053,127.6034968,"['Sunday, 10:30\u202fAM to 8\u202fPM', 'Monday, 10:30\u202fAM to 8\u202fPM', 'Tuesday, 10:30\u202fAM to 8\u202fPM', 'Wednesday, 10:30\u202fAM to 8\u202fPM', 'Thursday, 10:30\u202fAM to 8\u202fPM', 'Friday, 10:30\u202fAM to 8\u202fPM', 'Saturday, 10:30\u202fAM to 8\u202fPM.']",https://lh5.googleusercontent.com/p/AF1QipPWJ2d5rXS-voYRowPjMiHZ5lp6EuZWljOLc_4R=w408-h306-k-no
38,118,땅끝기와집,Haenam,0615342322,3.6,34.5739439,126.5911123,"['Sunday, 10:30\u202fAM to 9\u202fPM', 'Monday, 10:30\u202fAM to 9\u202fPM', 'Tuesday, 10:30\u202fAM to 9\u202fPM', 'Wednesday, 10:30\u202fAM to 9\u202fPM', 'Thursday, 10:30\u202fAM to 9\u202fPM', 'Friday, 10:30\u202fAM to 9\u202fPM', 'Saturday, 10:30\u202fAM to 9\u202fPM.']",https://lh5.googleusercontent.com/p/AF1QipO0xPPSreKGFCnylYL-4vMTy62hAIxbCMjWVN2l=w426-h240-k-no
38,119,달맞이흑두부,"40-13 Yongdu-dong, Deogyang-gu, Goyang-si, Gyeonggi-do",023886688,3.9,37.6154374,126.8948036,"['Sunday, 11\u202fAM to 9\u202fPM', 'Monday, 11\u202fAM to 9\u202fPM', 'Tuesday, 11\u202fAM to 9\u202fPM', 'Wednesday, 11\u202fAM to 9\u202fPM', 'Thursday, 11\u202fAM to 9\u202fPM', 'Friday, 11\u202fAM to 9\u202fPM', 'Saturday, 11\u202fAM to 9\u202fPM.']",https://lh5.googleusercontent.com/p/AF1QipNScaEtxLvevpmHcc_8cjvUyoSlW5Lcr-JIjvKk=w408-h306-k-no
38,120,Byeokodong,"Jeollanam-do, Suncheon-si, Sangsaho-gil, 75번지 쪽 확장 이전",0617435569,4.2,34.9200986,127.4811982,"['Sunday, 11\u202fAM to 8:30\u202fPM', 'Monday, 11\u202fAM to 8:30\u202fPM', 'Tuesday, 11\u202fAM to 8:30\u202fPM', 'Wednesday, Closed', 'Thursday, 11\u202fAM to 8:30\u202fPM', 'Friday, 11\u202fAM to 8:30\u202fPM', 'Saturday, 11\u202fAM to 8:30\u202fPM.']",https://lh5.googleusercontent.com/p/AF1QipNpkqbn_rome0A7l5cegZPD6cvUGX_Fy0iqMTpe=w426-h240-k-no
38,121,청운식당,"12-3 Namdaemunsijang-gil, Jung District, Seoul",027767417,4.4,37.5598769,126.9767787,"['Sunday, 11\u202fAM to 9\u202fPM', 'Monday, 11\u202fAM to 9\u202fPM', 'Tuesday, 11\u202fAM to 9\u202fPM', 'Wednesday, 11\u202fAM to 9\u202fPM', 'Thursday, 11\u202fAM to 9\u202fPM', 'Friday, 11\u202fAM to 9\u202fPM', 'Saturday, 11\u202fAM to 9\u202fPM.']",https://lh5.googleusercontent.com/p/AF1QipPq7BscmRarmsdtMVItAHKgFmIHVXw_SCOADU9z=w408-h306-k-no
38,122,풍성한 집,"60 Beopseongpo-ro 3-gil, Beopseong-myeon, Yeonggwang-gun, Jeollanam-do",0613560733,3.8,35.3592712,126.4455557,"['Sunday, 11\u202fAM to 9\u202fPM', 'Monday, 11\u202fAM to 9\u202fPM', 'Tuesday, 11\u202fAM to 9\u202fPM', 'Wednesday, 11\u202fAM to 9\u202fPM', 'Thursday, 11\u202fAM to 9\u202fPM', 'Friday, 11\u202fAM to 9\u202fPM', 'Saturday, 11\u202fAM to 9\u202fPM.']",https://lh5.googleusercontent.com/p/AF1QipPgeP2snIGUqOyDaWuUX1aSc_SiUuBuQEIJskST=w408-h306-k-no
