areatype,index,name,address,phone_number,average_rating,latitude,longitude,business_hours,image_url
37,1,할매피순대,"173-1 Jindong-ri, Haengan-myeon, Buan-gun, Jeollabuk-do",0635844371,4.0,35.7184245,126.7193863,"['Sunday, 7\u202fAM to 8\u202fPM', 'Monday, 7\u202fAM to 8\u202fPM', 'Tuesday, Closed', 'Wednesday, 7\u202fAM to 8\u202fPM', 'Thursday, 7\u202fAM to 8\u202fPM', 'Friday, 7\u202fAM to 8\u202fPM', 'Saturday, 7\u202fAM to 8\u202fPM.']",https://lh5.googleusercontent.com/p/AF1QipM8gbUD3KNrURsfRBAcv3hZnx8kt4y2PP8JUswd=w426-h240-k-no
37,2,Gyewha Hoegwan,"95 Byeonsan-ro, Buan-gun, Jeollabuk-do",0635843075,3.9,35.7291183,126.7106869,"['Sunday, 8\u202fAM to 8:30\u202fPM', 'Monday, 9\u202fAM to 8:30\u202fPM', 'Tuesday, 9\u202fAM to 8:30\u202fPM', 'Wednesday, 9\u202fAM to 8:30\u202fPM', 'Thursday, 9\u202fAM to 8:30\u202fPM', 'Friday, 9\u202fAM to 8:30\u202fPM', 'Saturday, 9\u202fAM to 8:30\u202fPM.']",https://lh5.googleusercontent.com/p/AF1QipME-i3i3D12BvtI5lnpirYUy9MJ2uFCXMQ_jhRZ=w408-h306-k-no
37,3,Taebaek Kalguksu,"Jeollabuk-do, Iksan-si, Jungang-dong 1(il)-ga, 52 KR",0638551529,4.1,35.9398039,126.9487763,"['Sunday, 11\u202fAM to 7\u202fPM', 'Monday, Closed', 'Tuesday, 11\u202fAM to 7\u202fPM', 'Wednesday, 11\u202fAM to 7\u202fPM', 'Thursday, 11\u202fAM to 7\u202fPM', 'Friday, 11\u202fAM to 7\u202fPM', 'Saturday, 11\u202fAM to 7\u202fPM.']",https://lh5.googleusercontent.com/p/AF1QipPyq8MCloWsDVqVovkb5GrgSe92OiOiXjV5Mwx1=w408-h272-k-no
37,4,Daeiljeong,"Jeollabuk-do, Jeongeup-si, Taein-myeon, 태성리 483-5",0635344030,4.0,35.6517659,126.9429967,"['Sunday, 10\u202fAM to 9\u202fPM', 'Monday, 10\u202fAM to 9\u202fPM', 'Tuesday, 10\u202fAM to 9\u202fPM', 'Wednesday, 10\u202fAM to 9\u202fPM', 'Thursday, 10\u202fAM to 9\u202fPM', 'Friday, 10\u202fAM to 9\u202fPM', 'Saturday, 10\u202fAM to 9\u202fPM.']",https://lh5.googleusercontent.com/p/AF1QipMWR96cbTBw4zgIhR6Lqysm0nYPnvqFyXj3nMMg=w426-h240-k-no
37,5,안젤라분식,Gunsan,No Phone Number,3.7,35.9889326,126.7109166,"['Sunday, 11\u202fAM to 4\u202fPM', 'Monday, 11\u202fAM to 4\u202fPM', 'Tuesday, 11\u202fAM to 4\u202fPM', 'Wednesday, 11\u202fAM to 4\u202fPM', 'Thursday, 11\u202fAM to 4\u202fPM', 'Friday, 11\u202fAM to 4\u202fPM', 'Saturday, 11\u202fAM to 4\u202fPM.']",https://lh5.googleusercontent.com/p/AF1QipOYkNerRXwMXBEB5CfctSg647fKEX8RKNmVEoMH=w408-h306-k-no
37,6,구천동송어마을,Muju-gun,0633220817,4.1,35.877429,127.8220858,"['Sunday, 10\u202fAM to 9\u202fPM', 'Monday, 10\u202fAM to 9\u202fPM', 'Tuesday, 10\u202fAM to 9\u202fPM', 'Wednesday, 10\u202fAM to 9\u202fPM', 'Thursday, 10\u202fAM to 9\u202fPM', 'Friday, 10\u202fAM to 9\u202fPM', 'Saturday, 10\u202fAM to 9\u202fPM.']",https://lh5.googleusercontent.com/p/AF1QipMafHMj8XFq3Ft7syU79ICJFFg9gtiHWZ3Cr2gd=w408-h541-k-no
37,7,Baeghagjeong,"532 Taeseong-ri, Taein-myeon, Jeongeup-si, Jeollabuk-do",0635344290,3.9,35.6519881,126.9420246,"['Sunday, 10:30\u202fAM to 9\u202fPM', 'Monday, 10:30\u202fAM to 3\u202fPM', 'Tuesday, 10:30\u202fAM to 3\u202fPM', 'Wednesday, 10:30\u202fAM to 3\u202fPM', 'Thursday, 10:30\u202fAM to 3\u202fPM', 'Friday, 10:30\u202fAM to 3\u202fPM', 'Saturday, 10:30\u202fAM to 9\u202fPM.']",https://lh5.googleusercontent.com/p/AF1QipM36XS-Ls_pFtenA5cjeCaPXPM13mv4g4YnUaIX=w408-h306-k-no
37,8,만나먹거리촌,Iksan,0638341110,4.4,35.9832557,127.0454783,"['Sunday, 10\u202fAM to 9\u202fPM', 'Monday, 10\u202fAM to 9\u202fPM', 'Tuesday, 10\u202fAM to 9\u202fPM', 'Wednesday, 10\u202fAM to 9\u202fPM', 'Thursday, 10\u202fAM to 9\u202fPM', 'Friday, 10\u202fAM to 9\u202fPM', 'Saturday, 10\u202fAM to 9\u202fPM.']",https://lh5.googleusercontent.com/p/AF1QipMLGka_O8rLttitAGiKMmUVMXOCqfZNIfpPTJcT=w504-h240-k-no
37,9,오늘여기,"50 Sangsa-gil, Geumgu-myeon, Gimje-si, Jeollabuk-do",0635479088,4.2,35.8126426,126.9896559,"['Sunday, 10\u202fAM to 9:30\u202fPM', 'Monday, 10\u202fAM to 9:30\u202fPM', 'Tuesday, 10\u202fAM to 9:30\u202fPM', 'Wednesday, 10\u202fAM to 9:30\u202fPM', 'Thursday, 10\u202fAM to 9:30\u202fPM', 'Friday, 10\u202fAM to 9:30\u202fPM', 'Saturday, 10\u202fAM to 9:30\u202fPM.']",https://lh5.googleusercontent.com/p/AF1QipNGMLW79TqZWu19h-fiebkoxkvUwe5eshlYLeAe=w426-h240-k-no
37,10,Dawoorang,"269-2 Gyo-dong, Wansan-gu, Jeonju-si, Jeollabuk-do",050714825009,3.4,35.8141759,127.1510582,"['Sunday, 10\u202fAM to 9\u202fPM', 'Monday, 10\u202fAM to 9\u202fPM', 'Tuesday, 10\u202fAM to 9\u202fPM', 'Wednesday, 10\u202fAM to 9\u202fPM', 'Thursday, 10\u202fAM to 9\u202fPM', 'Friday, 10\u202fAM to 9:30\u202fPM', 'Saturday, 10\u202fAM to 9:30\u202fPM.']",https://lh5.googleusercontent.com/p/AF1QipNL6Is924nAnMM2Rb37Y1OJVtIGreTKmcIhlTa5=w408-h306-k-no
37,11,성미당 중앙점,"Jeollabuk-do, Jeonju-si, Wansan-gu, Jungang-dong 3(sam)-ga, 31-2",0632878800,3.5,35.8173299,127.1452968,"['Sunday, 11\u202fAM to 8\u202fPM', 'Monday, 11\u202fAM to 4\u202fPM, 5:30 to 8\u202fPM', 'Tuesday, 11\u202fAM to 4\u202fPM, 5:30 to 8\u202fPM', 'Wednesday, 11\u202fAM to 4\u202fPM, 5:30 to 8\u202fPM', 'Thursday, 11\u202fAM to 4\u202fPM, 5:30 to 8\u202fPM', 'Friday, 11\u202fAM to 4\u202fPM, 5:30 to 8\u202fPM', 'Saturday, 11\u202fAM to 8\u202fPM.']",https://lh5.googleusercontent.com/p/AF1QipM02fW7tdF7O5_uWYDC7roeG5CT3utUJThrqm9F=w408-h306-k-no
37,12,Hanjuog,"31 Guyeong 2-gil, Yeonghwa-dong, Gunsan-si, Jeollabuk-do",0634433812,3.8,35.9893514,126.7092973,"['Sunday, 11\u202fAM to 9\u202fPM', 'Monday, 11\u202fAM to 9\u202fPM', 'Tuesday, 11\u202fAM to 9\u202fPM', 'Wednesday, 11\u202fAM to 9\u202fPM', 'Thursday, 11\u202fAM to 9\u202fPM', 'Friday, 11\u202fAM to 9\u202fPM', 'Saturday, 11\u202fAM to 9\u202fPM.']",https://lh5.googleusercontent.com/p/AF1QipPh0ER6qUA5pv-pFIFSD88jgU1D2nG0ChXfne8c=w408-h306-k-no
37,13,변산명인바지락죽,"794 Byeonsanhaebyeon-ro, Byeonsan-myeon, Buan-gun, Jeollabuk-do",0635847171,3.5,35.6645597,126.5134049,"['Sunday, 8:30\u202fAM to 6:40\u202fPM', 'Monday, 8:30\u202fAM to 6:40\u202fPM', 'Tuesday, 8:30\u202fAM to 6:40\u202fPM', 'Wednesday, 8:30\u202fAM to 6:40\u202fPM', 'Thursday, 8:30\u202fAM to 6:40\u202fPM', 'Friday, 8:30\u202fAM to 6:40\u202fPM', 'Saturday, 8:30\u202fAM to 6:40\u202fPM.']",https://lh5.googleusercontent.com/p/AF1QipP1o7AC7cSuPoA9KEAMU39AJqsjLm52AL9IGVSZ=w507-h240-k-no
37,14,Gyodong Seokgalbi,"26 Taejo-ro, Pungnam-dong, Wansan-gu, Jeonju-si, Jeollabuk-do",0632882282,3.8,35.8147339,127.1518748,"['Sunday, 11\u202fAM to 8:30\u202fPM', 'Monday, 11\u202fAM to 3:30\u202fPM, 4 to 8:30\u202fPM', 'Tuesday, 11\u202fAM to 3:30\u202fPM, 4 to 8:30\u202fPM', 'Wednesday, 11\u202fAM to 3:30\u202fPM, 4 to 8:30\u202fPM', 'Thursday, 11\u202fAM to 3:30\u202fPM, 4 to 8:30\u202fPM', 'Friday, 11\u202fAM to 3:30\u202fPM, 4 to 8:30\u202fPM', 'Saturday, 11\u202fAM to 8:30\u202fPM.']",https://lh5.googleusercontent.com/p/AF1QipM9uHq-vjmo24GO-Kct5BIkXsuh41OFJU1JS9-j=w408-h306-k-no
37,15,2대째순대,Sunchang,0636530456,4.1,35.3714647,127.1451532,"['Sunday, 7\u202fAM to 4\u202fPM', 'Monday, 7\u202fAM to 4\u202fPM', 'Tuesday, 7\u202fAM to 4\u202fPM', 'Wednesday, 7\u202fAM to 4\u202fPM', 'Thursday, 7\u202fAM to 4\u202fPM', 'Friday, 7\u202fAM to 4\u202fPM', 'Saturday, 7\u202fAM to 4\u202fPM.']",https://lh5.googleusercontent.com/p/AF1QipMHl9QdaZHgdV87FyDCTvkfk_ByCq0leSbiI3sb=w408-h306-k-no
37,16,Yetchon Makgeolli,"11 Seosincheonbyeon-ro, Wansan-gu, Jeonju-si, Jeollabuk-do",0632729992,3.8,35.8263783,127.1141126,"['Sunday, 1 to 10\u202fPM', 'Monday, 1 to 10\u202fPM', 'Tuesday, 1 to 10\u202fPM', 'Wednesday, 1 to 10\u202fPM', 'Thursday, 1 to 10\u202fPM', 'Friday, 1 to 10\u202fPM', 'Saturday, 3 to 11\u202fPM.']",https://lh5.googleusercontent.com/p/AF1QipN5LBfWQURho8-gMUmkmFDpOSi3ifzHcVmcXTrD=w408-h306-k-no
37,17,이연국수,"286-3 Gyeonhwonwanggung-ro, Deokjin-gu, Jeonju-si, Jeollabuk-do",0632420036,4.4,35.8435959,127.144559,"['Sunday, 11\u202fAM to 8:30\u202fPM', 'Monday, 11\u202fAM to 8:30\u202fPM', 'Tuesday, 11\u202fAM to 8:30\u202fPM', 'Wednesday, 11\u202fAM to 8:30\u202fPM', 'Thursday, 11\u202fAM to 8:30\u202fPM', 'Friday, 11\u202fAM to 8:30\u202fPM', 'Saturday, 11\u202fAM to 8:30\u202fPM.']",https://lh5.googleusercontent.com/p/AF1QipMaGlLcm78xR1oq7hL4NgTEUHycZ7skPmayo0Ip=w408-h544-k-no
37,18,Bogseonglu,"382 Wolmyeong-ro, Gunsan-si, Jeollabuk-do",0634458412,3.8,35.9781996,126.7157715,"['Sunday, Closed', 'Monday, 10\u202fAM to 4\u202fPM', 'Tuesday, 10\u202fAM to 4\u202fPM', 'Wednesday, 10\u202fAM to 4\u202fPM', 'Thursday, 10\u202fAM to 4\u202fPM', 'Friday, 10\u202fAM to 4\u202fPM', 'Saturday, 10\u202fAM to 4\u202fPM.']",https://lh5.googleusercontent.com/p/AF1QipN__duRVQSYavmxcgJqq1Y9IA6j9aKB0tzx7_wd=w408-h544-k-no
37,19,이도생선가,Jeonju,0632232076,4.1,35.8190052,127.1220426,"['Sunday, 11:30\u202fAM to 9\u202fPM', 'Monday, 11:30\u202fAM to 9\u202fPM', 'Tuesday, 11:30\u202fAM to 9\u202fPM', 'Wednesday, 11:30\u202fAM to 9\u202fPM', 'Thursday, 11:30\u202fAM to 9\u202fPM', 'Friday, 11:30\u202fAM to 9\u202fPM', 'Saturday, 11:30\u202fAM to 9\u202fPM.']",https://lh5.googleusercontent.com/p/AF1QipMKMMCS9Rzits5jpgosowdKW115Zy8udYf4yh8x=w408-h306-k-no
37,20,Gukhwa Hoegwan,Jeongeup,0635365432,4.0,35.5701907,126.8454247,"['Sunday, 9\u202fAM to 8\u202fPM', 'Monday, 9\u202fAM to 8\u202fPM', 'Tuesday, 9\u202fAM to 8\u202fPM', 'Wednesday, 9\u202fAM to 8\u202fPM', 'Thursday, 9\u202fAM to 8\u202fPM', 'Friday, 9\u202fAM to 8\u202fPM', 'Saturday, 9\u202fAM to 8\u202fPM.']",https://lh5.googleusercontent.com/p/AF1QipMXS1zO48y25jfzohxHsRzZc3tMOdtkgm5yivuo=w408-h306-k-no
37,21,Wanjuog,Gunsan,0634452644,3.3,35.9855553,126.7173152,"['Sunday, 10\u202fAM to 9\u202fPM', 'Monday, 10\u202fAM to 9\u202fPM', 'Tuesday, 10\u202fAM to 9\u202fPM', 'Wednesday, 10\u202fAM to 9\u202fPM', 'Thursday, 10\u202fAM to 9\u202fPM', 'Friday, 10\u202fAM to 9\u202fPM', 'Saturday, 10\u202fAM to 9\u202fPM.']",https://lh5.googleusercontent.com/p/AF1QipOpRIjJAbPegbNvL6stJ70u4J1zg4gs5Ad_lR1B=w408-h544-k-no
37,22,3대원조 할매추어탕,"279 Ssanggyo-dong, Namwon-si, Jeollabuk-do",0636320535,4.2,35.4033362,127.382065,"['Sunday, 10\u202fAM to 8\u202fPM', 'Monday, 10\u202fAM to 8\u202fPM', 'Tuesday, 10\u202fAM to 8\u202fPM', 'Wednesday, 10\u202fAM to 8\u202fPM', 'Thursday, 10\u202fAM to 8\u202fPM', 'Friday, 10\u202fAM to 8\u202fPM', 'Saturday, 10\u202fAM to 8\u202fPM.']",https://lh5.googleusercontent.com/p/AF1QipNlrArxuKE_sWv-I5zdIj9NMtKeVz_ZkrrOQk3t=w480-h240-k-no
37,23,칠산꽃게장전문점,"573 Gomso-ri, Jinseo-myeon, Buan-gun, Jeollabuk-do",0635813470,4.0,35.589376,126.604719,"['Sunday, 9\u202fAM to 8\u202fPM', 'Monday, 9\u202fAM to 8\u202fPM', 'Tuesday, 9\u202fAM to 8\u202fPM', 'Wednesday, 9\u202fAM to 8\u202fPM', 'Thursday, 9\u202fAM to 8\u202fPM', 'Friday, 9\u202fAM to 8\u202fPM', 'Saturday, 9\u202fAM to 8\u202fPM.']",https://lh5.googleusercontent.com/p/AF1QipNT2Pjyhzx7rKp0D6IZMtvQgg7l9XLq1W9xfsAK=w426-h240-k-no
37,24,금암피순대 (금암순대),"400-61 Girin-daero, Deokjin-gu, Jeonju-si, Jeollabuk-do",0632721394,4.2,35.8383775,127.1328403,"['Sunday, 10\u202fAM to 9\u202fPM', 'Monday, 10\u202fAM to 9\u202fPM', 'Tuesday, 10\u202fAM to 9\u202fPM', 'Wednesday, 10\u202fAM to 9\u202fPM', 'Thursday, 10\u202fAM to 9\u202fPM', 'Friday, 10\u202fAM to 9\u202fPM', 'Saturday, 10\u202fAM to 9\u202fPM.']",https://lh5.googleusercontent.com/p/AF1QipNUzjlW3QShv5wk-4LRx1NNhJbVwPuXRLSHLM3O=w426-h240-k-no
37,25,예촌,"43-1 Geumgu-ri, Geumgu-myeon, Gimje-si, Jeollabuk-do",0635465586,4.3,35.7743558,127.0108982,"['Sunday, 11\u202fAM to 9\u202fPM', 'Monday, Closed', 'Tuesday, 11\u202fAM to 2:30\u202fPM, 5 to 9\u202fPM', 'Wednesday, 11\u202fAM to 2:30\u202fPM, 5 to 9\u202fPM', 'Thursday, 11\u202fAM to 2:30\u202fPM, 5 to 9\u202fPM', 'Friday, 11\u202fAM to 2:30\u202fPM, 5 to 9\u202fPM', 'Saturday, 11\u202fAM to 9\u202fPM.']",https://lh5.googleusercontent.com/p/AF1QipOoW_AU9wlahCVjZy-pSO-qSbCAki_Bo9M-hgLK=w408-h306-k-no
37,26,Pastology,"98 Jeonjugaeksa 3-gil, Jungang-dong, Wansan-gu, Jeonju-si, Jeollabuk-do",No Phone Number,4.7,35.8215071,127.1413322,"['Sunday, 11:30\u202fAM to 9\u202fPM', 'Monday, Closed', 'Tuesday, 11:30\u202fAM to 9\u202fPM', 'Wednesday, 11:30\u202fAM to 9\u202fPM', 'Thursday, 11:30\u202fAM to 9\u202fPM', 'Friday, 11:30\u202fAM to 9\u202fPM', 'Saturday, 11:30\u202fAM to 9\u202fPM.']",https://lh5.googleusercontent.com/p/AF1QipNzWvzPxXGs2C3WjsThq3tQ5gjbSE6K9h9WSf2L=w408-h544-k-no
37,27,대왕가든,"795 Gueok-ri, Yongjin-eup, Wanju-gun, Jeollabuk-do",0632432930,4.1,35.8759492,127.1583686,"['Sunday, 11:30\u202fAM to 8:30\u202fPM', 'Monday, 12\u202fAM to 8:30\u202fPM', 'Tuesday, 11:30\u202fAM to 8:30\u202fPM', 'Wednesday, Closed', 'Thursday, 11:30\u202fAM to 8:30\u202fPM', 'Friday, 11:30\u202fAM to 8:30\u202fPM', 'Saturday, 11:30\u202fAM to 8:30\u202fPM.']",https://lh5.googleusercontent.com/p/AF1QipNhEE4RCcJKvVMZLV0NV2fwueuYFt8Mt3Pl_09w=w426-h240-k-no
37,28,Middle East Hotteok,"365 Gyeongam-dong, Gunsan-si, Jeollabuk-do",0634450849,3.5,35.9824709,126.7224482,"['Sunday, 1 to 6\u202fPM', 'Monday, 10\u202fAM to 7\u202fPM', 'Tuesday, 10\u202fAM to 7\u202fPM', 'Wednesday, 10\u202fAM to 7\u202fPM', 'Thursday, 10\u202fAM to 7\u202fPM', 'Friday, 10\u202fAM to 7\u202fPM', 'Saturday, 10\u202fAM to 7\u202fPM.']",https://lh5.googleusercontent.com/p/AF1QipPbHnWi2l2zD6DMH3dPe3_6qoTav8qu7G06Bf-j=w408-h306-k-no
37,29,해용집,"Jeollabuk-do, Namwon-si, Sikjeong-dong, 2-3 KR",0636352284,4.1,35.4574285,127.434379,"['Sunday, 11\u202fAM to 9:30\u202fPM', 'Monday, 11\u202fAM to 9:30\u202fPM', 'Tuesday, 11\u202fAM to 9:30\u202fPM', 'Wednesday, 11\u202fAM to 9:30\u202fPM', 'Thursday, 11\u202fAM to 9:30\u202fPM', 'Friday, 11\u202fAM to 9:30\u202fPM', 'Saturday, 11\u202fAM to 9:30\u202fPM.']",https://lh5.googleusercontent.com/p/AF1QipOYXFj5dNb0aBKKT5gmh8SsuT56GThsO6O-Mm74=w545-h240-k-no
37,30,MyeongCheon Super Sikdang,"680-1 Cheonggong-ro, Gongdeok-myeon, Gimje-si, Jeollabuk-do",0635428486,3.8,35.8864875,126.8954949,"['Sunday, Closed', 'Monday, 11\u202fAM to 8\u202fPM', 'Tuesday, 11\u202fAM to 8\u202fPM', 'Wednesday, 11\u202fAM to 8\u202fPM', 'Thursday, 11\u202fAM to 8\u202fPM', 'Friday, 11\u202fAM to 8\u202fPM', 'Saturday, 11\u202fAM to 8\u202fPM.']",https://lh5.googleusercontent.com/p/AF1QipMZF2XYCNrV-Fz6j5MRHvnxJTXCGkCW-Skjmt61=w493-h240-k-no
37,31,금단양만,"77 Geomdang-gil, Simwon-myeon, Gochang-gun, Jeollabuk-do",0635635125,4.1,35.5367597,126.5533129,"['Sunday, 10:30\u202fAM to 9\u202fPM', 'Monday, 10:30\u202fAM to 9\u202fPM', 'Tuesday, 10:30\u202fAM to 9\u202fPM', 'Wednesday, 10:30\u202fAM to 9\u202fPM', 'Thursday, 10:30\u202fAM to 9\u202fPM', 'Friday, 10:30\u202fAM to 9\u202fPM', 'Saturday, 10:30\u202fAM to 9\u202fPM.']",https://lh5.googleusercontent.com/p/AF1QipOfkYtP0WeWGisBkgIz9j-2bbMwQatF5X37GWGk=w426-h240-k-no
37,32,England Bakery,Gunsan,0634663477,4.1,35.9785449,126.7049942,"['Sunday, 8\u202fAM to 10\u202fPM', 'Monday, 8\u202fAM to 10\u202fPM', 'Tuesday, 8\u202fAM to 10\u202fPM', 'Wednesday, 8\u202fAM to 10\u202fPM', 'Thursday, 8\u202fAM to 10\u202fPM', 'Friday, 8\u202fAM to 10\u202fPM', 'Saturday, 8\u202fAM to 10\u202fPM.']",https://lh5.googleusercontent.com/p/AF1QipPtsnsuj69eNdCXHiGbTUyb13hxMeZfCOdkNmUa=w408-h306-k-no
37,33,할머니국수집,Wanju-gun,0632612312,4.0,35.9388889,127.1672222,"['Sunday, 10\u202fAM to 7\u202fPM', 'Monday, 10\u202fAM to 7\u202fPM', 'Tuesday, 10\u202fAM to 7\u202fPM', 'Wednesday, 10\u202fAM to 7\u202fPM', 'Thursday, 10\u202fAM to 7\u202fPM', 'Friday, 10\u202fAM to 7\u202fPM', 'Saturday, 10\u202fAM to 7\u202fPM.']",https://lh5.googleusercontent.com/p/AF1QipM2s1vxPg36zWEBXLvRQ7XGcmF4bTgdzza4pJ_n=w426-h240-k-no
37,34,Banya Dolsotbap,"6 Hongsan 1-gil, Wansan-gu, Jeonju-si, Jeollabuk-do",0632883174,3.7,35.8148491,127.1084096,"['Sunday, 10:50\u202fAM to 3\u202fPM, 5 to 8:30\u202fPM', 'Monday, 10:50\u202fAM to 3\u202fPM, 5 to 8:30\u202fPM', 'Tuesday, 10:50\u202fAM to 3\u202fPM, 5 to 8:30\u202fPM', 'Wednesday, 10:50\u202fAM to 3\u202fPM, 5 to 8:30\u202fPM', 'Thursday, 10:50\u202fAM to 3\u202fPM, 5 to 8:30\u202fPM', 'Friday, 10:50\u202fAM to 3\u202fPM, 5 to 8:30\u202fPM', 'Saturday, 10:50\u202fAM to 3\u202fPM, 5 to 8:30\u202fPM.']",https://lh5.googleusercontent.com/p/AF1QipMSUVTK95RMx_ICIaT6z7RjVQHKDMH_10tb2M-T=w426-h240-k-no
37,35,우정회관,"196 Simwon-ro, Simwon-myeon, Gochang-gun, Jeollabuk-do",0635612486,4.2,35.523372,126.5496204,"['Sunday, 9\u202fAM to 6\u202fPM', 'Monday, Closed', 'Tuesday, Closed', 'Wednesday, Closed', 'Thursday, Closed', 'Friday, 9\u202fAM to 6\u202fPM', 'Saturday, 9\u202fAM to 6\u202fPM.']",https://lh5.googleusercontent.com/p/AF1QipPbDhoFmNuLA19N6aPttFPSuLnQVF2ZolYs_ErV=w426-h240-k-no
37,36,인천가든,"9 Wonpyeong-gil, Asan-myeon, Gochang-gun, Jeollabuk-do",0635648643,4.2,35.4625537,126.6277615,"['Sunday, 11\u202fAM to 6\u202fPM', 'Monday, 11\u202fAM to 6\u202fPM', 'Tuesday, 11\u202fAM to 6\u202fPM', 'Wednesday, 11\u202fAM to 6\u202fPM', 'Thursday, 11\u202fAM to 6\u202fPM', 'Friday, 11\u202fAM to 6\u202fPM', 'Saturday, 11\u202fAM to 6\u202fPM.']",https://lh5.googleusercontent.com/p/AF1QipN3DHMMQ1gg-7YkbzaAx8Giam9B2xWEMLKzh9OR=w408-h306-k-no
37,37,변산 온천산장,"Jeollabuk-do, Buan-gun, Byeonsan-myeon, Daehang-ri, 109-2",0635844874,3.8,35.6884088,126.558997,"['Sunday, 8\u202fAM to 6\u202fPM', 'Monday, 8\u202fAM to 6\u202fPM', 'Tuesday, 8\u202fAM to 6\u202fPM', 'Wednesday, 8\u202fAM to 6\u202fPM', 'Thursday, 8\u202fAM to 6\u202fPM', 'Friday, 8\u202fAM to 6\u202fPM', 'Saturday, 8\u202fAM to 6\u202fPM.']",https://lh5.googleusercontent.com/p/AF1QipOrPZ0d8qhJnNSfBWSch6qA9KhZnaxH4fK9SuJ1=w408-h306-k-no
37,38,Hyeonsigdang,"8 Uichong-ro, Namwon-si, Jeollabuk-do",0636265163,4.2,35.4013293,127.3770065,"['Sunday, 7:30\u202fAM to 8\u202fPM', 'Monday, 7:30\u202fAM to 8\u202fPM', 'Tuesday, 7:30\u202fAM to 8\u202fPM', 'Wednesday, 7:30\u202fAM to 8\u202fPM', 'Thursday, 7:30\u202fAM to 8\u202fPM', 'Friday, 7:30\u202fAM to 8\u202fPM', 'Saturday, 7:30\u202fAM to 8\u202fPM.']",https://lh5.googleusercontent.com/p/AF1QipMKyzZmUyZSgERd1zPaevKMfVRRN4PXIbprSUkF=w408-h306-k-no
37,39,계곡가든꽃게장,"616 Adong-ri, Gaejeong-myeon, Gunsan-si, Jeollabuk-do",0634530608,3.6,35.9831574,126.7717445,"['Sunday, 11\u202fAM to 10\u202fPM', 'Monday, 11\u202fAM to 10\u202fPM', 'Tuesday, 11\u202fAM to 10\u202fPM', 'Wednesday, 11\u202fAM to 10\u202fPM', 'Thursday, 11\u202fAM to 10\u202fPM', 'Friday, 11\u202fAM to 10\u202fPM', 'Saturday, 11\u202fAM to 10\u202fPM.']",https://lh5.googleusercontent.com/p/AF1QipOagn_mHIq1lVlMYL3SBTDt1nhV3jsVUsA-nVdV=w408-h306-k-no
37,40,도봉집,Imsil-gun,0636432980,4.1,35.6144151,127.2830764,"['Sunday, 10\u202fAM to 7\u202fPM', 'Monday, 10\u202fAM to 8\u202fPM', 'Tuesday, 10\u202fAM to 8\u202fPM', 'Wednesday, 10\u202fAM to 8\u202fPM', 'Thursday, 10\u202fAM to 8\u202fPM', 'Friday, 10\u202fAM to 8\u202fPM', 'Saturday, 10\u202fAM to 7\u202fPM.']",https://lh5.googleusercontent.com/p/AF1QipP9iF4gQPEVnEGm7RKWtDupfS_GaLRbOuqqVXM=w408-h306-k-no
37,41,해변촌 탈아리궁,"27 Mapo-ro, Byeonsan-myeon, Buan-gun, Jeollabuk-do",0635815740,3.6,35.6384051,126.4888557,"['Sunday, 9:30\u202fAM to 8:30\u202fPM', 'Monday, 9:30\u202fAM to 8:30\u202fPM', 'Tuesday, 9:30\u202fAM to 8:30\u202fPM', 'Wednesday, 9:30\u202fAM to 8:30\u202fPM', 'Thursday, 9:30\u202fAM to 8:30\u202fPM', 'Friday, 9:30\u202fAM to 8:30\u202fPM', 'Saturday, 9:30\u202fAM to 8:30\u202fPM.']",https://lh5.googleusercontent.com/p/AF1QipNmacFtQyFuiETwa_vHZQfdRKNX0-DHJeQeqNU7=w507-h240-k-no
37,42,카페 슬록,"64-16 Daga-dong 3(sam)-ga, Wansan-gu, Jeonju-si, Jeollabuk-do",No Phone Number,4.5,35.8166857,127.1400275,"['Sunday, 11\u202fAM to 10\u202fPM', 'Monday, 11\u202fAM to 10\u202fPM', 'Tuesday, 11\u202fAM to 10\u202fPM', 'Wednesday, 11\u202fAM to 10\u202fPM', 'Thursday, 11\u202fAM to 10\u202fPM', 'Friday, 11\u202fAM to 10\u202fPM', 'Saturday, 11\u202fAM to 10\u202fPM.']",https://lh5.googleusercontent.com/p/AF1QipOLiT-Awx_Bdamzgqmd8zHjzakdX1w--a6_4Ok=w408-h408-k-no
37,43,한일관,Muju,No Phone Number,4.0,36.0084024,127.6622799,"['Sunday, Closed', 'Monday, 9\u202fAM to 7\u202fPM', 'Tuesday, 9\u202fAM to 7\u202fPM', 'Wednesday, 9\u202fAM to 7\u202fPM', 'Thursday, 9\u202fAM to 7\u202fPM', 'Friday, 9\u202fAM to 7\u202fPM', 'Saturday, 9\u202fAM to 7\u202fPM.']",https://lh5.googleusercontent.com/p/AF1QipPSFPXfaM24Tx-WuiL7CAtnkcJ2k_6ilKBOpIX_=w408-h544-k-no
37,44,보안식당 Boan Sikdang,"528-5 Suseong-dong, Jeongeup-si, Jeollabuk-do",0635356213,4.1,35.5686797,126.8502447,"['Sunday, Closed', 'Monday, 11:30\u202fAM to 2\u202fPM, 4 to 7\u202fPM', 'Tuesday, 11:30\u202fAM to 2\u202fPM, 4 to 7\u202fPM', 'Wednesday, 11:30\u202fAM to 2\u202fPM, 4 to 7\u202fPM', 'Thursday, 11:30\u202fAM to 2\u202fPM, 4 to 7\u202fPM', 'Friday, 11:30\u202fAM to 2\u202fPM, 4 to 7\u202fPM', 'Saturday, 11\u202fAM to 2\u202fPM, 3 to 6\u202fPM.']",https://lh5.googleusercontent.com/p/AF1QipPvqI9RDydOzLpYeZ7bVZWxscCvs7QODyOkq6GX=w408-h306-k-no
37,45,전일갑오,"16 Hyeonmu 2-gil, Jeonju-si, Jeollabuk-do",0632840793,4.4,35.8202092,127.1499644,"['Sunday, Closed', 'Monday, 3\u202fPM to 1\u202fAM', 'Tuesday, 3\u202fPM to 1\u202fAM', 'Wednesday, 3\u202fPM to 1\u202fAM', 'Thursday, 3\u202fPM to 1\u202fAM', 'Friday, 3\u202fPM to 1\u202fAM', 'Saturday, 3\u202fPM to 1\u202fAM.']",https://lh5.googleusercontent.com/p/AF1QipMGuvI6zZ24_eXHEVOZ_UsSLwlg3XINvqIKIvKO=w408-h510-k-no
37,46,Myoengmun-jegwa,"56 Yongseong-ro, Hajeong-dong, Namwon-si, Jeollabuk-do",0636320933,4.1,35.4090003,127.3824982,"['Sunday, 10\u202fAM to 8\u202fPM', 'Monday, Closed', 'Tuesday, 10\u202fAM to 8\u202fPM', 'Wednesday, 10\u202fAM to 8\u202fPM', 'Thursday, 10\u202fAM to 8\u202fPM', 'Friday, 10\u202fAM to 8\u202fPM', 'Saturday, 10\u202fAM to 8\u202fPM.']",https://lh5.googleusercontent.com/p/AF1QipOs48VltUE5bHTqgjOnMl-1iedPyokX7jCp_ICS=w408-h306-k-no
37,47,정둔면옥,"728-77 금암1동 Deokjin-gu, Jeonju-si, Jeollabuk-do",0632527791,4.3,35.8393048,127.1327484,"['Sunday, Closed', 'Monday, 8\u202fAM to 8\u202fPM', 'Tuesday, 8\u202fAM to 8\u202fPM', 'Wednesday, 8\u202fAM to 8\u202fPM', 'Thursday, 8\u202fAM to 8\u202fPM', 'Friday, 8\u202fAM to 8\u202fPM', 'Saturday, 8\u202fAM to 8\u202fPM.']",https://lh5.googleusercontent.com/p/AF1QipNPw0DFqscTIXOAVE5e8DnLH8Bynr_Tjd_mnZrb=w408-h306-k-no
37,48,Gomso shelter (Pickled formal),"1219-19 Jinseo-ri, Jinseo-myeon, Buan-gun, Jeollabuk-do",0635848007,3.9,35.595423,126.618998,"['Sunday, 8\u202fAM to 8\u202fPM', 'Monday, 8\u202fAM to 8\u202fPM', 'Tuesday, 8\u202fAM to 8\u202fPM', 'Wednesday, 8\u202fAM to 8\u202fPM', 'Thursday, 8\u202fAM to 8\u202fPM', 'Friday, 8\u202fAM to 8\u202fPM', 'Saturday, 8\u202fAM to 8\u202fPM.']",https://lh5.googleusercontent.com/p/AF1QipPQZoUmm04i1jgeioOXu7bCKikig2kSUvwQRPiq=w426-h240-k-no
37,49,신동양,"129-2 Galsan-dong, Iksan-si, Jeollabuk-do",0638553100,4.3,35.9364954,126.9527156,"['Sunday, 11\u202fAM to 8\u202fPM', 'Monday, 11\u202fAM to 8\u202fPM', 'Tuesday, 11\u202fAM to 8\u202fPM', 'Wednesday, 11\u202fAM to 8\u202fPM', 'Thursday, 11\u202fAM to 8\u202fPM', 'Friday, 11\u202fAM to 8\u202fPM', 'Saturday, Closed.']",https://lh5.googleusercontent.com/p/AF1QipPgJOW-aOmg-kAs80id2Vtoc2QQ_AHfcfq8F2cl=w408-h544-k-no
37,50,산들애,Muju,0633241611,4.1,35.9076611,127.7564556,"['Sunday, 9:30\u202fAM to 9\u202fPM', 'Monday, 9:30\u202fAM to 9\u202fPM', 'Tuesday, 9:30\u202fAM to 9\u202fPM', 'Wednesday, 9:30\u202fAM to 9\u202fPM', 'Thursday, 9:30\u202fAM to 9\u202fPM', 'Friday, 9:30\u202fAM to 9\u202fPM', 'Saturday, 9:30\u202fAM to 9\u202fPM.']",https://lh5.googleusercontent.com/p/AF1QipN4gD4Kt9EGGdnVZHm5ctP1BXfLx0RqZYTN3H_V=w408-h306-k-no
37,51,하숙영 가마솥비빔밥 (구 중앙회관),"19-3 Jeollagamyeong 5-gil, Wansan-gu, Jeonju-si, Jeollabuk-do",0632854288,4.1,35.8174071,127.1457957,"['Sunday, 11\u202fAM to 3:30\u202fPM, 5:30 to 7:50\u202fPM', 'Monday, 11\u202fAM to 3:30\u202fPM, 5:30 to 7:50\u202fPM', 'Tuesday, 11\u202fAM to 3:30\u202fPM, 5:30 to 7:50\u202fPM', 'Wednesday, Closed', 'Thursday, 11\u202fAM to 3:30\u202fPM, 5:30 to 7:50\u202fPM', 'Friday, 11\u202fAM to 3:30\u202fPM, 5:30 to 7:50\u202fPM', 'Saturday, 11\u202fAM to 3:30\u202fPM, 5:30 to 7:50\u202fPM.']",https://lh5.googleusercontent.com/p/AF1QipMN1blJO3IleyhnMTv9rFA91h41s4KVPTDUxor9=w426-h240-k-no
37,52,Hyojamun Sikdang,"378-5 Gosa-dong, Wansan-gu, Jeonju-si, Jeollabuk-do",0632844236,3.8,35.8195826,127.1429455,"['Sunday, Closed', 'Monday, 10:30\u202fAM to 9\u202fPM', 'Tuesday, 10:30\u202fAM to 9\u202fPM', 'Wednesday, 10:30\u202fAM to 9\u202fPM', 'Thursday, 10:30\u202fAM to 9\u202fPM', 'Friday, 10:30\u202fAM to 9\u202fPM', 'Saturday, 10:30\u202fAM to 9\u202fPM.']",https://lh5.googleusercontent.com/p/AF1QipP8Z0cu-xTuu1V0eyG9Jk9DoKmvoqY1qrjCj80_=w408-h544-k-no
37,53,Gyodong Tteokgalbi,"73-2 Pungnam-dong 3(sam)-ga, Wansan-gu, Jeonju-si, Jeollabuk-do",0632882232,3.7,35.8153247,127.1522685,"['Sunday, 11\u202fAM to 8:30\u202fPM', 'Monday, 11\u202fAM to 8:30\u202fPM', 'Tuesday, 11\u202fAM to 8:30\u202fPM', 'Wednesday, 11\u202fAM to 8:30\u202fPM', 'Thursday, 11\u202fAM to 8:30\u202fPM', 'Friday, 11\u202fAM to 8:30\u202fPM', 'Saturday, 11\u202fAM to 8:30\u202fPM.']",https://lh5.googleusercontent.com/p/AF1QipN4oNsKcu1phPRSIGjad7TdcE0dA_ViPbWGfhBj=w408-h306-k-no
37,54,한국관 본점,"425 Girin-daero, 금암1동 Deokjin-gu, Jeonju-si, Jeollabuk-do",No Phone Number,4.2,35.8390656,127.1295803,['No Business Hours Available'],https://lh5.googleusercontent.com/p/AF1QipOrVIEI8Uw0hnDDr9pYE4Ah8vGbQ7yynxUL_My9=w408-h306-k-no
37,55,Koch'ang,"29-34 Samin-ri, Asan-myeon, Gochang-gun, Jeollabuk-do",0635621533,4.0,35.5081072,126.5997864,"['Sunday, 10:30\u202fAM to 8\u202fPM', 'Monday, 10:30\u202fAM to 8\u202fPM', 'Tuesday, 10:30\u202fAM to 8\u202fPM', 'Wednesday, 10:30\u202fAM to 8\u202fPM', 'Thursday, 10:30\u202fAM to 8\u202fPM', 'Friday, 10:30\u202fAM to 8\u202fPM', 'Saturday, 10:30\u202fAM to 8\u202fPM.']",https://lh5.googleusercontent.com/p/AF1QipMAqM9PhjbROk1dMJRsg6wKorUzJoqLSavUjjwT=w513-h240-k-no
37,56,남원집 /80첩,"216-2 Sunhwa-ri, Sunchang-eup, Sunchang-gun, Jeollabuk-do",0636532376,2.9,35.3733892,127.1411933,"['Sunday, 11\u202fAM to 8:30\u202fPM', 'Monday, 11\u202fAM to 8:30\u202fPM', 'Tuesday, 11\u202fAM to 8:30\u202fPM', 'Wednesday, 11\u202fAM to 8:30\u202fPM', 'Thursday, 11\u202fAM to 8:30\u202fPM', 'Friday, 11\u202fAM to 8:30\u202fPM', 'Saturday, 11\u202fAM to 8:30\u202fPM.']",https://lh5.googleusercontent.com/p/AF1QipN_06QBO6ncapOgSbedzbOMn4HQbVYDyu1Xp6il=w408-h306-k-no
37,57,압강옥,"257-1 Sajeong-dong, Gunsan-si, Jeollabuk-do",0634522777,4.1,35.9579838,126.7402766,"['Sunday, 11:40\u202fAM to 3\u202fPM, 5 to 8:30\u202fPM', 'Monday, 11:40\u202fAM to 3\u202fPM, 5 to 8:30\u202fPM', 'Tuesday, 11:40\u202fAM to 3\u202fPM, 5 to 8:30\u202fPM', 'Wednesday, 11:40\u202fAM to 3\u202fPM, 5 to 8:30\u202fPM', 'Thursday, 11:40\u202fAM to 3\u202fPM, 5 to 8:30\u202fPM', 'Friday, 11:40\u202fAM to 3\u202fPM, 5 to 8:30\u202fPM', 'Saturday, 11:40\u202fAM to 3\u202fPM, 5 to 8:30\u202fPM.']",https://lh5.googleusercontent.com/p/AF1QipOpm8pJrQjiGyZ2deIpq7gSAJtHI1hsqRqbp1KM=w408-h306-k-no
37,58,풍성제과 본점,"103 Seodong-ro, Iksan-si, Jeollabuk-do",0638568408,4.1,35.9343117,126.9626983,"['Sunday, 9\u202fAM to 8\u202fPM', 'Monday, 9\u202fAM to 8\u202fPM', 'Tuesday, 9\u202fAM to 8\u202fPM', 'Wednesday, 9\u202fAM to 8\u202fPM', 'Thursday, 9\u202fAM to 8\u202fPM', 'Friday, 9\u202fAM to 8\u202fPM', 'Saturday, 9\u202fAM to 8\u202fPM.']",https://lh5.googleusercontent.com/p/AF1QipMFs3e7qwYxsQiZK0rABqGQB3RthzsTl4p1hQNf=w408-h306-k-no
37,59,Veteran Kalguksu,"135 Gyeonggijeon-gil, Wansan-gu, Jeonju-si, Jeollabuk-do",0632859898,3.7,35.8134449,127.1514042,"['Sunday, 9\u202fAM to 8\u202fPM', 'Monday, 9\u202fAM to 8\u202fPM', 'Tuesday, 9\u202fAM to 8\u202fPM', 'Wednesday, 9\u202fAM to 8\u202fPM', 'Thursday, 9\u202fAM to 8\u202fPM', 'Friday, 9\u202fAM to 8\u202fPM', 'Saturday, 9\u202fAM to 8\u202fPM.']",https://lh5.googleusercontent.com/p/AF1QipPUf3FM-yhl1bg6HhRz6GwXqXluYpVQcgAD4fAS=w408-h544-k-no
37,60,O’s Gallery Cafe,"24 Odo-gil, Soyang-myeon, Wanju-gun, Jeollabuk-do",0632447116,4.2,35.9046787,127.2400672,"['Sunday, 9:30\u202fAM to 7\u202fPM', 'Monday, 9:30\u202fAM to 6\u202fPM', 'Tuesday, 9:30\u202fAM to 6\u202fPM', 'Wednesday, 9:30\u202fAM to 6\u202fPM', 'Thursday, 9:30\u202fAM to 6\u202fPM', 'Friday, 9:30\u202fAM to 6\u202fPM', 'Saturday, 9:30\u202fAM to 7\u202fPM.']",https://lh5.googleusercontent.com/p/AF1QipN-LgxcH5nDYZfgfNqYqrIaSf7u1F1BlRZAaB8K=w408-h306-k-no
37,61,무주뚝배기,"Simgok-ri, Seolcheon-myeon, Muju-gun, Jeollabuk-do",0633223097,3.9,35.9069798,127.754937,"['Sunday, 9\u202fAM to 9\u202fPM', 'Monday, 9\u202fAM to 9\u202fPM', 'Tuesday, 9\u202fAM to 9\u202fPM', 'Wednesday, 9\u202fAM to 9\u202fPM', 'Thursday, 9\u202fAM to 9\u202fPM', 'Friday, 9\u202fAM to 9\u202fPM', 'Saturday, 9\u202fAM to 9\u202fPM.']",https://lh5.googleusercontent.com/p/AF1QipOeDrzen8l5VuGda4MKCGtbN2vYmyqywk2RgX1P=w408-h306-k-no
37,62,Market Bibimbap Iksan,"588-2 Hwangdeung-ri, Hwangdeung-myeon, Iksan-si, Jeollabuk-do",0638586051,4.0,36.0059388,126.9456539,"['Sunday, Closed', 'Monday, 11:30\u202fAM to 2\u202fPM', 'Tuesday, 11:30\u202fAM to 2\u202fPM', 'Wednesday, 11:30\u202fAM to 2\u202fPM', 'Thursday, 11:30\u202fAM to 2\u202fPM', 'Friday, 11:30\u202fAM to 2\u202fPM', 'Saturday, 11:30\u202fAM to 2\u202fPM.']",https://lh5.googleusercontent.com/p/AF1QipMyE0a3GHc-FuTYWnmt_R4q8LwDWVK0TDb11EEZ=w426-h240-k-no
37,63,Sam-Ilgwan,"451 Gosa-dong, Wansan-gu, Jeonju-si, Jeollabuk-do",0632848964,4.3,35.8177217,127.1411124,"['Sunday, Open 24 hours', 'Monday, Open 24 hours', 'Tuesday, Open 24 hours', 'Wednesday, Open 24 hours', 'Thursday, Open 24 hours', 'Friday, Open 24 hours', 'Saturday, Open 24 hours.']",https://lh5.googleusercontent.com/p/AF1QipPMxMICwwAnIk-iMcGkETaOHOiKISx1k-7O3Lsk=w519-h240-k-no
37,64,Leesungdang,"177 중앙로, Gunsan-si, Jeollabuk-do",0634452772,4.1,35.9872026,126.7112691,"['Sunday, 8\u202fAM to 9\u202fPM', 'Monday, 8\u202fAM to 9\u202fPM', 'Tuesday, 8\u202fAM to 9\u202fPM', 'Wednesday, 8\u202fAM to 9\u202fPM', 'Thursday, 8\u202fAM to 9\u202fPM', 'Friday, 8\u202fAM to 9\u202fPM', 'Saturday, 8\u202fAM to 9\u202fPM.']",https://lh5.googleusercontent.com/p/AF1QipNMAPIj60lR4ijuxCzPthfK0GCYceoIJziNJ2g6=w408-h272-k-no
37,65,Daebojang,"3 Jeollagamyeong 4-gil, Wansan-gu, Jeonju-si, Jeollabuk-do",0632822880,4.0,35.8157382,127.1448548,"['Sunday, 11:30\u202fAM to 2\u202fPM', 'Monday, 11:30\u202fAM to 2\u202fPM', 'Tuesday, 11:30\u202fAM to 2\u202fPM', 'Wednesday, 11:30\u202fAM to 2\u202fPM', 'Thursday, 11:30\u202fAM to 2\u202fPM', 'Friday, 11:30\u202fAM to 2\u202fPM', 'Saturday, 11:30\u202fAM to 2\u202fPM.']",https://lh5.googleusercontent.com/p/AF1QipMCcg9bmcLO89cgUwO4vZ4C89zqOgcm6y3Lugz0=w408-h314-k-no
37,66,Ppanggom sister and walnut pie factory,"Jeollabuk-do, Iksan-si, Yeongdeung-dong, Gobong-ro 24-gil, 25 KR",07075216940,4.2,35.9548329,126.9713329,"['Sunday, 11\u202fAM to 6\u202fPM', 'Monday, 9\u202fAM to 7\u202fPM', 'Tuesday, 9\u202fAM to 7\u202fPM', 'Wednesday, 9\u202fAM to 7\u202fPM', 'Thursday, 9\u202fAM to 7\u202fPM', 'Friday, 9\u202fAM to 7\u202fPM', 'Saturday, 9\u202fAM to 6\u202fPM.']",https://lh5.googleusercontent.com/p/AF1QipPm5eSRhO8nP5NLgPBHL288btkGw4e9KgeE1niW=w408-h306-k-no
37,67,홍윤베이커리,"Jeollabuk-do, Gunsan-si, Susong-dong, Chukdongan-gil, 40 KR",0634610445,3.8,35.9671318,126.7143852,"['Sunday, 9\u202fAM to 10\u202fPM', 'Monday, 7\u202fAM to 11\u202fPM', 'Tuesday, 7\u202fAM to 11\u202fPM', 'Wednesday, 7\u202fAM to 11\u202fPM', 'Thursday, 7\u202fAM to 11\u202fPM', 'Friday, 7\u202fAM to 11\u202fPM', 'Saturday, 7\u202fAM to 11\u202fPM.']",https://lh5.googleusercontent.com/p/AF1QipOQXyLdQAhxSQzy0G0cv9sVWN7NCqaytV6Dys1O=w408-h306-k-no
37,68,새전주횟집,"Jeollabuk-do, Buan-gun, 변산면 변산해변로 12",0635828711,3.7,35.6281545,126.4720656,"['Sunday, 9:30\u202fAM to 10\u202fPM', 'Monday, 9:30\u202fAM to 10\u202fPM', 'Tuesday, 9:30\u202fAM to 10\u202fPM', 'Wednesday, 9:30\u202fAM to 10\u202fPM', 'Thursday, 9:30\u202fAM to 10\u202fPM', 'Friday, 9:30\u202fAM to 10\u202fPM', 'Saturday, 9:30\u202fAM to 10\u202fPM.']",https://lh5.googleusercontent.com/p/AF1QipMx6n6E3N3okjaMmXadgYsan-qFSBteb2UBKRBQ=w493-h240-k-no
37,69,Ilhaeok Iksan,"230-14 Juhyeon-dong, Iksan-si, Jeollabuk-do",0638521470,4.3,35.9329957,126.9561229,"['Sunday, 6\u202fAM to 3\u202fPM', 'Monday, 6\u202fAM to 3\u202fPM', 'Tuesday, 6\u202fAM to 3\u202fPM', 'Wednesday, 6\u202fAM to 3\u202fPM', 'Thursday, 6\u202fAM to 3\u202fPM', 'Friday, 6\u202fAM to 3\u202fPM', 'Saturday, 6\u202fAM to 3\u202fPM.']",https://lh5.googleusercontent.com/p/AF1QipPbLn0B4IWRMp9Vf9EOtDfewaSqc1HV5LuKKwdU=w408-h306-k-no
37,70,어은동장어집,Gunsan,0634713607,4.1,35.8945606,126.674943,"['Sunday, 11\u202fAM to 10\u202fPM', 'Monday, 11\u202fAM to 10\u202fPM', 'Tuesday, 11\u202fAM to 10\u202fPM', 'Wednesday, 11\u202fAM to 10\u202fPM', 'Thursday, 11\u202fAM to 10\u202fPM', 'Friday, 11\u202fAM to 10\u202fPM', 'Saturday, 11\u202fAM to 10\u202fPM.']",https://lh5.googleusercontent.com/p/AF1QipPsZZgyCYsACg3PyxTDEZs1Xy0Mq1X9kYENk2Pj=w408-h306-k-no
37,71,DaSomChaBan,Gimje,0635465565,3.8,35.7898342,127.0321791,"['Sunday, 11\u202fAM to 9\u202fPM', 'Monday, 11\u202fAM to 9\u202fPM', 'Tuesday, 11\u202fAM to 9\u202fPM', 'Wednesday, 11\u202fAM to 9\u202fPM', 'Thursday, 11\u202fAM to 9:30\u202fPM', 'Friday, 11\u202fAM to 9\u202fPM', 'Saturday, 11\u202fAM to 9\u202fPM.']",https://lh5.googleusercontent.com/p/AF1QipPSRBa7v0btW-eAtw2C7jyMSK1pRYlgX797mtkU=w408-h306-k-no
37,72,삼대젓갈,"25 Gomsohang-gil, Jinseo-myeon, Buan-gun, Jeollabuk-do",0635841588,3.7,35.5872222,126.6047222,"['Sunday, 9:30\u202fAM to 8\u202fPM', 'Monday, 9:30\u202fAM to 8\u202fPM', 'Tuesday, 9:30\u202fAM to 8\u202fPM', 'Wednesday, 9:30\u202fAM to 8\u202fPM', 'Thursday, 9:30\u202fAM to 8\u202fPM', 'Friday, 9:30\u202fAM to 8\u202fPM', 'Saturday, 9:30\u202fAM to 8\u202fPM.']",https://lh5.googleusercontent.com/p/AF1QipOWWUmJpEdpeS-BPypabeqJl1eSF0OS6dloBuw=w408-h408-k-no
37,73,맘스브레드,"81 Hoam-ro, 효자4동 Wansan-gu, Jeonju-si, Jeollabuk-do",0632251108,4.2,35.8086232,127.1035806,"['Sunday, 10:30\u202fAM to 9:30\u202fPM', 'Monday, 9\u202fAM to 10\u202fPM', 'Tuesday, 9\u202fAM to 10\u202fPM', 'Wednesday, 9\u202fAM to 10\u202fPM', 'Thursday, 8:30\u202fAM to 9:30\u202fPM', 'Friday, 9\u202fAM to 10\u202fPM', 'Saturday, 9\u202fAM to 10\u202fPM.']",https://lh5.googleusercontent.com/p/AF1QipOin8JT7goSx2bMIigDCzdkAA8TWlOuVFh1PBES=w503-h240-k-no
37,74,장구목가든,"632-3 Eochi-ri, Donggye-myeon, Sunchang-gun, Jeollabuk-do",0636533917,3.9,35.4698486,127.1892319,"['Sunday, 11\u202fAM to 8:30\u202fPM', 'Monday, 11\u202fAM to 8:30\u202fPM', 'Tuesday, 11\u202fAM to 8:30\u202fPM', 'Wednesday, 11\u202fAM to 8:30\u202fPM', 'Thursday, 11\u202fAM to 8:30\u202fPM', 'Friday, 11\u202fAM to 8:30\u202fPM', 'Saturday, 11\u202fAM to 8:30\u202fPM.']",https://lh5.googleusercontent.com/p/AF1QipOZmF3bpNWQFoMm468JSty2G0gTsUE_1N_IvH4M=w470-h240-k-no
37,75,옹고집쌈밥,"449 Seopo-ri, Napo-myeon, Gunsan-si, Jeollabuk-do",0634538883,3.8,36.0166446,126.7984584,"['Sunday, 10\u202fAM to 9\u202fPM', 'Monday, 10\u202fAM to 9\u202fPM', 'Tuesday, 10\u202fAM to 9\u202fPM', 'Wednesday, 10\u202fAM to 9\u202fPM', 'Thursday, 10\u202fAM to 9\u202fPM', 'Friday, 10\u202fAM to 9\u202fPM', 'Saturday, 10\u202fAM to 9\u202fPM.']",https://lh5.googleusercontent.com/p/AF1QipPn52hQHVZGBG7M1txdPKTn4LXNVWSH0PQnM675=w408-h306-k-no
37,76,Family House（Jeonju Bibimbap）,"Jeollabuk-do, Jeonju-si, Wansan-gu, Jungang-dong 3(sam)-ga, 80",0632840982,3.6,35.8171751,127.1460252,"['Sunday, 10:30\u202fAM to 8\u202fPM', 'Monday, 10:30\u202fAM to 8\u202fPM', 'Tuesday, 10:30\u202fAM to 8\u202fPM', 'Wednesday, 10:30\u202fAM to 8\u202fPM', 'Thursday, 10:30\u202fAM to 8\u202fPM', 'Friday, 10:30\u202fAM to 8\u202fPM', 'Saturday, 10:30\u202fAM to 8\u202fPM.']",https://lh5.googleusercontent.com/p/AF1QipML6oTi7Xuo-F_MwE7FX92n7--j1Nks1dEoeHos=w408-h306-k-no
37,77,Binhaewon,"57 Dongnyeong-gil, Gunsan-si, Jeollabuk-do",0634452429,3.2,35.9888837,126.713907,"['Sunday, 10\u202fAM to 9\u202fPM', 'Monday, Closed', 'Tuesday, 10:30\u202fAM to 9\u202fPM', 'Wednesday, 10:30\u202fAM to 9\u202fPM', 'Thursday, 10:30\u202fAM to 9\u202fPM', 'Friday, 10:30\u202fAM to 9\u202fPM', 'Saturday, 10\u202fAM to 9\u202fPM.']",https://lh5.googleusercontent.com/p/AF1QipMSmYLBj7XuVy26gJCtL2zKF1Ri2VaS5_rFD4k5=w408-h287-k-no
37,78,Geumam Soba,"400-75 Girin-daero, Deokjin-gu, Jeonju-si, Jeollabuk-do",0632780945,4.1,35.8385356,127.1331855,"['Sunday, 11\u202fAM to 8\u202fPM', 'Monday, 11\u202fAM to 8\u202fPM', 'Tuesday, 11\u202fAM to 8\u202fPM', 'Wednesday, 11\u202fAM to 8\u202fPM', 'Thursday, 11\u202fAM to 8\u202fPM', 'Friday, 11\u202fAM to 8\u202fPM', 'Saturday, 11\u202fAM to 8\u202fPM.']",https://lh5.googleusercontent.com/p/AF1QipNo6yWW6AggEHs1izY4Q-JwGrmE-9ZvjiMoUBqY=w408-h306-k-no
37,79,Saejib Chueo-tang,"160-206 Cheongeo-dong, Namwon-si, Jeollabuk-do",0636252443,3.9,35.4002479,127.375351,"['Sunday, 9\u202fAM to 9\u202fPM', 'Monday, 9\u202fAM to 9\u202fPM', 'Tuesday, 9\u202fAM to 9\u202fPM', 'Wednesday, 9\u202fAM to 9\u202fPM', 'Thursday, 9\u202fAM to 9\u202fPM', 'Friday, 9\u202fAM to 9\u202fPM', 'Saturday, 9\u202fAM to 9\u202fPM.']",https://lh5.googleusercontent.com/p/AF1QipOnPVoaTovf-YmABUXOLdNAUkbxCNGRP3t_LPxT=w408-h306-k-no
37,80,Seulji's Zzinppang,"1076 Cheongja-ro, Jinseo-myeon, Buan-gun, Jeollabuk-do",18999504,3.9,35.5946853,126.618301,"['Sunday, 10\u202fAM to 7\u202fPM', 'Monday, 10\u202fAM to 7\u202fPM', 'Tuesday, 10\u202fAM to 7\u202fPM', 'Wednesday, 10\u202fAM to 7\u202fPM', 'Thursday, 10\u202fAM to 7\u202fPM', 'Friday, 10\u202fAM to 7\u202fPM', 'Saturday, 10\u202fAM to 7\u202fPM.']",https://lh5.googleusercontent.com/p/AF1QipPY_mQ4mB0Hgt5WjIISV8ZqeT3dhD_mMuihy12W=w408-h306-k-no
37,81,동락일식,"15-5 Jeollagamyeong 5-gil, Wansan-gu, Jeonju-si, Jeollabuk-do",0632847454,4.2,35.8167774,127.1459453,"['Sunday, 11\u202fAM to 10\u202fPM', 'Monday, 11\u202fAM to 10\u202fPM', 'Tuesday, 11\u202fAM to 10\u202fPM', 'Wednesday, 11\u202fAM to 10\u202fPM', 'Thursday, 11\u202fAM to 10\u202fPM', 'Friday, 11\u202fAM to 10\u202fPM', 'Saturday, 11\u202fAM to 10\u202fPM.']",https://lh5.googleusercontent.com/p/AF1QipO8xbAtOAscgqGtqOeganp6U-KT5Y-thuzoiG2K=w408-h306-k-no
37,82,옛날땡땡이상추튀김,Jeonju,0632730903,3.5,35.8423127,127.128767,"['Sunday, 11\u202fAM to 9\u202fPM', 'Monday, 11\u202fAM to 9\u202fPM', 'Tuesday, 11\u202fAM to 9\u202fPM', 'Wednesday, 11\u202fAM to 9\u202fPM', 'Thursday, 11\u202fAM to 9\u202fPM', 'Friday, 11\u202fAM to 9\u202fPM', 'Saturday, 11\u202fAM to 9\u202fPM.']",https://lh5.googleusercontent.com/p/AF1QipOKfeevzrpoSQXxHbETPSdd0r-C9PSp9Skg08rF=w408-h544-k-no
37,83,수송반점,"426-8 Seoheungnam-dong, Gunsan-si, Jeollabuk-do",0634635445,3.5,35.9717236,126.7131771,"['Sunday, 10:30\u202fAM to 6\u202fPM', 'Monday, 10:30\u202fAM to 6\u202fPM', 'Tuesday, 10:30\u202fAM to 6\u202fPM', 'Wednesday, 10:30\u202fAM to 6\u202fPM', 'Thursday, 10:30\u202fAM to 6\u202fPM', 'Friday, 10:30\u202fAM to 6\u202fPM', 'Saturday, 10:30\u202fAM to 6\u202fPM.']",https://lh5.googleusercontent.com/p/AF1QipMO4yDsAS2U3nBOSbOC4gHf3aUkOnViTSg38bph=w408-h306-k-no
37,84,Horizon cheongbori hanwoochon,"17 Moak-ro, Geumsan-myeon, Gimje-si, Jeollabuk-do",0635430076,4.2,35.7156865,126.9960251,"['Sunday, 11\u202fAM to 3\u202fPM, 4:30 to 9\u202fPM', 'Monday, 11\u202fAM to 3\u202fPM, 4:30 to 9\u202fPM', 'Tuesday, 11\u202fAM to 3\u202fPM, 4:30 to 9\u202fPM', 'Wednesday, Closed', 'Thursday, 11\u202fAM to 3\u202fPM, 4:30 to 9\u202fPM', 'Friday, 11\u202fAM to 3\u202fPM, 4:30 to 9\u202fPM', 'Saturday, 11\u202fAM to 3\u202fPM, 4:30 to 9\u202fPM.']",https://lh5.googleusercontent.com/p/AF1QipNr1QT7HDhy95QFs0LBvq6sitDgNODgKZG94T7R=w408-h306-k-no
37,85,Grandma’s Best,"81-8 Omokdae-gil, Wansan-gu, Jeonju-si, Jeollabuk-do",0632325804,4.2,35.8127193,127.1520858,"['Sunday, 11\u202fAM to 9\u202fPM', 'Monday, 11\u202fAM to 9\u202fPM', 'Tuesday, 11\u202fAM to 9\u202fPM', 'Wednesday, 11\u202fAM to 9\u202fPM', 'Thursday, 11\u202fAM to 9\u202fPM', 'Friday, 11\u202fAM to 9\u202fPM', 'Saturday, 11\u202fAM to 9\u202fPM.']",https://lh5.googleusercontent.com/p/AF1QipMFi-UvBGBK16wLKrLsLKbQj65_IrN4qlyr147O=w408-h306-k-no
37,86,거시기삼계탕,"275 Donggunsan-ro, Seongsan-myeon, Gunsan-si, Jeollabuk-do",0634534911,3.9,35.9828565,126.8066576,"['Sunday, 11:30\u202fAM to 8\u202fPM', 'Monday, 11:30\u202fAM to 8\u202fPM', 'Tuesday, 11:30\u202fAM to 8\u202fPM', 'Wednesday, 11:30\u202fAM to 8\u202fPM', 'Thursday, 11:30\u202fAM to 8\u202fPM', 'Friday, 11:30\u202fAM to 8\u202fPM', 'Saturday, 11:30\u202fAM to 8\u202fPM.']",https://lh5.googleusercontent.com/p/AF1QipO9OK-grTVEYn7n6wcXK-A4fkDkpSgujcX2vciV=w408-h306-k-no
37,87,한방전주콩나물국밥,Seoul,No Phone Number,4.5,37.5874855,127.0830412,['No Business Hours Available'],https://lh5.googleusercontent.com/p/AF1QipMoTSFo2Y3Dg2S1aXyBJsSbUf8y2nppppPOb2t9=w408-h408-k-no
37,88,Saejib Chueo-tang,"160-206 Cheongeo-dong, Namwon-si, Jeollabuk-do",0636252443,3.9,35.4002479,127.375351,"['Sunday, 9\u202fAM to 9\u202fPM', 'Monday, 9\u202fAM to 9\u202fPM', 'Tuesday, 9\u202fAM to 9\u202fPM', 'Wednesday, 9\u202fAM to 9\u202fPM', 'Thursday, 9\u202fAM to 9\u202fPM', 'Friday, 9\u202fAM to 9\u202fPM', 'Saturday, 9\u202fAM to 9\u202fPM.']",https://lh5.googleusercontent.com/p/AF1QipOnPVoaTovf-YmABUXOLdNAUkbxCNGRP3t_LPxT=w408-h306-k-no
37,89,샹그릴라레스토랑,"409-1 Cheolmok-ri, Mupung-myeon, Muju-gun, Jeollabuk-do",No Phone Number,4.6,35.9611237,127.8397153,"['Sunday, 11\u202fAM to 9\u202fPM', 'Monday, 11\u202fAM to 9\u202fPM', 'Tuesday, 11\u202fAM to 9\u202fPM', 'Wednesday, 11\u202fAM to 9\u202fPM', 'Thursday, 11\u202fAM to 9\u202fPM', 'Friday, 11\u202fAM to 9\u202fPM', 'Saturday, 11\u202fAM to 9\u202fPM.']",https://lh5.googleusercontent.com/p/AF1QipN1Eb2bpgnHmb3-Wj7V5xpE_NrwQdILNxJdAlQZ=w426-h240-k-no
37,90,삼일회관,"53-28 Naejang-dong, Jeongeup-si, Jeollabuk-do",0635388131,3.9,35.4937846,126.9275855,"['Sunday, 11\u202fAM to 9\u202fPM', 'Monday, 10\u202fAM to 8\u202fPM', 'Tuesday, 10\u202fAM to 8\u202fPM', 'Wednesday, 10\u202fAM to 8\u202fPM', 'Thursday, 10\u202fAM to 8\u202fPM', 'Friday, 10\u202fAM to 8\u202fPM', 'Saturday, 10\u202fAM to 8\u202fPM.']",https://lh5.googleusercontent.com/p/AF1QipNcis_rbGGLVGruDUm6UluYUGwCj74VC8NwKkYS=w426-h240-k-no
37,91,옛터가든예식장,Jangsu,0633510101,4.2,35.7257404,127.5837672,['No Business Hours Available'],https://lh5.googleusercontent.com/p/AF1QipNPxqIE9YPCcRfXqIfUp0hSregSj-427HyzRm4v=w426-h240-k-no
37,92,태흥갈비,Kochang,0635642223,3.9,35.4343713,126.7088301,"['Sunday, 12 to 9\u202fPM', 'Monday, 12 to 9\u202fPM', 'Tuesday, 12 to 9\u202fPM', 'Wednesday, 12 to 9\u202fPM', 'Thursday, 12 to 9\u202fPM', 'Friday, 12 to 9\u202fPM', 'Saturday, 12 to 9\u202fPM.']",https://lh5.googleusercontent.com/p/AF1QipOuPSmA7aZAAFy44Uadi82fVoCgGElhaGc10xN6=w408-h306-k-no
37,93,Jirinseong,"87 Miwon-ro, Gunsan-si, Jeollabuk-do",0634672905,3.5,35.9796363,126.7139828,"['Sunday, 9:30\u202fAM to 4\u202fPM', 'Monday, 10\u202fAM to 4\u202fPM', 'Tuesday, Closed', 'Wednesday, 10\u202fAM to 4\u202fPM', 'Thursday, 10\u202fAM to 4\u202fPM', 'Friday, 10\u202fAM to 3\u202fPM', 'Saturday, 9:30\u202fAM to 4\u202fPM.']",https://lh5.googleusercontent.com/p/AF1QipNpe3dKo4t4BD6LhGq6Onuubmj3YFePGJRCRQnV=w408-h306-k-no
37,94,Hwasunjib,"1-1 Girin-daero, Wansan-gu, Jeonju-si, Jeollabuk-do",0632846630,4.2,35.8118579,127.1598937,"['Sunday, 9\u202fAM to 9\u202fPM', 'Monday, 9\u202fAM to 9\u202fPM', 'Tuesday, 9\u202fAM to 9\u202fPM', 'Wednesday, 9\u202fAM to 9\u202fPM', 'Thursday, 9\u202fAM to 9\u202fPM', 'Friday, 9\u202fAM to 9\u202fPM', 'Saturday, 9\u202fAM to 9\u202fPM.']",https://lh5.googleusercontent.com/p/AF1QipOUSmr7677Se22m0jf-vqHg5v8BvJ2jkySs9bJU=w408-h306-k-no
37,95,서울소바,"17-1 Jungang-dong 1(il)-ga, Wansan-gu, Jeonju-si, Jeollabuk-do",0632843879,3.8,35.8167714,127.1429325,"['Sunday, 10:30\u202fAM to 9\u202fPM', 'Monday, 10:30\u202fAM to 9\u202fPM', 'Tuesday, 10:30\u202fAM to 9\u202fPM', 'Wednesday, 10:30\u202fAM to 9\u202fPM', 'Thursday, 10:30\u202fAM to 9\u202fPM', 'Friday, 10:30\u202fAM to 9\u202fPM', 'Saturday, 10:30\u202fAM to 9\u202fPM.']",https://lh5.googleusercontent.com/p/AF1QipNLNepUk9metr0qLeF_E0WPImA2IXuZk20XrBU7=w408-h544-k-no
37,96,샘터가든,"121 Samyang-ro 179-gil, Gangbuk-gu, Seoul",029084242,4.4,37.6678969,127.0069423,"['Sunday, 11\u202fAM to 11\u202fPM', 'Monday, 11\u202fAM to 11\u202fPM', 'Tuesday, 11\u202fAM to 11\u202fPM', 'Wednesday, 11\u202fAM to 11\u202fPM', 'Thursday, 11\u202fAM to 11\u202fPM', 'Friday, 11\u202fAM to 11\u202fPM', 'Saturday, 11\u202fAM to 11\u202fPM.']",https://lh5.googleusercontent.com/p/AF1QipPbGsf0v5TYeypAFnxcBUw7RwImPRY_K7LK3Uj5=w408-h495-k-no
37,97,서남만찬,Namweon,0636341670,4.1,35.4182461,127.3980984,"['Sunday, 11:30\u202fAM to 9:30\u202fPM', 'Monday, 11:30\u202fAM to 9:30\u202fPM', 'Tuesday, 11:30\u202fAM to 9:30\u202fPM', 'Wednesday, 11:30\u202fAM to 9:30\u202fPM', 'Thursday, 11:30\u202fAM to 9:30\u202fPM', 'Friday, 11:30\u202fAM to 9:30\u202fPM', 'Saturday, 11:30\u202fAM to 9:30\u202fPM.']",https://lh5.googleusercontent.com/p/AF1QipOcocyIGP14bjdHij2hpXPy4A85ECpvYvOofWzH=w408-h306-k-no
37,98,풍남피순대,Jeonju,0632824289,3.8,35.8124417,127.1467827,"['Sunday, 10\u202fAM to 9\u202fPM', 'Monday, 10\u202fAM to 9\u202fPM', 'Tuesday, 10\u202fAM to 9\u202fPM', 'Wednesday, 10\u202fAM to 9\u202fPM', 'Thursday, 10\u202fAM to 9\u202fPM', 'Friday, 10\u202fAM to 9\u202fPM', 'Saturday, 10\u202fAM to 9\u202fPM.']",https://lh5.googleusercontent.com/p/AF1QipMwrv29shbVU-4rPPxCxHCbuockQdfQ5zLtNGZL=w408-h306-k-no
37,99,Honamgak,"Jeollabuk-do, Jeonju-si, Deokjin-gu, Songcheon-dong 2(i)-ga, 560-3 KR",0632788150,3.8,35.8652338,127.1140095,"['Sunday, 11\u202fAM to 9\u202fPM', 'Monday, 11\u202fAM to 9\u202fPM', 'Tuesday, 11\u202fAM to 9\u202fPM', 'Wednesday, 11\u202fAM to 9\u202fPM', 'Thursday, 11\u202fAM to 9\u202fPM', 'Friday, 11\u202fAM to 9\u202fPM', 'Saturday, 11\u202fAM to 9\u202fPM.']",https://lh5.googleusercontent.com/p/AF1QipMjwFvZmhuVSZzzUfVZ8URPR25kFwZT6ojbdM9Y=w408-h544-k-no
37,100,갑기회관 본점,"Jeollabuk-do, Jeonju-si, Deokjin-gu, Sangni-ro, 50 KR",0632125766,4.1,35.8525464,127.1043131,"['Sunday, 11\u202fAM to 9\u202fPM', 'Monday, 11\u202fAM to 9\u202fPM', 'Tuesday, 11\u202fAM to 9\u202fPM', 'Wednesday, 11\u202fAM to 9\u202fPM', 'Thursday, 11\u202fAM to 9\u202fPM', 'Friday, 11\u202fAM to 9\u202fPM', 'Saturday, 11\u202fAM to 9\u202fPM.']",https://lh5.googleusercontent.com/p/AF1QipPNwiJM__eNQIp9X2tJRAnnI8IJm8EDHHnfPnB5=w408-h306-k-no
37,101,정순순대,"103-1 Changin-dong 1(il)-ga, Iksan-si, Jeollabuk-do",0638413671,3.8,35.9415916,126.9494382,"['Sunday, 9:30\u202fAM to 9:30\u202fPM', 'Monday, 9:30\u202fAM to 9:30\u202fPM', 'Tuesday, 9:30\u202fAM to 9:30\u202fPM', 'Wednesday, 9:30\u202fAM to 9:30\u202fPM', 'Thursday, 9:30\u202fAM to 9:30\u202fPM', 'Friday, 9:30\u202fAM to 9:30\u202fPM', 'Saturday, 9:30\u202fAM to 9:30\u202fPM.']",https://lh5.googleusercontent.com/p/AF1QipOtowBmlXZpUYo0iOz2RFx7m7cNeV3dvNLzmVan=w408-h306-k-no
37,102,금암우족탕,Jeonju,0632528052,3.9,35.8330152,127.1356485,"['Sunday, 8:30\u202fAM to 9\u202fPM', 'Monday, 8:30\u202fAM to 9\u202fPM', 'Tuesday, 8:30\u202fAM to 9\u202fPM', 'Wednesday, 8:30\u202fAM to 9\u202fPM', 'Thursday, 8:30\u202fAM to 9\u202fPM', 'Friday, 8:30\u202fAM to 9\u202fPM', 'Saturday, 8:30\u202fAM to 9\u202fPM.']",https://lh5.googleusercontent.com/p/AF1QipM77weLlFcnUwgL5K-1_aieAaSbwrq0HHFB9bcu=w408-h306-k-no
37,103,금강식당,"Jeollabuk-do, Muju-gun, Muju-eup, Eumnae-ri, 246-7 KR",0633220979,3.8,36.0075829,127.662201,"['Sunday, 9:30\u202fAM to 7:30\u202fPM', 'Monday, 9:30\u202fAM to 7:30\u202fPM', 'Tuesday, 9:30\u202fAM to 7:30\u202fPM', 'Wednesday, 9:30\u202fAM to 7:30\u202fPM', 'Thursday, 9:30\u202fAM to 7:30\u202fPM', 'Friday, 9:30\u202fAM to 7:30\u202fPM', 'Saturday, 9:30\u202fAM to 7:30\u202fPM.']",https://lh5.googleusercontent.com/p/AF1QipOaWvyz4DN5EmS-j8ECcd0re9liMhDu_GO0wsnq=w408-h272-k-no
37,104,옥동송어,"6 Dobong-ro 191ga-gil, Dobong-gu, Seoul",No Phone Number,4.3,37.6910745,127.0415649,['No Business Hours Available'],https://lh5.googleusercontent.com/p/AF1QipNKcGESh1JrfjlBvijJoIiZW0-xiFiuR_AXbsbl=w408-h306-k-no
37,105,농가레스토랑비비정,Wanju-gun,No Phone Number,3.5,35.9019444,127.0730556,"['Sunday, 11:30\u202fAM to 7:30\u202fPM', 'Monday, Closed', 'Tuesday, 11:30\u202fAM to 2:30\u202fPM', 'Wednesday, 11:30\u202fAM to 2:30\u202fPM', 'Thursday, 11:30\u202fAM to 2:30\u202fPM', 'Friday, 11:30\u202fAM to 7:30\u202fPM', 'Saturday, 11:30\u202fAM to 7:30\u202fPM.']",https://lh5.googleusercontent.com/p/AF1QipOmrncHgf19FUXXumhYl0yeeeUUkcTC3zzJVCTp=w408-h306-k-no
37,106,미가옥본점,Jeonju,0632247591,4.1,35.8034511,127.1005131,"['Sunday, 6\u202fAM to 2\u202fPM', 'Monday, Closed', 'Tuesday, 6\u202fAM to 2\u202fPM', 'Wednesday, 6\u202fAM to 2\u202fPM', 'Thursday, 6\u202fAM to 2\u202fPM', 'Friday, 6\u202fAM to 2\u202fPM', 'Saturday, 6\u202fAM to 2\u202fPM.']",https://lh5.googleusercontent.com/p/AF1QipOtPVBkYZEuYggT_mH9aweYQfDgMdCr5YWcfUl0=w408-h408-k-no
37,107,SantaRosa,"Jeollabuk-do, Gunsan-si, 나운3동 Hanbat-ro, 76-12 KR",0634644991,4.0,35.9559443,126.6984877,"['Sunday, 10\u202fAM to 10:30\u202fPM', 'Monday, 10\u202fAM to 10:30\u202fPM', 'Tuesday, 10\u202fAM to 10:30\u202fPM', 'Wednesday, 10\u202fAM to 10:30\u202fPM', 'Thursday, 10\u202fAM to 10:30\u202fPM', 'Friday, 10\u202fAM to 10:30\u202fPM', 'Saturday, 10\u202fAM to 10:30\u202fPM.']",https://lh5.googleusercontent.com/p/AF1QipOQ-kbwTuW6kmPHLDgWlHHgqMIZ4XUnMqQMEvIk=w408-h542-k-no
37,108,Jinmijib,"106 Nosongyeoul 2-gil, Wansan-gu, Jeonju-si, Jeollabuk-do",0632540460,4.1,35.8268518,127.1424212,"['Sunday, 5\u202fPM to 1\u202fAM', 'Monday, 5\u202fPM to 1\u202fAM', 'Tuesday, 5\u202fPM to 1\u202fAM', 'Wednesday, 5\u202fPM to 1\u202fAM', 'Thursday, 5\u202fPM to 1\u202fAM', 'Friday, 5\u202fPM to 1\u202fAM', 'Saturday, 5\u202fPM to 1\u202fAM.']",https://lh5.googleusercontent.com/p/AF1QipMEfdqIU98ndCe-JsQHx69_V4jDzRnxPUgXpv-8=w408-h306-k-no
37,109,Goryeodang,"25 Galsan-dong, Iksan-si, Jeollabuk-do",0638568373,4.1,35.9382735,126.952394,"['Sunday, 11\u202fAM to 4\u202fPM', 'Monday, Closed', 'Tuesday, Closed', 'Wednesday, Closed', 'Thursday, Closed', 'Friday, 11\u202fAM to 5\u202fPM', 'Saturday, 11\u202fAM to 4\u202fPM.']",https://lh5.googleusercontent.com/p/AF1QipMD7VT62l1hDAGU2rxiQEtQfvY5--hxWTN-Dz0G=w408-h306-k-no
37,110,Gilgeoriya,"124 Gyeonggijeon-gil, Wansan-gu, Jeonju-si, Jeollabuk-do",050713593734,3.9,35.8139813,127.1511079,"['Sunday, 9:30\u202fAM to 8:30\u202fPM', 'Monday, 9:30\u202fAM to 8:30\u202fPM', 'Tuesday, 9:30\u202fAM to 8:30\u202fPM', 'Wednesday, 9:30\u202fAM to 8:30\u202fPM', 'Thursday, 9:30\u202fAM to 8:30\u202fPM', 'Friday, 9:30\u202fAM to 9\u202fPM', 'Saturday, 9:30\u202fAM to 9\u202fPM.']",https://lh5.googleusercontent.com/p/AF1QipNZ6wBGVDvMX7OtxsERbVK61aHnPySlVLZNkzE9=w408-h544-k-no
37,111,Yangtze River (Mixing Champong),"668-1 Suseong-dong, Jeongeup-si, Jeollabuk-do",0635334870,3.9,35.5666438,126.8573752,"['Sunday, 10:40\u202fAM to 7:30\u202fPM', 'Monday, Closed', 'Tuesday, 10:40\u202fAM to 7:30\u202fPM', 'Wednesday, 10:40\u202fAM to 7:30\u202fPM', 'Thursday, 10:40\u202fAM to 7:30\u202fPM', 'Friday, 10:40\u202fAM to 7:30\u202fPM', 'Saturday, 10:40\u202fAM to 7:30\u202fPM.']",https://lh5.googleusercontent.com/p/AF1QipP8DRtyu0o-OVw9eS8ZkRp-o5WpVNrXe40QWxvC=w408-h306-k-no
37,112,삼백집 본점,"22 Jeonjugaeksa 2-gil, Wansan-gu, Jeonju-si, Jeollabuk-do",0632842227,3.9,35.8178302,127.1410166,"['Sunday, 6\u202fAM to 10\u202fPM', 'Monday, 6\u202fAM to 10\u202fPM', 'Tuesday, 6\u202fAM to 10\u202fPM', 'Wednesday, 6\u202fAM to 10\u202fPM', 'Thursday, 6\u202fAM to 10\u202fPM', 'Friday, 6\u202fAM to 10\u202fPM', 'Saturday, 6\u202fAM to 10\u202fPM.']",https://lh5.googleusercontent.com/p/AF1QipOrKMkKnKsn8gUKIrYo-VYjag5uHJSBWAVclZ4s=w408-h306-k-no
37,113,조점례남문피순대,"39 Pungnammun 2-gil, Wansan-gu, Jeonju-si, Jeollabuk-do",0632325006,3.9,35.8125501,127.1470739,"['Sunday, 6\u202fAM to 10\u202fPM', 'Monday, 6\u202fAM to 10\u202fPM', 'Tuesday, 6\u202fAM to 10\u202fPM', 'Wednesday, 6\u202fAM to 10\u202fPM', 'Thursday, 6\u202fAM to 10\u202fPM', 'Friday, 6\u202fAM to 10\u202fPM', 'Saturday, 6\u202fAM to 10\u202fPM.']",https://lh5.googleusercontent.com/p/AF1QipPWZ4oKsjfBUbylzBN-jAUd1bhQh8BwQ62FD1nG=w408-h306-k-no
37,114,기양초,Wanju-gun,0632476667,3.7,35.9041976,127.2431774,"['Sunday, 11\u202fAM to 8:30\u202fPM', 'Monday, 11\u202fAM to 8:30\u202fPM', 'Tuesday, 11\u202fAM to 8:30\u202fPM', 'Wednesday, 11\u202fAM to 8:30\u202fPM', 'Thursday, 11\u202fAM to 8:30\u202fPM', 'Friday, 11\u202fAM to 8:30\u202fPM', 'Saturday, 11\u202fAM to 8:30\u202fPM.']",https://lh5.googleusercontent.com/p/AF1QipPTf8Lb4VTw6F8DklQpGHmjecUuo1K9aanK6gep=w408-h306-k-no
37,115,Gyeongbanglu,"29 Gwanghanbuk-ro, Namwon-si, Jeollabuk-do",0636252325,3.8,35.405533,127.3797419,"['Sunday, 11\u202fAM to 3:30\u202fPM, 5 to 9\u202fPM', 'Monday, 11\u202fAM to 3:30\u202fPM, 5 to 9\u202fPM', 'Tuesday, 11\u202fAM to 3:30\u202fPM, 5 to 9\u202fPM', 'Wednesday, 11\u202fAM to 3:30\u202fPM, 5 to 9\u202fPM', 'Thursday, 11\u202fAM to 3:30\u202fPM, 5 to 9\u202fPM', 'Friday, 11\u202fAM to 3:30\u202fPM, 5 to 9\u202fPM', 'Saturday, 11\u202fAM to 3:30\u202fPM, 5 to 9\u202fPM.']",https://lh5.googleusercontent.com/p/AF1QipM8QBezPIj26q-NMDnepvkmS4R-HqMdqfRcEFww=w408-h544-k-no
37,116,논개생가식당,Jangsu,0633527777,3.8,35.680425,127.6197933,"['Sunday, 10\u202fAM to 9\u202fPM', 'Monday, 10\u202fAM to 9\u202fPM', 'Tuesday, 10\u202fAM to 9\u202fPM', 'Wednesday, 10\u202fAM to 9\u202fPM', 'Thursday, 10\u202fAM to 9\u202fPM', 'Friday, 10\u202fAM to 9\u202fPM', 'Saturday, 10\u202fAM to 9\u202fPM.']",https://lh5.googleusercontent.com/p/AF1QipME8SHO-eGlTfQZEQN_XVNhPvprWAsQrpchyMgw=w408-h676-k-no
37,117,Hanirok,"63 Guyeong 3-gil, Gunsan-si, Jeollabuk-do",0634465491,4.0,35.9874718,126.7082375,"['Sunday, 6\u202fAM to 9:30\u202fPM', 'Monday, 6\u202fAM to 9:30\u202fPM', 'Tuesday, 6\u202fAM to 9:30\u202fPM', 'Wednesday, 6\u202fAM to 9:30\u202fPM', 'Thursday, 6\u202fAM to 9:30\u202fPM', 'Friday, 6\u202fAM to 9:30\u202fPM', 'Saturday, 6\u202fAM to 9:30\u202fPM.']",https://lh5.googleusercontent.com/p/AF1QipOHURFtaq7XqO9KOxMwxtkRzAEqt3-XEzB186NM=w408-h306-k-no
37,118,육일식당,"Jeollabuk-do, Jeonju-si, Wansan-gu, Cheonjam-ro, 17 KR",0632213687,3.9,35.7918684,127.1092695,"['Sunday, 10\u202fAM to 10\u202fPM', 'Monday, 10\u202fAM to 10\u202fPM', 'Tuesday, 10\u202fAM to 10\u202fPM', 'Wednesday, 10\u202fAM to 10\u202fPM', 'Thursday, 10\u202fAM to 10\u202fPM', 'Friday, 10\u202fAM to 10\u202fPM', 'Saturday, 10\u202fAM to 10\u202fPM.']",https://lh5.googleusercontent.com/p/AF1QipPwWMssLXl1XC98oRQKxkwYHiteuIdu-BJPg82-=w408-h306-k-no
37,119,45-year-old traditional bibimbap Jongno Hall,"60-2 Jeon-dong, Wansan-gu, Jeonju-si, Jeollabuk-do",0632834578,3.7,35.8148158,127.1487995,"['Sunday, 9\u202fAM to 9:30\u202fPM', 'Monday, 9\u202fAM to 9:30\u202fPM', 'Tuesday, 9\u202fAM to 9:30\u202fPM', 'Wednesday, 9\u202fAM to 9:30\u202fPM', 'Thursday, 9\u202fAM to 9:30\u202fPM', 'Friday, 9\u202fAM to 9:30\u202fPM', 'Saturday, 9\u202fAM to 9:30\u202fPM.']",https://lh5.googleusercontent.com/p/AF1QipMg96Uw_-6QSyphv8B96Xl3hCPkcSOG0CK9lmWi=w408-h306-k-no
37,120,Hangugjib,"119 Eojin-gil, Wansan-gu, Jeonju-si, Jeollabuk-do",0632840086,3.9,35.8165034,127.1482237,"['Sunday, 10:30\u202fAM to 9\u202fPM', 'Monday, 10:30\u202fAM to 9\u202fPM', 'Tuesday, 10:30\u202fAM to 9\u202fPM', 'Wednesday, 10:30\u202fAM to 9\u202fPM', 'Thursday, 10:30\u202fAM to 9\u202fPM', 'Friday, 10:30\u202fAM to 9\u202fPM', 'Saturday, 10:30\u202fAM to 9\u202fPM.']",https://lh5.googleusercontent.com/p/AF1QipMElRdJF4iRNWPj3PiUfrzDK7pT_s6jkeWSXSka=w426-h240-k-no
37,121,국제반점,"22-8 Yeonghwa-dong, Gunsan-si, Jeollabuk-do",0634453768,4.0,35.9880549,126.7109824,"['Sunday, 11\u202fAM to 8\u202fPM', 'Monday, 11\u202fAM to 8\u202fPM', 'Tuesday, Closed', 'Wednesday, 11\u202fAM to 8\u202fPM', 'Thursday, 11\u202fAM to 8\u202fPM', 'Friday, 11\u202fAM to 8\u202fPM', 'Saturday, 11\u202fAM to 8\u202fPM.']",https://lh5.googleusercontent.com/p/AF1QipMF2jGKliS0o3dq2znMj0W44lbF_RNHqh8u2ibd=w408-h306-k-no
37,122,공감 선유,"53 Suwangsaeteo-gil, Okgu-eup, Gunsan-si, Jeollabuk-do",050714235501,4.6,35.9085547,126.6941569,"['Sunday, 10\u202fAM to 6\u202fPM', 'Monday, 10\u202fAM to 6\u202fPM', 'Tuesday, 10\u202fAM to 6\u202fPM', 'Wednesday, 10\u202fAM to 6\u202fPM', 'Thursday, 10\u202fAM to 6\u202fPM', 'Friday, 10\u202fAM to 6\u202fPM', 'Saturday, 10\u202fAM to 6\u202fPM.']",https://lh5.googleusercontent.com/p/AF1QipOBIy5281IEYUEtEledbTgqBah7PREvjguVqHNP=w408-h306-k-no
37,123,Mereumil Jinmijip,"94 Jeonjucheondong-ro, Wansan-gu, Jeonju-si, Jeollabuk-do",0632884020,4.0,35.8111326,127.1504397,"['Sunday, 10\u202fAM to 8\u202fPM', 'Monday, 10\u202fAM to 8\u202fPM', 'Tuesday, 10\u202fAM to 8\u202fPM', 'Wednesday, 10\u202fAM to 8\u202fPM', 'Thursday, 10\u202fAM to 8\u202fPM', 'Friday, 10\u202fAM to 8\u202fPM', 'Saturday, 10\u202fAM to 8\u202fPM.']",https://lh5.googleusercontent.com/p/AF1QipO8dD0SZuTF2Hbo0zENY2MV5s3GdLmMIslCP0Hz=w408-h306-k-no
37,124,대가꽃게장,Gunsan,0634530831,4.2,35.9816679,126.771949,"['Sunday, 11\u202fAM to 8:30\u202fPM', 'Monday, Closed', 'Tuesday, 11\u202fAM to 8:30\u202fPM', 'Wednesday, 11\u202fAM to 8:30\u202fPM', 'Thursday, 11\u202fAM to 8:30\u202fPM', 'Friday, 11\u202fAM to 8:30\u202fPM', 'Saturday, 11\u202fAM to 8:30\u202fPM.']",https://lh5.googleusercontent.com/p/AF1QipOfwICMhzrdMDfH2E5K3UBZPlkvy2_XgUo9xldo=w408-h306-k-no
37,125,일흥옥 (Ilheung-Og),"25 Guyeong 7-gil, Gunsan-si, Jeollabuk-do",0634453580,4.4,35.9851372,126.7091411,"['Sunday, 5\u202fAM to 3\u202fPM', 'Monday, 5\u202fAM to 3\u202fPM', 'Tuesday, 5\u202fAM to 3\u202fPM', 'Wednesday, Closed', 'Thursday, 5\u202fAM to 3\u202fPM', 'Friday, 5\u202fAM to 3\u202fPM', 'Saturday, 5\u202fAM to 3\u202fPM.']",https://lh5.googleusercontent.com/p/AF1QipN5znj9bLqYaXhMpPO6iG7X4a_-QAEAaJOxC2Cm=w408-h305-k-no
37,126,시골순대,"366-7 Gunsang-ri, Jinan-eup, Jinan-gun, Jeollabuk-do",0634332751,4.4,35.7912577,127.4297523,"['Sunday, 11:30\u202fAM to 2:30\u202fPM', 'Monday, 11:30\u202fAM to 2:30\u202fPM', 'Tuesday, 11:30\u202fAM to 2:30\u202fPM', 'Wednesday, 11:30\u202fAM to 2:30\u202fPM', 'Thursday, Closed', 'Friday, 11:30\u202fAM to 2:30\u202fPM', 'Saturday, 11:30\u202fAM to 2:30\u202fPM.']",https://lh5.googleusercontent.com/p/AF1QipOgIipnG0xk3fY3V69ItbGdlmoa8Ktwin9DB2YP=w408-h306-k-no
37,127,Hwatan Maeuntang,"1 Hwatan-gil, Yudeung-myeon, Sunchang-gun, Jeollabuk-do",0636522956,3.7,35.3902944,127.1979129,['No Business Hours Available'],https://lh5.googleusercontent.com/p/AF1QipNy7nukVauIoSf6EyHFlbtmL7tunW4IyC8kzeq-=w426-h240-k-no
